{"records": [{"name": "Ambulatorio: dove siamo", "GeoCoordinate": {"longitude": 11.193322, "latitude": 46.14484}}, {"name": "Ambulatorio medico e pediatrico", "GeoCoordinate": {"longitude": 11.109585, "latitude": 45.942003}}, {"name": " Ambulatorio comunale", "GeoCoordinate": {"longitude": 10.758872, "latitude": 46.118413}}, {"name": "Ambulatorio medico", "GeoCoordinate": {"longitude": 11.107963, "latitude": 46.431132}}, {"name": "Ambulatorio Comunale", "GeoCoordinate": {"longitude": 11.26612, "latitude": 45.99319}}, {"name": "Ambulatorio medico"}, {"name": "Ambulatorio medico", "GeoCoordinate": {"longitude": 11.116506, "latitude": 46.453388}}, {"name": "Ambulatorio Medico"}, {"name": "Ambulatorio infermieristico", "GeoCoordinate": {"longitude": 11.152455, "latitude": 46.155879}}, {"name": "Ambulatorio igiene e sanit\u00e0 pubblici", "GeoCoordinate": {"longitude": 11.095991, "latitude": 46.211779}}, {"name": "Ambulatorio infermieristico", "GeoCoordinate": {"longitude": 11.120145, "latitude": 46.215123}}, {"name": "Assistenza medico-pedriatica di base", "GeoCoordinate": {"longitude": 11.120124, "latitude": 46.215087}}, {"name": "Medici generici di base - Ambulatorio via Verdi, 32", "GeoCoordinate": {"longitude": 11.12035, "latitude": 46.21441}}, {"name": "Medici generici di base - Ambulatorio - Piazza S. Gottardo - Palazzo al Corso", "GeoCoordinate": {"longitude": 11.120106, "latitude": 46.215112}}, {"name": "Ambulatorio medico "}, {"name": "Ambulatorio medici di base", "GeoCoordinate": {"longitude": 11.258301, "latitude": 46.189146}}, {"name": "Ambulatorio pediatrico", "GeoCoordinate": {"longitude": 11.258301, "latitude": 46.189146}}, {"name": "Ambulatorio infermieristico", "GeoCoordinate": {"longitude": 11.258301, "latitude": 46.189146}}, {"name": "Ambulatorio ginecologico", "GeoCoordinate": {"longitude": 11.261346, "latitude": 46.187572}}, {"name": "Medico d'igiene", "GeoCoordinate": {"longitude": 11.261346, "latitude": 46.187572}}, {"name": "Ambulatorio medico Sover", "GeoCoordinate": {"longitude": 11.316303, "latitude": 46.221827}}, {"name": "Ambulatorio medico Montesover", "GeoCoordinate": {"longitude": 11.326373, "latitude": 46.217237}}, {"name": "Ambulatorio medico Piscine", "GeoCoordinate": {"longitude": 11.325202, "latitude": 46.239248}}, {"name": "Ambulatorio Dott. Marzini Stefano"}, {"name": "Ambulatorio via al Torrione 1  - Trento", "GeoCoordinate": {"longitude": 11.121499, "latitude": 46.065602}}, {"name": "Ambulatorio via 12 Settembre 7 - Vigolo Baselga", "GeoCoordinate": {"longitude": 11.045436, "latitude": 46.081673}}, {"name": "Ambulatorio via dell'Androna 1 - Cadine", "GeoCoordinate": {"longitude": 11.063281, "latitude": 46.086332}}, {"name": "Ambulatorio via San Fabiano 13 - Villamontagna", "GeoCoordinate": {"longitude": 11.15836, "latitude": 46.085369}}, {"name": "Ambulatorio via Volta 38", "GeoCoordinate": {"longitude": 11.124594, "latitude": 46.048593}}, {"name": "Ambulatorio via de le Oselere - Vigo Meano", "GeoCoordinate": {"longitude": 11.136229, "latitude": 46.134311}}, {"name": "Ambulatorio strada del Dos Grum 16 - Baselga del Bondone", "GeoCoordinate": {"longitude": 11.0472, "latitude": 46.078734}}, {"name": "Ambulatorio Valsorda", "GeoCoordinate": {"longitude": 11.156884, "latitude": 46.007836}}, {"name": "Ambulatorio via Milano 118  - Trento", "GeoCoordinate": {"longitude": 11.130311, "latitude": 46.062409}}, {"name": "Ambulatorio corso Alpini 6  - Trento", "GeoCoordinate": {"longitude": 11.117733, "latitude": 46.07925}}, {"name": "Ambulatorio pediatrico loc. S. Don\u00e0 51 - Cognola", "GeoCoordinate": {"longitude": 11.135708, "latitude": 46.070937}}, {"name": "Ambulatorio pediatrico via Poli 4 - Mattarello", "GeoCoordinate": {"longitude": 11.128441, "latitude": 46.00607}}, {"name": "Ambulatorio via dei Mille 61  - Trento", "GeoCoordinate": {"longitude": 11.129619, "latitude": 46.061407}}, {"name": "Ambulatorio via Gramsci 40/A", "GeoCoordinate": {"longitude": 11.124228, "latitude": 46.05328}}, {"name": "Ambulatorio piazza Stainer 2 - Vigo Meano", "GeoCoordinate": {"longitude": 11.133895, "latitude": 46.131963}}, {"name": "Ambulatorio via Giordano 8", "GeoCoordinate": {"longitude": 11.146686, "latitude": 46.0492}}, {"name": "Ambulatorio via Lunelli 50  - Trento", "GeoCoordinate": {"longitude": 11.11731, "latitude": 46.092096}}, {"name": "Ambulatorio pediatrico via Lunelli 32 - Trento", "GeoCoordinate": {"longitude": 11.11761, "latitude": 46.092173}}, {"name": "Ambulatorio pediatrico via Calepina 35  - Trento", "GeoCoordinate": {"longitude": 11.124444, "latitude": 46.067147}}, {"name": "Ambulatorio corso Buonarroti 51  - Trento", "GeoCoordinate": {"longitude": 11.118859, "latitude": 46.073857}}, {"name": "Ambulatorio piazza Oveno 15 - Sopramonte", "GeoCoordinate": {"longitude": 11.058803, "latitude": 46.070941}}, {"name": "Ambulatorio piazza Santi Filippo e Giacomo - Sardagna", "GeoCoordinate": {"longitude": 11.097707, "latitude": 46.063662}}, {"name": "Ambulatorio via Gorizia 2", "GeoCoordinate": {"longitude": 11.13079, "latitude": 46.058542}}, {"name": "Ambulatorio pediatrico via delle Sugarine 26 - Meano", "GeoCoordinate": {"longitude": 11.116127, "latitude": 46.126515}}, {"name": "Ambulatorio via Canova 6 - Gardolo", "GeoCoordinate": {"longitude": 11.11117, "latitude": 46.098378}}, {"name": "Ambulatorio San Don\u00e0 51/1 - Trento", "GeoCoordinate": {"longitude": 11.139658, "latitude": 46.070678}}, {"name": "Ambulatorio piazza Duomo 11  - Trento", "GeoCoordinate": {"longitude": 11.121052, "latitude": 46.06713}}, {"name": "Ambulatorio largo Nazario Sauro 8  - Trento", "GeoCoordinate": {"longitude": 11.124797, "latitude": 46.074665}}, {"name": "Ambulatorio via Lunelli 32 - Trento", "GeoCoordinate": {"longitude": 11.11723, "latitude": 46.092076}}, {"name": "Ambulatorio via Caneppele 31 Roncafort - Gardolo", "GeoCoordinate": {"longitude": 11.102364, "latitude": 46.098019}}, {"name": "Ambulatorio via Giovanelli 25 - Trento", "GeoCoordinate": {"longitude": 11.131496, "latitude": 46.064648}}, {"name": "Ambulatorio corso 3 Novembre 116  - Trento", "GeoCoordinate": {"longitude": 11.125107, "latitude": 46.060668}}, {"name": "Ambulatorio via Serafini 46 - Martignano", "GeoCoordinate": {"longitude": 11.13194, "latitude": 46.0888}}, {"name": "Ambulatorio via Aeroporto 1 - Gardolo", "GeoCoordinate": {"longitude": 11.111537, "latitude": 46.10809}}, {"name": "Ambulatorio comunale via Sugarine 26 - Meano", "GeoCoordinate": {"longitude": 11.116127, "latitude": 46.126515}}, {"name": "Ambulatorio pediatrico via Degasperi 102 - Trento", "GeoCoordinate": {"longitude": 11.12504, "latitude": 46.04919}}, {"name": "Ambulatorio via Giordano 4", "GeoCoordinate": {"longitude": 11.146686, "latitude": 46.0492}}, {"name": "Ambulatorio via Monte Calisio 12 - Gardolo", "GeoCoordinate": {"longitude": 11.113552, "latitude": 46.107339}}, {"name": "Ambulatorio pediatrico piazza Oveno 15 - Sopramonte", "GeoCoordinate": {"longitude": 11.05962, "latitude": 46.07126}}, {"name": "Ambulatorio via Perini 4  - Trento", "GeoCoordinate": {"longitude": 11.11978, "latitude": 46.05994}}, {"name": "Ambulatorio pediatrico via Gramsci 40/A - Trento", "GeoCoordinate": {"longitude": 11.126365, "latitude": 46.053388}}, {"name": "Ambulatorio strada di Montevaccino 1 - Trento", "GeoCoordinate": {"longitude": 11.108824, "latitude": 46.071649}}, {"name": "Ambulatorio via M. Pola 6 - Gardolo", "GeoCoordinate": {"longitude": 11.11256, "latitude": 46.108005}}, {"name": "Ambulatorio via San Martino 11 - Trento", "GeoCoordinate": {"longitude": 11.12527, "latitude": 46.07411}}, {"name": "Ambulatorio via C. e V. Julg 9 - Cognola", "GeoCoordinate": {"longitude": 11.142169, "latitude": 46.076772}}, {"name": "Ambulatorio pediatrico via M. Pola 6 - Gardolo", "GeoCoordinate": {"longitude": 11.11256, "latitude": 46.108005}}, {"name": "Ambulatorio piazzale Europa 7", "GeoCoordinate": {"longitude": 11.133565, "latitude": 46.040992}}, {"name": "Ambulatorio via alle Sette Fontane 1 - Romagnano", "GeoCoordinate": {"longitude": 11.105678, "latitude": 46.016687}}, {"name": "Ambulatorio via della Resistenza 61/B - Povo", "GeoCoordinate": {"longitude": 11.159664, "latitude": 46.065809}}, {"name": "Ambulatorio pediatra di base", "GeoCoordinate": {"longitude": 10.999119, "latitude": 46.077922}}]}