{"records": [{"name": "Bar \u201cDel Comun\u201d", "GeoCoordinate": {"longitude": 11.00212, "latitude": 46.39932}}, {"name": "Ristorante Bar Hotel Garden", "GeoCoordinate": {"longitude": 10.733766, "latitude": 45.8884}}, {"name": "Ristorante Bar Hotel Lido", "GeoCoordinate": {"longitude": 10.735902, "latitude": 45.885543}}, {"name": "Ristorante Bar Albergo Alba", "GeoCoordinate": {"longitude": 10.725462, "latitude": 45.899967}}, {"name": "Bar La Chicchera", "GeoCoordinate": {"longitude": 10.671866, "latitude": 45.889009}}, {"name": "Ristorante/Pizzeria Bar Cima d'Oro", "GeoCoordinate": {"longitude": 10.766393, "latitude": 45.874463}}, {"name": "Bar Tavola Calda Catinaccio"}, {"name": "Bar Ristorante La Stua"}, {"name": "Bar Ristorante Europa"}, {"name": "Bar Grill"}, {"name": "Bar Calvi", "GeoCoordinate": {"longitude": 11.15181, "latitude": 45.878885}}, {"name": "Bar - Ristorante - Tabacchi  Valduga Laura", "GeoCoordinate": {"longitude": 11.151821, "latitude": 45.879363}}, {"name": "Bar Tre Portoni", "GeoCoordinate": {"longitude": 11.123346, "latitude": 46.063978}}, {"name": "Bar pasticceria Mazzoleni", "GeoCoordinate": {"longitude": 11.119907, "latitude": 46.077373}}, {"name": "Bar Veneto", "GeoCoordinate": {"longitude": 11.125733, "latitude": 46.05972}}, {"name": "Bar Fiorentina", "GeoCoordinate": {"longitude": 11.122472, "latitude": 46.066751}}, {"name": "Birreria Pedavena", "GeoCoordinate": {"longitude": 11.123413, "latitude": 46.06477}}, {"name": "Bar Loeze", "GeoCoordinate": {"longitude": 11.63492, "latitude": 46.318723}}]}