{"records": [{"name": "Centro Diurno per Anziani", "GeoCoordinate": {"longitude": 11.194938, "latitude": 46.143827}}, {"name": "Anziani"}, {"name": "Centro Anziani", "GeoCoordinate": {"longitude": 11.262162, "latitude": 45.991744}}, {"name": "Centro servizi anziani \"Contrada Larga\" -  via Belenzani", "GeoCoordinate": {"longitude": 11.121536, "latitude": 46.067971}}, {"name": "Centro diurno e centro servizi anziani \"Il Girasole\" - Clarina", "GeoCoordinate": {"longitude": 11.124525, "latitude": 46.053503}}, {"name": "Centro diurno e centro servizi anziani \"Sempreverde\" - Mattarello", "GeoCoordinate": {"longitude": 11.128143, "latitude": 46.005492}}, {"name": "Centro diurno anziani Povo", "GeoCoordinate": {"longitude": 11.159524, "latitude": 46.06583}}, {"name": "Centro diurno e centro servizi anziani Povo", "GeoCoordinate": {"longitude": 11.159524, "latitude": 46.06583}}, {"name": "Centro diurno e centro servizi anziani \"Filo Fil\u00f2\" -  Ravina", "GeoCoordinate": {"longitude": 11.107446, "latitude": 46.038407}}, {"name": "Centro diurno e centro servizi per anziani Gardolo", "GeoCoordinate": {"longitude": 11.110889, "latitude": 46.109412}}]}