{"records": [{"name": "Farmacia Bolego Villazzano", "GeoCoordinate": {"longitude": 11.143652457142855, "latitude": 46.04968462857143}}, {"name": "Farmacia Vinante", "GeoCoordinate": {"longitude": 11.68964295, "latitude": 46.43025691666667}}, {"GeoCoordinate": {"longitude": 10.94195908, "latitude": 46.01671136}}, {"GeoCoordinate": {"longitude": 11.11097432, "latitude": 46.09823004}}, {"name": "Farmacia Chinaglia", "GeoCoordinate": {"longitude": 10.892332699999999, "latitude": 45.87874090000001}}, {"name": "Parafarmacia", "GeoCoordinate": {"longitude": 11.24121066, "latitude": 46.06097686}}, {"name": "Farmacia communale", "GeoCoordinate": {"longitude": 10.832807, "latitude": 45.918279580000004}}, {"name": "dott. Barbacovi  Giorgio", "opening_hours": "Mo-Fr 08:30-12:00, 15:30-19:00", "GeoCoordinate": {"longitude": 11.09106066, "latitude": 45.977247}}, {"name": "Farmacia", "GeoCoordinate": {"longitude": 11.151260514285715, "latitude": 46.15731848571429}}, {"name": "Farmacia", "GeoCoordinate": {"longitude": 11.173691799999999, "latitude": 45.915030879999996}}, {"name": "Farmacia Turazza", "GeoCoordinate": {"longitude": 11.001860657142856, "latitude": 46.079833171428575}}, {"name": "Parafarmacia CONAD", "GeoCoordinate": {"longitude": 11.040052862500001, "latitude": 45.891211799999994}}, {"name": "Comunale 5", "opening_hours": "Tu-Su 09:00-19:30, Mo 14:00-19:30", "GeoCoordinate": {"longitude": 11.013692133333334, "latitude": 45.86874476666666}}, {"name": "Farmacia", "GeoCoordinate": {"longitude": 11.111329040000001, "latitude": 46.04084136}}, {"name": "Farmacia Comunale San Don\u00c3\u00a0", "opening_hours": "Mo-Fr 08:30-12:00,15:00-19:00; Sa 08:30-12:00", "GeoCoordinate": {"longitude": 11.1402607, "latitude": 46.071609}}, {"opening_hours": "Mo-Sa 08:30-12:15,15:30-19:00", "GeoCoordinate": {"longitude": 11.4362112, "latitude": 46.2818543}}, {"opening_hours": "Mo-Fr 09:15-12:15", "GeoCoordinate": {"longitude": 11.4172234, "latitude": 46.2725633}}, {"name": "Farmacia \"Bolghera\"", "GeoCoordinate": {"longitude": 11.1327642, "latitude": 46.0580074}}, {"name": "Farmacia dall'Armi", "GeoCoordinate": {"longitude": 11.1219136, "latitude": 46.0676744}}, {"name": "Farmacia Santoni", "GeoCoordinate": {"longitude": 11.1223981, "latitude": 46.0677922}}, {"name": "Farmacia Lamberto Gallo", "GeoCoordinate": {"longitude": 11.1241882, "latitude": 46.0674124}}, {"name": "Morelli", "GeoCoordinate": {"longitude": 11.2480642, "latitude": 46.1335627}}, {"name": "Farmacia Santa Chiara", "GeoCoordinate": {"longitude": 11.1237066, "latitude": 46.063667}}, {"GeoCoordinate": {"longitude": 11.1956614, "latitude": 46.1425363}}, {"name": "Farmacia Barbacovi", "opening_hours": "Mo-Fri 08:00-12:30; 14:45-19:15; Sa 8:00-12:30", "GeoCoordinate": {"longitude": 11.0397548, "latitude": 45.8830079}}, {"GeoCoordinate": {"longitude": 11.1314234, "latitude": 46.0892787}}, {"name": "Farmacia Comunale", "opening_hours": "luned\u00c3\u00ac\t08:30\u00e2\u20ac\u201c12:15, 15\u00e2\u20ac\u201c19 marted\u00c3\u00ac\t08:30\u00e2\u20ac\u201c12:15, 15\u00e2\u20ac\u201c19 mercoled\u00c3\u00ac\t08:30\u00e2\u20ac\u201c12:15, 15\u00e2\u20ac\u201c19 gioved\u00c3\u00ac\t08:30\u00e2\u20ac\u201c12:15, 15\u00e2\u20ac\u201c19venerd\u00c3\u00ac\t08:30\u00e2\u20ac\u201c12:15, 15\u00e2\u20ac\u201c19 sabato\t08:30\u00e2\u20ac\u201c12:15 domenica\tChiuso", "GeoCoordinate": {"longitude": 11.1165086, "latitude": 46.1264001}}, {"name": "Farmacia Comunale N.6", "GeoCoordinate": {"longitude": 11.1541385, "latitude": 46.0663058}}, {"name": "Farmacia Comunale Cognola", "GeoCoordinate": {"longitude": 11.1419881, "latitude": 46.0767326}}, {"GeoCoordinate": {"longitude": 11.2429905, "latitude": 46.0623036}}, {"name": "Soave", "GeoCoordinate": {"longitude": 11.0444617, "latitude": 45.8883664}}, {"name": "Pavani", "GeoCoordinate": {"longitude": 11.0279101, "latitude": 45.8858453}}, {"name": "Madonna Delle Grazie", "GeoCoordinate": {"longitude": 10.8441919, "latitude": 45.8997823}}, {"name": "Farmacia dott.ssa Venezian", "GeoCoordinate": {"longitude": 10.8667757, "latitude": 45.918749}}, {"GeoCoordinate": {"longitude": 11.6732782, "latitude": 46.4205104}}, {"name": "Pizzo", "GeoCoordinate": {"longitude": 11.2373933, "latitude": 46.067039}}, {"name": "Farmacia Comunale", "GeoCoordinate": {"longitude": 10.8461831, "latitude": 46.400882}}, {"GeoCoordinate": {"longitude": 10.8105073, "latitude": 46.3021572}}, {"GeoCoordinate": {"longitude": 11.7420375, "latitude": 46.4767228}}, {"GeoCoordinate": {"longitude": 11.829935, "latitude": 46.1756298}}, {"GeoCoordinate": {"longitude": 11.299756, "latitude": 46.0121165}}, {"name": "Farmacia Romanese", "opening_hours": "Mo-Sa 08:30-12:30,15:00-19:00", "GeoCoordinate": {"longitude": 11.302148, "latitude": 46.0114325}}, {"name": "Farmacia Margonari Ada", "opening_hours": "08:30-12:30,15:30-19:30", "GeoCoordinate": {"longitude": 10.9662347, "latitude": 46.142562}}, {"name": "Farmacia Madonna Bianca", "GeoCoordinate": {"longitude": 11.1333734, "latitude": 46.0401732}}, {"name": "Farmacia \"San Bartolameo\"", "GeoCoordinate": {"longitude": 11.1296266, "latitude": 46.0537028}}, {"name": "Farmacia San Lorenzo", "GeoCoordinate": {"longitude": 11.119107, "latitude": 46.076997}}, {"name": "Farmacia Comunale", "GeoCoordinate": {"longitude": 11.1215688, "latitude": 46.0583792}}, {"name": "Farmacia Comunale \"San Camillo\"", "GeoCoordinate": {"longitude": 11.1320121, "latitude": 46.0655277}}, {"name": "Farmacia \"Grandi\"", "GeoCoordinate": {"longitude": 11.1251916, "latitude": 46.0738199}}, {"name": "Farmacia Crescini", "opening_hours": "Mo-Sa 08:30-12:00, Mo-Sa 15:00-19:00", "GeoCoordinate": {"longitude": 11.2383047, "latitude": 46.0598823}}, {"GeoCoordinate": {"longitude": 11.2209553, "latitude": 46.1747289}}, {"name": "Farmacia Romani", "opening_hours": "Mo-Sa 08:00-12:15, 15:00-19:15", "GeoCoordinate": {"longitude": 11.1071424, "latitude": 46.1413451}}, {"name": "Farmacia Comunale", "GeoCoordinate": {"longitude": 10.8498354, "latitude": 45.894778}}, {"name": "Farmacia Alla Madonna", "opening_hours": "Mo-Sa 08:30-12:30,15:00-19:00", "GeoCoordinate": {"longitude": 11.1230745, "latitude": 46.0698069}}, {"name": "Farmacia", "GeoCoordinate": {"longitude": 10.8781988, "latitude": 46.3311395}}, {"opening_hours": "Mo-Sa 08:30-12:30,15:30-19:30", "GeoCoordinate": {"longitude": 10.9121689, "latitude": 46.3520987}}, {"name": "Farmacia comunale", "GeoCoordinate": {"longitude": 11.0425935, "latitude": 45.9264458}}, {"GeoCoordinate": {"longitude": 11.1820539, "latitude": 46.089857}}, {"name": "Farmacia Kamal", "GeoCoordinate": {"longitude": 11.4104062, "latitude": 46.0529786}}, {"name": "Farmacia Ottaviani", "GeoCoordinate": {"longitude": 10.9565781, "latitude": 45.817258}}, {"name": "Farmacia Calliano", "GeoCoordinate": {"longitude": 11.0940359, "latitude": 45.9354307}}, {"GeoCoordinate": {"longitude": 10.6008618, "latitude": 45.8902428}}, {"name": "Farmacia Fusi", "GeoCoordinate": {"longitude": 10.5779212, "latitude": 45.848452}}, {"GeoCoordinate": {"longitude": 10.5404483, "latitude": 45.8083537}}, {"name": "Farmacia Comunale", "GeoCoordinate": {"longitude": 11.0419026, "latitude": 45.9013786}}, {"GeoCoordinate": {"longitude": 11.0422041, "latitude": 45.8894599}}, {"name": "Chinaglia", "GeoCoordinate": {"longitude": 10.8765174, "latitude": 45.870688}}, {"GeoCoordinate": {"longitude": 11.032628, "latitude": 45.9151533}}, {"name": "Sanit Service s.r.l.", "GeoCoordinate": {"longitude": 11.1284969, "latitude": 46.0669754}}, {"name": "Campagnola", "GeoCoordinate": {"longitude": 11.0913849, "latitude": 46.2129567}}, {"name": "Farmacia ai Solteri", "GeoCoordinate": {"longitude": 11.117635, "latitude": 46.0923859}}, {"name": "Farmacia Comunale", "GeoCoordinate": {"longitude": 10.900851, "latitude": 45.9111219}}, {"name": "Farmacia Bettinazzi - R. & T. Pharma Snc", "GeoCoordinate": {"longitude": 10.8856849, "latitude": 45.9164495}}, {"name": "Farmacia Fontana", "opening_hours": "Mo-Sa 8:00-12:30,15:00-19:30", "GeoCoordinate": {"longitude": 11.1116753, "latitude": 46.1087268}}, {"name": "Farmacia Nave San Rocco", "GeoCoordinate": {"longitude": 11.110319, "latitude": 46.1672565}}, {"name": "Farmacia Boni", "GeoCoordinate": {"longitude": 10.7244513, "latitude": 46.0333617}}, {"name": "Cobelli", "GeoCoordinate": {"longitude": 11.0432418, "latitude": 45.8901056}}, {"name": "Sanit\u00c3\u00a0", "GeoCoordinate": {"longitude": 11.0346924, "latitude": 46.3655522}}, {"name": "Farmacia Comunale Via Benacense", "GeoCoordinate": {"longitude": 11.0334873, "latitude": 45.8783602}}, {"name": "Gallina", "GeoCoordinate": {"longitude": 10.7572486, "latitude": 46.3113252}}, {"name": "Darma Il Farmastore", "opening_hours": "Mo 14:30-20:00; Tu-Su 09:00-20:00", "GeoCoordinate": {"longitude": 11.223445, "latitude": 46.068036}}, {"name": "Farmacia Gagliardi", "GeoCoordinate": {"longitude": 10.8423483, "latitude": 46.0046234}}, {"name": "Farmacia Comunale", "GeoCoordinate": {"longitude": 11.1206301, "latitude": 46.0534713}}, {"opening_hours": "Mo-Fr 08:30-12:00,15:00-19:00; Sa 08:30-12:00", "GeoCoordinate": {"longitude": 11.1298443, "latitude": 46.1906731}}, {"name": "Farmacia Bailo", "opening_hours": "Mo-Sa 08:30-12:15,15:30-19:00; PH closed", "GeoCoordinate": {"longitude": 11.4548787, "latitude": 46.0537033}}, {"GeoCoordinate": {"longitude": 11.8018422, "latitude": 46.2620746}}, {"name": "Parafarmacia", "GeoCoordinate": {"longitude": 11.1228747, "latitude": 46.0662491}}, {"name": "Farmacia comunale", "GeoCoordinate": {"longitude": 11.2177362, "latitude": 46.084496}}, {"GeoCoordinate": {"longitude": 11.0700857, "latitude": 45.9291659}}, {"name": "Farmacia Brancaleoni", "GeoCoordinate": {"longitude": 11.0974831, "latitude": 46.1522371}}, {"name": "Farmacia De Gerloni", "GeoCoordinate": {"longitude": 11.0585528, "latitude": 46.073149}}, {"name": "Farmacia", "GeoCoordinate": {"longitude": 11.8062406, "latitude": 46.1542755}}, {"name": "La farmacia di Roncafort", "GeoCoordinate": {"longitude": 11.1020825, "latitude": 46.0984636}}, {"name": "Farmacia Comunale San Rocco", "GeoCoordinate": {"longitude": 11.0633565, "latitude": 45.916653}}, {"GeoCoordinate": {"longitude": 11.2584887, "latitude": 46.1874748}}, {"name": "Farmacia Centrale", "GeoCoordinate": {"longitude": 11.4577617, "latitude": 46.0539272}}, {"GeoCoordinate": {"longitude": 11.6595457, "latitude": 46.3766041}}, {"opening_hours": "Mo-Fr 09:00-12:00", "GeoCoordinate": {"longitude": 11.1716149, "latitude": 46.2484813}}, {"GeoCoordinate": {"longitude": 11.0084513, "latitude": 45.840892}}, {"name": "Zanini", "opening_hours": "Mo-Fr 08:30-12:15,15:30-19:15;Sa 08:30-12:15", "GeoCoordinate": {"longitude": 11.118874, "latitude": 46.2146886}}, {"name": "Farmacia Comunale Castelnuovo", "GeoCoordinate": {"longitude": 11.4926158, "latitude": 46.0522737}}, {"GeoCoordinate": {"longitude": 10.6927744, "latitude": 46.2988561}}, {"GeoCoordinate": {"longitude": 10.8426658, "latitude": 45.8865017}}, {"name": "Accorsi", "GeoCoordinate": {"longitude": 10.8409706, "latitude": 45.8852245}}, {"GeoCoordinate": {"longitude": 11.2603123, "latitude": 45.9950813}}, {"name": "Farmacia all'Angelo", "GeoCoordinate": {"longitude": 11.0479742, "latitude": 46.2744403}}, {"name": "Farmacia Comunale", "opening_hours": "Mo-Fr 08:30-19:00; Sa 08:30-12:00", "GeoCoordinate": {"longitude": 11.1123177, "latitude": 46.070551}}, {"name": "farmacia comunale", "GeoCoordinate": {"longitude": 11.0082956, "latitude": 45.8847764}}, {"name": "Farmacia di Gardolo", "opening_hours": "Mo 15:00-19:00; Tu-Sa 09:00-12:00,15:00-19:00", "GeoCoordinate": {"longitude": 11.10862, "latitude": 46.1064}}, {"name": "Farmacia Comunale", "GeoCoordinate": {"longitude": 11.1119943, "latitude": 46.1395384}}, {"name": "Farmacia Campagnolo", "GeoCoordinate": {"longitude": 11.1055828, "latitude": 46.0167581}}, {"name": "Farmacia Borsato", "GeoCoordinate": {"longitude": 11.5239854, "latitude": 46.0637581}}, {"name": "Farmacia Baldrachi", "GeoCoordinate": {"longitude": 11.0261202, "latitude": 46.3305292}}, {"name": "Farmacia Ravagni", "GeoCoordinate": {"longitude": 11.0034033, "latitude": 45.7591484}}, {"name": "Farmacia Franzellin", "GeoCoordinate": {"longitude": 11.0021142, "latitude": 45.7575766}}, {"name": "Folgaresi", "GeoCoordinate": {"longitude": 10.9717397, "latitude": 45.9933445}}, {"name": "Farmacia Pieve di Dino Ceschinelli", "GeoCoordinate": {"longitude": 10.6391288, "latitude": 45.9395171}}, {"name": "Farmacia Clarina", "GeoCoordinate": {"longitude": 11.1256929, "latitude": 46.0487161}}, {"name": "Farmacia Teseo Francesco", "GeoCoordinate": {"longitude": 11.4808667, "latitude": 46.0703675}}, {"GeoCoordinate": {"longitude": 10.9521966, "latitude": 45.8915027}}, {"GeoCoordinate": {"longitude": 10.9790058, "latitude": 45.8519644}}, {"GeoCoordinate": {"longitude": 11.1181305, "latitude": 45.7827256}}, {"GeoCoordinate": {"longitude": 11.4620734, "latitude": 46.2907521}}, {"GeoCoordinate": {"longitude": 10.8545176, "latitude": 46.0519685}}, {"name": "Farmacie Comunali", "GeoCoordinate": {"longitude": 11.0252009, "latitude": 45.9118599}}, {"GeoCoordinate": {"longitude": 10.6935363, "latitude": 46.3510072}}, {"GeoCoordinate": {"longitude": 10.9395448, "latitude": 45.734889}}, {"GeoCoordinate": {"longitude": 11.2350016, "latitude": 46.0414192}}, {"GeoCoordinate": {"longitude": 11.0889288, "latitude": 46.3485815}}, {"name": "Thaler", "GeoCoordinate": {"longitude": 11.0403937, "latitude": 45.8898791}}, {"name": "Farmacia Valle dei Mocheni", "opening_hours": "Mo-Fr 08:30-12:00,15:00-19:00; Sa 08:30-12:00; Su off", "GeoCoordinate": {"longitude": 11.3021324, "latitude": 46.1091824}}, {"GeoCoordinate": {"longitude": 10.7362286, "latitude": 46.1010416}}, {"name": "Farmacia dott.ssa Venezian", "GeoCoordinate": {"longitude": 10.8653341, "latitude": 45.9186901}}, {"GeoCoordinate": {"longitude": 11.6594938, "latitude": 46.3770566}}, {"name": "Festa Parafarmacia Profumeria", "GeoCoordinate": {"longitude": 11.6609796, "latitude": 46.376141}}, {"name": "Farmacia Comunale n\u00c2\u00b01", "GeoCoordinate": {"longitude": 11.0401438, "latitude": 45.8917455}}, {"GeoCoordinate": {"longitude": 11.2413667, "latitude": 46.0605568}}, {"name": "Dispensario farmaceutico", "GeoCoordinate": {"longitude": 11.5525707, "latitude": 46.0438265}}, {"name": "Farmacia S. Giorgio", "GeoCoordinate": {"longitude": 11.0281746, "latitude": 45.8941621}}, {"name": "Parafarmacia E' Qui", "GeoCoordinate": {"longitude": 10.8541457, "latitude": 45.8826228}}, {"name": "Farmacia Gallina", "GeoCoordinate": {"longitude": 10.8016006, "latitude": 46.3159016}}, {"name": "Farmacia Comunale", "GeoCoordinate": {"longitude": 11.6339287, "latitude": 46.0625095}}, {"name": "Farmacia Pieve Tesino", "GeoCoordinate": {"longitude": 11.6117172, "latitude": 46.0681123}}, {"name": "Farmacia Alberto Foletto", "GeoCoordinate": {"longitude": 10.7323059, "latitude": 45.8885959}}, {"name": "Parafarmacia Campagnola", "opening_hours": "Mo-Su 09:00-19:00", "GeoCoordinate": {"longitude": 11.1000444, "latitude": 46.2071628}}, {"name": "Farmacia", "GeoCoordinate": {"longitude": 11.7329018, "latitude": 46.15527}}, {"name": "Parafarmacia", "GeoCoordinate": {"longitude": 11.4602172, "latitude": 46.2910265}}, {"name": "Mutalipassi", "GeoCoordinate": {"longitude": 10.8451646, "latitude": 45.8868604}}, {"name": "Farmacia Veterinaria", "GeoCoordinate": {"longitude": 11.1234078, "latitude": 46.0708418}}, {"name": "Farmacia Scaglia", "GeoCoordinate": {"longitude": 10.7654611, "latitude": 46.1601535}}, {"name": "Tecnisan articoli sanitari", "GeoCoordinate": {"longitude": 11.1286721, "latitude": 46.0445596}}, {"GeoCoordinate": {"longitude": 10.8724215, "latitude": 46.0353784}}, {"name": "Farmacia Nardelli Gabriele", "opening_hours": "Mo-Fr 08:30-12:00, Mo-Sa 15:00-19:00, Sa 09:00-12:00", "GeoCoordinate": {"longitude": 10.914025, "latitude": 45.9606101}}, {"name": "Igea", "opening_hours": "Mo-Fr 08:30-12:30,15:00-19:00, Sa 08:30-12:30", "GeoCoordinate": {"longitude": 11.1280488, "latitude": 46.0608378}}, {"GeoCoordinate": {"longitude": 11.1366928, "latitude": 46.4375538}}, {"GeoCoordinate": {"longitude": 10.5851467, "latitude": 46.2592562}}, {"name": "Farmacia Santoni", "GeoCoordinate": {"longitude": 11.018394, "latitude": 45.8843881}}, {"GeoCoordinate": {"longitude": 11.0170999, "latitude": 46.4052386}}, {"GeoCoordinate": {"longitude": 10.8740406, "latitude": 46.3260432}}, {"name": "Comunale", "GeoCoordinate": {"longitude": 11.1100893, "latitude": 45.9415}}, {"GeoCoordinate": {"longitude": 11.0867259, "latitude": 46.2646016}}, {"name": "Farmacia Giupponi", "GeoCoordinate": {"longitude": 11.1278389, "latitude": 46.0069356}}, {"name": "Parafarmacia", "GeoCoordinate": {"longitude": 11.7702598, "latitude": 46.477323}}, {"name": "Farmacia San Giovanni", "opening_hours": "Mo-Sa 08:30-12:30, 15:30-19:30; Su 09:00-12:00, 16:00-19:00", "GeoCoordinate": {"longitude": 11.6754117, "latitude": 46.4200601}}, {"GeoCoordinate": {"longitude": 11.6339731, "latitude": 46.0163984}}, {"name": "Farmacia Malfatti", "GeoCoordinate": {"longitude": 11.1949906, "latitude": 46.004345}}, {"name": "Farmacia", "GeoCoordinate": {"longitude": 10.9082944, "latitude": 46.0772173}}, {"name": "Farmacia De Maffei", "opening_hours": "Mo-Sa 08:15-19:15", "GeoCoordinate": {"longitude": 11.0330406, "latitude": 46.3630657}}, {"name": "Farmacia Redi", "GeoCoordinate": {"longitude": 10.8799242, "latitude": 45.9175297}}, {"name": "Valore salute", "opening_hours": "Mo-Sa 08:30-12:30,15:00-19:00; PH closed", "GeoCoordinate": {"longitude": 10.9524923, "latitude": 46.0456752}}, {"GeoCoordinate": {"longitude": 11.0480565, "latitude": 46.2175233}}, {"GeoCoordinate": {"longitude": 11.073457, "latitude": 45.869393}}, {"name": "Farmacia Vinotti", "opening_hours": "Mo-Sa 08:30-12:15; Mo-Sa 15:00-19:00", "GeoCoordinate": {"longitude": 11.0655384, "latitude": 46.320896}}]}