{"records": [{"name": "Parco - Vigne campo sportivo via Fossa", "GeoCoordinate": {"longitude": 10.865451, "latitude": 45.919647}}, {"name": "Centro Sportivo Intercomunale", "GeoCoordinate": {"longitude": 11.088114, "latitude": 45.930886}}, {"name": "Centro Sportivo Fiane", "GeoCoordinate": {"longitude": 10.696392, "latitude": 45.999943}}, {"name": "Centro Sportivo \"Santa Caterina\" - Campi di calcio", "GeoCoordinate": {"longitude": 11.003151, "latitude": 45.757366}}, {"name": "Impianto Sportivo \"Al Zengio\"", "GeoCoordinate": {"longitude": 10.949557, "latitude": 45.817127}}, {"name": "Campo sportivo", "GeoCoordinate": {"longitude": 11.107007, "latitude": 46.43105}}, {"name": "Palazzetto Comunale", "GeoCoordinate": {"longitude": 11.260839, "latitude": 45.992757}}, {"name": "Campo sportivo Villa", "GeoCoordinate": {"longitude": 11.1167, "latitude": 46.453685}}, {"name": "Campo Sportivo PlanPal\u00f9", "GeoCoordinate": {"longitude": 11.080965, "latitude": 11.080965}}, {"name": "Campo sportivo di Masen", "GeoCoordinate": {"longitude": 11.16748, "latitude": 46.17886}}, {"name": "Palazzetto dello sport di Pal\u00f9", "GeoCoordinate": {"longitude": 11.1425, "latitude": 46.159444}}, {"name": "Centro sportivo (Palestra / Piscina)", "GeoCoordinate": {"longitude": 11.297213, "latitude": 46.012257}}, {"name": "Palazzetto dello Sport", "GeoCoordinate": {"longitude": 10.965146, "latitude": 46.141734}}, {"name": "Campo sportivo Predazzo", "GeoCoordinate": {"longitude": -86.580447, "latitude": 35.517491}}, {"name": "Palazzetto dello sport Predazzo", "GeoCoordinate": {"longitude": 11.597544, "latitude": 46.312041}}, {"name": "Campo sportivo", "GeoCoordinate": {"longitude": 11.029426, "latitude": 46.436486}}, {"name": "Centro Sportivo \"Mario Formolo\"", "GeoCoordinate": {"longitude": 11.030604, "latitude": 46.237649}}, {"name": "Centro sportivo comunale sito in via Ponte Alto a Cognola", "GeoCoordinate": {"longitude": 11.148843, "latitude": 46.073064}}, {"name": "Giardino centro sportivo Valnigra", "GeoCoordinate": {"longitude": 11.143919, "latitude": 46.051027}}, {"name": "Centro Sportivo Trento Nord - Piscine Comunali", "GeoCoordinate": {"longitude": 11.114881, "latitude": 46.105628}}, {"name": "Centro Sportivo Trento Nord - Palazzetto", "GeoCoordinate": {"longitude": 11.114881, "latitude": 46.105628}}, {"name": "Impianto Sportivo G. Manazzon (ex Fogazzaro) - Piscine", "GeoCoordinate": {"longitude": 11.13038, "latitude": 46.055986}}, {"name": "Impianto Sportivo G. Manazzon - Palestre", "GeoCoordinate": {"longitude": 11.130358, "latitude": 46.055977}}, {"name": "Impianto Sportivo Ito del Favero (Madonna Bianca) - Piscine", "GeoCoordinate": {"longitude": 11.134551, "latitude": 46.040833}}, {"name": "Impianto Sportivo Ito del Favero (Madonna Bianca) - Palestre", "GeoCoordinate": {"longitude": 11.134551, "latitude": 46.040833}}, {"name": "BLM Group Arena - Palazzetto", "GeoCoordinate": {"longitude": 11.122945, "latitude": 46.040854}}, {"name": "Area comunale Sopramonte campo sportivo", "GeoCoordinate": {"longitude": 11.053298, "latitude": 46.06997}}, {"name": "Centro sportivo \"Don Onorio Spada\"", "GeoCoordinate": {"longitude": 11.14428, "latitude": 46.05005}}, {"name": "Palestra artificiale Centro sportivo Le Busatte", "GeoCoordinate": {"longitude": 10.890844, "latitude": 45.8778}}, {"name": "Centro Sportivo Andalo", "GeoCoordinate": {"longitude": 11.004732, "latitude": 46.17047}}, {"name": "Palazzetto polifunzionale dello sport di Molveno", "GeoCoordinate": {"longitude": 10.965146, "latitude": 46.141734}}, {"name": "Palazzetto dello sport di Rovereto", "GeoCoordinate": {"longitude": 11.041733, "latitude": 45.89544}}, {"name": "Centro Sportivo Pinzolo", "GeoCoordinate": {"longitude": 10.765027, "latitude": 46.15977}}, {"name": "Palazzetto dello sport Predazzo", "GeoCoordinate": {"longitude": 11.63492, "latitude": 46.318723}}, {"name": "Centro sportivo Stava", "GeoCoordinate": {"longitude": 11.507587, "latitude": 46.288883}}, {"name": "Centro Sportivo Polivalente Levico", "GeoCoordinate": {"longitude": 11.331713, "latitude": 46.001019}}, {"name": "Palazzetto di Caldonazzo", "GeoCoordinate": {"longitude": 11.276874, "latitude": 45.987211}}]}