{"records": [{"stop_id": "1", "stop_code": "28105z", "stop_name": "Baselga Del Bondone", "stop_lat": "46.078325", "stop_lon": "11.047358", "zone_id": "10110", "wheelchair_boarding": "2"}, {"stop_id": "2", "stop_code": "28105x", "stop_name": "Baselga Del Bondone", "stop_lat": "46.078581", "stop_lon": "11.047541", "zone_id": "10110", "wheelchair_boarding": "1"}, {"stop_id": "3", "stop_code": "27105c", "stop_name": "Belvedere", "stop_lat": "46.044406", "stop_lon": "11.105342", "zone_id": "10110"}, {"stop_id": "4", "stop_code": "22220z", "stop_name": "Lamar Ponte Avisio", "stop_lat": "46.134620", "stop_lon": "11.110914", "zone_id": "10110", "wheelchair_boarding": "2"}, {"stop_id": "5", "stop_code": "28060z", "stop_name": "Sp 85 Bivio Sopramonte", "stop_lat": "46.085226", "stop_lon": "11.069313", "zone_id": "10110", "wheelchair_boarding": "2"}, {"stop_id": "7", "stop_code": "24405z", "stop_name": "Maso Bolleri", "stop_lat": "46.102485", "stop_lon": "11.124174", "zone_id": "10110", "wheelchair_boarding": "2"}, {"stop_id": "8", "stop_code": "24405x", "stop_name": "Maso Bolleri", "stop_lat": "46.102234", "stop_lon": "11.123940", "zone_id": "10110", "wheelchair_boarding": "2"}, {"stop_id": "9", "stop_code": "25205x", "stop_name": "Borino", "stop_lat": "46.067115", "stop_lon": "11.165639", "zone_id": "10110", "wheelchair_boarding": "2"}, {"stop_id": "10", "stop_code": "28205z", "stop_name": "Cadine Strada Gardesana", "stop_lat": "46.088630", "stop_lon": "11.065018", "zone_id": "10110", "wheelchair_boarding": "1"}, {"stop_id": "11", "stop_code": "28205x", "stop_name": "Cadine Strada Gardesana", "stop_lat": "46.088729", "stop_lon": "11.064509", "zone_id": "10110", "wheelchair_boarding": "1"}, {"stop_id": "12", "stop_code": "22110c", "stop_name": "Canova Paludi", "stop_lat": "46.099170", "stop_lon": "11.109314", "zone_id": "10110", "wheelchair_boarding": "1"}, {"stop_id": "13", "stop_code": "22015x", "stop_name": "Gardolo \"Materna Paludi\"", "stop_lat": "46.103846", "stop_lon": "11.108235", "zone_id": "10110", "wheelchair_boarding": "2"}, {"stop_id": "14", "stop_code": "21220-", "stop_name": "Centro Commerciale", "stop_lat": "46.091584", "stop_lon": "11.105652", "zone_id": "10110"}, {"stop_id": "15", "stop_code": "21105z", "stop_name": "Asiago S.Bartolameo", "stop_lat": "46.047972", "stop_lon": "11.137456", "zone_id": "10110", "wheelchair_boarding": "1"}, {"stop_id": "16", "stop_code": "21100x", "stop_name": "Asiago Banala", "stop_lat": "46.047681", "stop_lon": "11.137741", "zone_id": "10110", "wheelchair_boarding": "1"}, {"stop_id": "17", "stop_code": "24015x", "stop_name": "Cognola \"Toresela\"", "stop_lat": "46.078904", "stop_lon": "11.153473", "zone_id": "10110", "wheelchair_boarding": "2"}, {"stop_id": "18", "stop_code": "24015z", "stop_name": "Cognola \"Toresela\"", "stop_lat": "46.078863", "stop_lon": "11.153929", "zone_id": "10110", "wheelchair_boarding": "2"}, {"stop_id": "19", "stop_code": "24025x", "stop_name": "Cognola Bivio Civezzano", "stop_lat": "46.080613", "stop_lon": "11.158419", "zone_id": "10110", "wheelchair_boarding": "2"}, {"stop_id": "20", "stop_code": "24025z", "stop_name": "Cognola Bivio Civezzano", "stop_lat": "46.080472", "stop_lon": "11.158403", "zone_id": "10110", "wheelchair_boarding": "2"}, {"stop_id": "21", "stop_code": "24005c", "stop_name": "Cognola \"Centro Civico\"", "stop_lat": "46.076472", "stop_lon": "11.141513", "zone_id": "10110", "wheelchair_boarding": "1"}, {"stop_id": "22", "stop_code": "24030z", "stop_name": "Cognola Grezoni", "stop_lat": "46.075911", "stop_lon": "11.146833", "zone_id": "10110", "wheelchair_boarding": "2"}, {"stop_id": "23", "stop_code": "24030x", "stop_name": "Cognola Grezoni", "stop_lat": "46.076012", "stop_lon": "11.146613", "zone_id": "10110", "wheelchair_boarding": "2"}, {"stop_id": "24", "stop_code": "24105z", "stop_name": "San Vito", "stop_lat": "46.075332", "stop_lon": "11.139033", "zone_id": "10110", "wheelchair_boarding": "1"}, {"stop_id": "25", "stop_code": "24035x", "stop_name": "Cognola S.Vito", "stop_lat": "46.075696", "stop_lon": "11.140797", "zone_id": "10110", "wheelchair_boarding": "2"}, {"stop_id": "26", "stop_code": "24035z", "stop_name": "Cognola S.Vito", "stop_lat": "46.075623", "stop_lon": "11.141786", "zone_id": "10110", "wheelchair_boarding": "2"}, {"stop_id": "27", "stop_code": "24105x", "stop_name": "San Vito", "stop_lat": "46.075433", "stop_lon": "11.138833", "zone_id": "10110", "wheelchair_boarding": "1"}, {"stop_id": "28", "stop_code": "24010z", "stop_name": "Cognola \"Scuole\"", "stop_lat": "46.075698", "stop_lon": "11.143991", "zone_id": "10110", "wheelchair_boarding": "2"}, {"stop_id": "29", "stop_code": "24010x", "stop_name": "Cognola \"Scuole\"", "stop_lat": "46.075853", "stop_lon": "11.144062", "zone_id": "10110", "wheelchair_boarding": "2"}, {"stop_id": "30", "stop_code": "24020z", "stop_name": "Cognola Alla Veduta \"Roza\"", "stop_lat": "46.077564", "stop_lon": "11.151102", "zone_id": "10110", "wheelchair_boarding": "2"}, {"stop_id": "31", "stop_code": "24020x", "stop_name": "Cognola Alla Veduta \"Roza\"", "stop_lat": "46.078007", "stop_lon": "11.151432", "zone_id": "10110", "wheelchair_boarding": "2"}, {"stop_id": "32", "stop_code": "21180z", "stop_name": "Brescia \"Villa Salvotti\"", "stop_lat": "46.076123", "stop_lon": "11.101184", "zone_id": "10110", "wheelchair_boarding": "2"}, {"stop_id": "37", "stop_code": "21270z", "stop_name": "Degli Alpini Oberziner", "stop_lat": "46.079103", "stop_lon": "11.118143", "zone_id": "10110", "wheelchair_boarding": "2"}, {"stop_id": "38", "stop_code": "23105c", "stop_name": "Cortesano", "stop_lat": "46.124481", "stop_lon": "11.133818", "zone_id": "10110"}, {"stop_id": "39", "stop_code": "23420z", "stop_name": "Vigo Meano Alle Gorghe", "stop_lat": "46.129889", "stop_lon": "11.134571", "zone_id": "10110", "wheelchair_boarding": "1"}, {"stop_id": "40", "stop_code": "23420x", "stop_name": "Vigo Meano Alle Gorghe", "stop_lat": "46.129522", "stop_lon": "11.134680", "zone_id": "10110", "wheelchair_boarding": "2"}, {"stop_id": "43", "stop_code": "28050x", "stop_name": "Forte Bus De Vela", "stop_lat": "46.085330", "stop_lon": "11.069658", "zone_id": "10110"}, {"stop_id": "46", "stop_code": "25305z", "stop_name": "Gabbiolo \"Campo Sportivo\"", "stop_lat": "46.055265", "stop_lon": "11.148982", "zone_id": "10110", "wheelchair_boarding": "1"}, {"stop_id": "47", "stop_code": "25305x", "stop_name": "Gabbiolo \"Campo Sportivo\"", "stop_lat": "46.055310", "stop_lon": "11.148782", "zone_id": "10110", "wheelchair_boarding": "1"}, {"stop_id": "48", "stop_code": "22080z", "stop_name": "Sp 76 Carpenedi", "stop_lat": "46.117195", "stop_lon": "11.108678", "zone_id": "10110", "wheelchair_boarding": "2"}, {"stop_id": "49", "stop_code": "22080x", "stop_name": "Sp 76 Carpenedi", "stop_lat": "46.117171", "stop_lon": "11.108438", "zone_id": "10110", "wheelchair_boarding": "2"}, {"stop_id": "50", "stop_code": "22065z", "stop_name": "Gardolo S.Anna", "stop_lat": "46.111144", "stop_lon": "11.109544", "zone_id": "10110", "wheelchair_boarding": "1"}, {"stop_id": "51", "stop_code": "22065x", "stop_name": "Gardolo S.Anna", "stop_lat": "46.110834", "stop_lon": "11.109573", "zone_id": "10110", "wheelchair_boarding": "1"}, {"stop_id": "52", "stop_code": "22055s", "stop_name": "Gardolo P.Le Neufahrn Sud", "stop_lat": "46.106559", "stop_lon": "11.111466", "zone_id": "10110", "wheelchair_boarding": "1"}, {"stop_id": "53", "stop_code": "22055n", "stop_name": "Gardolo P.Le Neufahrn Nord", "stop_lat": "46.106678", "stop_lon": "11.111444", "zone_id": "10110", "wheelchair_boarding": "1"}, {"stop_id": "54", "stop_code": "22060z", "stop_name": "Gardolo Piazza", "stop_lat": "46.108340", "stop_lon": "11.111719", "zone_id": "10110", "wheelchair_boarding": "1"}, {"stop_id": "55", "stop_code": "22060x", "stop_name": "Gardolo Piazza", "stop_lat": "46.108506", "stop_lon": "11.111436", "zone_id": "10110", "wheelchair_boarding": "2"}, {"stop_id": "56", "stop_code": "22105-", "stop_name": "Canova Aichner", "stop_lat": "46.101856", "stop_lon": "11.103284", "zone_id": "10110", "wheelchair_boarding": "2"}, {"stop_id": "57", "stop_code": "22115-", "stop_name": "Canova Via Della Canova", "stop_lat": "46.099689", "stop_lon": "11.107570", "zone_id": "10110", "wheelchair_boarding": "2"}, {"stop_id": "58", "stop_code": "22040z", "stop_name": "Gardolo Don Milani 8 Marzo", "stop_lat": "46.103934", "stop_lon": "11.117583", "zone_id": "10110", "wheelchair_boarding": "2"}, {"stop_id": "59", "stop_code": "22045x", "stop_name": "Gardolo D.Milani \"Piscina\"", "stop_lat": "46.106686", "stop_lon": "11.114327", "zone_id": "10110", "wheelchair_boarding": "2"}, {"stop_id": "60", "stop_code": "22045z", "stop_name": "Gardolo D.Milani \"Piscina\"", "stop_lat": "46.106749", "stop_lon": "11.114389", "zone_id": "10110", "wheelchair_boarding": "2"}, {"stop_id": "61", "stop_code": "22040x", "stop_name": "Gardolo Don Milani 8 Marzo", "stop_lat": "46.104204", "stop_lon": "11.117281", "zone_id": "10110", "wheelchair_boarding": "2"}, {"stop_id": "62", "stop_code": "22070z", "stop_name": "Gardolo S.Anna Carpenedi", "stop_lat": "46.113320", "stop_lon": "11.107854", "zone_id": "10110", "wheelchair_boarding": "1"}, {"stop_id": "63", "stop_code": "22070x", "stop_name": "Gardolo S.Anna Carpenedi", "stop_lat": "46.113459", "stop_lon": "11.107399", "zone_id": "10110", "wheelchair_boarding": "1"}, {"stop_id": "64", "stop_code": "22075x", "stop_name": "Gardolo Svincolo Ss.12", "stop_lat": "46.106227", "stop_lon": "11.109072", "zone_id": "10110", "wheelchair_boarding": "1"}, {"stop_id": "65", "stop_code": "23215z", "stop_name": "Gazzadina Strada Vecchia", "stop_lat": "46.130109", "stop_lon": "11.126043", "zone_id": "10110", "wheelchair_boarding": "2"}, {"stop_id": "66", "stop_code": "23210z", "stop_name": "Gazzadina Al Pontat", "stop_lat": "46.128445", "stop_lon": "11.129219", "zone_id": "10110", "wheelchair_boarding": "2"}, {"stop_id": "67", "stop_code": "23210x", "stop_name": "Gazzadina Al Pontat", "stop_lat": "46.128599", "stop_lon": "11.129270", "zone_id": "10110", "wheelchair_boarding": "2"}, {"stop_id": "68", "stop_code": "23215x", "stop_name": "Gazzadina Strada Vecchia", "stop_lat": "46.130190", "stop_lon": "11.125945", "zone_id": "10110", "wheelchair_boarding": "2"}, {"stop_id": "69", "stop_code": "25710c", "stop_name": "Grotta Piazza", "stop_lat": "46.045800", "stop_lon": "11.151130", "zone_id": "10110", "wheelchair_boarding": "2"}, {"stop_id": "70", "stop_code": "25705z", "stop_name": "Grotta Bindesi", "stop_lat": "46.043392", "stop_lon": "11.151716", "zone_id": "10110", "wheelchair_boarding": "2"}, {"stop_id": "71", "stop_code": "25705x", "stop_name": "Grotta Bindesi", "stop_lat": "46.043502", "stop_lon": "11.151592", "zone_id": "10110", "wheelchair_boarding": "2"}, {"stop_id": "72", "stop_code": "22230z", "stop_name": "Ss 12 \"Zona Ind.Le Ftm\"", "stop_lat": "46.119309", "stop_lon": "11.106123", "zone_id": "10110", "wheelchair_boarding": "2"}, {"stop_id": "73", "stop_code": "22205z", "stop_name": "Lamar \"Ftm\"", "stop_lat": "46.125715", "stop_lon": "11.107713", "zone_id": "10110", "wheelchair_boarding": "2"}, {"stop_id": "74", "stop_code": "22205x", "stop_name": "Lamar \"Ftm\"", "stop_lat": "46.125960", "stop_lon": "11.107593", "zone_id": "10110", "wheelchair_boarding": "2"}, {"stop_id": "75", "stop_code": "22210z", "stop_name": "Lamar \"Sottostazione Enel\"", "stop_lat": "46.129241", "stop_lon": "11.109763", "zone_id": "10110", "wheelchair_boarding": "2"}, {"stop_id": "76", "stop_code": "21420z", "stop_name": "Largo Sauro", "stop_lat": "46.074848", "stop_lon": "11.124976", "zone_id": "10110"}, {"stop_id": "77", "stop_code": "29005z", "stop_name": "Lavis Nazionale", "stop_lat": "46.138664", "stop_lon": "11.108989", "zone_id": "19025", "wheelchair_boarding": "2"}, {"stop_id": "78", "stop_code": "29015x", "stop_name": "Lavis Piazza Mercato", "stop_lat": "46.137921", "stop_lon": "11.114458", "zone_id": "19025", "wheelchair_boarding": "1"}, {"stop_id": "79", "stop_code": "29020x", "stop_name": "Lavis \"Municipio\"", "stop_lat": "46.139321", "stop_lon": "11.111958", "zone_id": "19025", "wheelchair_boarding": "2"}, {"stop_id": "80", "stop_code": "19025", "stop_name": "Lavis Rosmini Segantini", "stop_lat": "46.142197", "stop_lon": "11.108508", "zone_id": "19025", "wheelchair_boarding": "1"}, {"stop_id": "81", "stop_code": "29010z", "stop_name": "Lavis Cembra", "stop_lat": "46.143164", "stop_lon": "11.106402", "zone_id": "19025", "wheelchair_boarding": "1"}, {"stop_id": "85", "stop_code": "21210z", "stop_name": "Centochiavi Dalla Fior", "stop_lat": "46.094611", "stop_lon": "11.120675", "zone_id": "10110", "wheelchair_boarding": "2"}, {"stop_id": "86", "stop_code": "21205x", "stop_name": "Centochiavi Chiocchetti", "stop_lat": "46.093993", "stop_lon": "11.120699", "zone_id": "10110", "wheelchair_boarding": "2"}, {"stop_id": "87", "stop_code": "22410x", "stop_name": "Melta \"Case Itea\"", "stop_lat": "46.102271", "stop_lon": "11.118109", "zone_id": "10110", "wheelchair_boarding": "1"}, {"stop_id": "88", "stop_code": "22405x", "stop_name": "Parco di Melta", "stop_lat": "46.097274", "stop_lon": "11.119767", "zone_id": "10110"}, {"stop_id": "89", "stop_code": "22415z", "stop_name": "Melta Centro", "stop_lat": "46.099063", "stop_lon": "11.119270", "zone_id": "10110", "wheelchair_boarding": "2"}, {"stop_id": "90", "stop_code": "22415x", "stop_name": "Melta Centro", "stop_lat": "46.100104", "stop_lon": "11.118730", "zone_id": "10110", "wheelchair_boarding": "1"}, {"stop_id": "91", "stop_code": "22405z", "stop_name": "Parco di Melta", "stop_lat": "46.097239", "stop_lon": "11.119901", "zone_id": "10110"}, {"stop_id": "92", "stop_code": "21115c", "stop_name": "Bettini \"Madonna Bianca\"", "stop_lat": "46.042500", "stop_lon": "11.132908", "zone_id": "10110", "wheelchair_boarding": "2"}, {"stop_id": "93", "stop_code": "21690z", "stop_name": "Stella \"S.Gaetano\"", "stop_lat": "46.036416", "stop_lon": "11.130367", "zone_id": "10110", "wheelchair_boarding": "2"}, {"stop_id": "94", "stop_code": "26040z", "stop_name": "Ss 12 \"Casteller\"", "stop_lat": "46.025284", "stop_lon": "11.132751", "zone_id": "10110", "wheelchair_boarding": "2"}, {"stop_id": "95", "stop_code": "26040x", "stop_name": "Ss 12 \"Casteller\"", "stop_lat": "46.025707", "stop_lon": "11.132791", "zone_id": "10110", "wheelchair_boarding": "2"}, {"stop_id": "96", "stop_code": "21465x", "stop_name": "Madonna Bianca \"S.Gaetano\"", "stop_lat": "46.038012", "stop_lon": "11.130695", "zone_id": "10110", "wheelchair_boarding": "2"}, {"stop_id": "97", "stop_code": "21695x", "stop_name": "Stella Marighetto", "stop_lat": "46.034256", "stop_lon": "11.131509", "zone_id": "10110", "wheelchair_boarding": "1"}, {"stop_id": "98", "stop_code": "21460z", "stop_name": "Madonna Bianca \"Man\"", "stop_lat": "46.040293", "stop_lon": "11.130341", "zone_id": "10110", "wheelchair_boarding": "2"}, {"stop_id": "99", "stop_code": "26045z", "stop_name": "Ss 12 \"Le Caverne\"", "stop_lat": "46.030862", "stop_lon": "11.132677", "zone_id": "10110", "wheelchair_boarding": "2"}, {"stop_id": "100", "stop_code": "26045x", "stop_name": "Ss 12 \"Le Caverne\"", "stop_lat": "46.030338", "stop_lon": "11.132911", "zone_id": "10110", "wheelchair_boarding": "1"}, {"stop_id": "101", "stop_code": "24335z", "stop_name": "Martignano Formigheta", "stop_lat": "46.089121", "stop_lon": "11.133090", "zone_id": "10110", "wheelchair_boarding": "1"}, {"stop_id": "102", "stop_code": "24335x", "stop_name": "Martignano Formigheta", "stop_lat": "46.089134", "stop_lon": "11.133216", "zone_id": "10110", "wheelchair_boarding": "1"}, {"stop_id": "103", "stop_code": "24305z", "stop_name": "Martignano \"Chiesa\"", "stop_lat": "46.088732", "stop_lon": "11.130604", "zone_id": "10110", "wheelchair_boarding": "2"}, {"stop_id": "104", "stop_code": "24040z", "stop_name": "Sp 131 \"Maso Pradiscola\"", "stop_lat": "46.083189", "stop_lon": "11.135736", "zone_id": "10110", "wheelchair_boarding": "2"}, {"stop_id": "105", "stop_code": "24040x", "stop_name": "Sp 131 \"Maso Pradiscola\"", "stop_lat": "46.083255", "stop_lon": "11.135874", "zone_id": "10110", "wheelchair_boarding": "1"}, {"stop_id": "106", "stop_code": "24345z", "stop_name": "Martignano P.Zza Menghin", "stop_lat": "46.090240", "stop_lon": "11.131628", "zone_id": "10110", "wheelchair_boarding": "2"}, {"stop_id": "107", "stop_code": "24345x", "stop_name": "Martignano P.Zza Menghin", "stop_lat": "46.090275", "stop_lon": "11.131460", "zone_id": "10110", "wheelchair_boarding": "2"}, {"stop_id": "108", "stop_code": "24340x", "stop_name": "Martignano Piazza Canopi", "stop_lat": "46.089343", "stop_lon": "11.131031", "zone_id": "10110", "wheelchair_boarding": "1"}, {"stop_id": "109", "stop_code": "24350z", "stop_name": "Sp 131 \"Res. Silvana\"", "stop_lat": "46.097726", "stop_lon": "11.126962", "zone_id": "10110", "wheelchair_boarding": "2"}, {"stop_id": "110", "stop_code": "24350x", "stop_name": "Sp 131 \"Res. Silvana\"", "stop_lat": "46.097493", "stop_lon": "11.126925", "zone_id": "10110", "wheelchair_boarding": "2"}, {"stop_id": "111", "stop_code": "24310z", "stop_name": "Martignano Ai Bolleri", "stop_lat": "46.094491", "stop_lon": "11.130145", "zone_id": "10110", "wheelchair_boarding": "2"}, {"stop_id": "112", "stop_code": "24310x", "stop_name": "Martignano Ai Bolleri", "stop_lat": "46.094872", "stop_lon": "11.129322", "zone_id": "10110", "wheelchair_boarding": "2"}, {"stop_id": "113", "stop_code": "28015z", "stop_name": "Sopramonte \"Maso Banal\"", "stop_lat": "46.068953", "stop_lon": "11.063564", "zone_id": "10110", "wheelchair_boarding": "2"}, {"stop_id": "115", "stop_code": "24355z", "stop_name": "Sp 131 Al Maso Specchio", "stop_lat": "46.104391", "stop_lon": "11.123568", "zone_id": "10110", "wheelchair_boarding": "2"}, {"stop_id": "116", "stop_code": "24355x", "stop_name": "Sp 131 Al Maso Specchio", "stop_lat": "46.104353", "stop_lon": "11.123420", "zone_id": "10110", "wheelchair_boarding": "2"}, {"stop_id": "117", "stop_code": "27015z", "stop_name": "Ravina \"Maso Stella\"", "stop_lat": "46.032355", "stop_lon": "11.112678", "zone_id": "10110", "wheelchair_boarding": "2"}, {"stop_id": "118", "stop_code": "27015x", "stop_name": "Ravina \"Maso Stella\"", "stop_lat": "46.032555", "stop_lon": "11.112930", "zone_id": "10110", "wheelchair_boarding": "2"}, {"stop_id": "119", "stop_code": "26030c", "stop_name": "Mattarello Piazza Perini", "stop_lat": "46.006903", "stop_lon": "11.128338", "zone_id": "10110", "wheelchair_boarding": "2"}, {"stop_id": "120", "stop_code": "26035z", "stop_name": "Mattarello Via Nazionale", "stop_lat": "46.012407", "stop_lon": "11.130564", "zone_id": "10110", "wheelchair_boarding": "1"}, {"stop_id": "121", "stop_code": "26035x", "stop_name": "Mattarello Via Nazionale", "stop_lat": "46.011659", "stop_lon": "11.130375", "zone_id": "10110", "wheelchair_boarding": "2"}, {"stop_id": "122", "stop_code": "26005x", "stop_name": "Mattarello Pomeranos", "stop_lat": "46.013560", "stop_lon": "11.131498", "zone_id": "10110", "wheelchair_boarding": "1"}, {"stop_id": "123", "stop_code": "26010z", "stop_name": "Mattarello \"Ronchi\"", "stop_lat": "46.017244", "stop_lon": "11.132399", "zone_id": "10110", "wheelchair_boarding": "2"}, {"stop_id": "124", "stop_code": "26010x", "stop_name": "Mattarello \"Ronchi\"", "stop_lat": "46.017362", "stop_lon": "11.132609", "zone_id": "10110", "wheelchair_boarding": "2"}, {"stop_id": "125", "stop_code": "26025x", "stop_name": "Mattarello S.Leonardo", "stop_lat": "46.006454", "stop_lon": "11.127627", "zone_id": "10110", "wheelchair_boarding": "2"}, {"stop_id": "127", "stop_code": "26020x", "stop_name": "Mattarello Catoni", "stop_lat": "46.009380", "stop_lon": "11.128974", "zone_id": "10110", "wheelchair_boarding": "1"}, {"stop_id": "128", "stop_code": "26015x", "stop_name": "Mattarello Rio Stolzano", "stop_lat": "46.003128", "stop_lon": "11.126824", "zone_id": "10110", "wheelchair_boarding": "2"}, {"stop_id": "129", "stop_code": "23020z", "stop_name": "Meano Bivio S.Lazzaro", "stop_lat": "46.128303", "stop_lon": "11.115281", "zone_id": "10110", "wheelchair_boarding": "2"}, {"stop_id": "130", "stop_code": "23020x", "stop_name": "Meano Bivio S.Lazzaro", "stop_lat": "46.127538", "stop_lon": "11.115265", "zone_id": "10110", "wheelchair_boarding": "2"}, {"stop_id": "131", "stop_code": "23040z", "stop_name": "Sp 76 \"Piac\"", "stop_lat": "46.126690", "stop_lon": "11.114532", "zone_id": "10110", "wheelchair_boarding": "1"}, {"stop_id": "133", "stop_code": "23035z", "stop_name": "Sp 76 \"Maregioli\"", "stop_lat": "46.130755", "stop_lon": "11.121750", "zone_id": "10110", "wheelchair_boarding": "2"}, {"stop_id": "134", "stop_code": "23035x", "stop_name": "Sp 76 \"Maregioli\"", "stop_lat": "46.130894", "stop_lon": "11.121671", "zone_id": "10110", "wheelchair_boarding": "1"}, {"stop_id": "135", "stop_code": "23005z", "stop_name": "Meano \"Campo Sportivo\"", "stop_lat": "46.128279", "stop_lon": "11.120267", "zone_id": "10110", "wheelchair_boarding": "1"}, {"stop_id": "136", "stop_code": "23005x", "stop_name": "Meano \"Campo Sportivo\"", "stop_lat": "46.128310", "stop_lon": "11.119721", "zone_id": "10110", "wheelchair_boarding": "1"}, {"stop_id": "137", "stop_code": "23015z", "stop_name": "Meano \"Cimitero\"", "stop_lat": "46.125736", "stop_lon": "11.118419", "zone_id": "10110", "wheelchair_boarding": "1"}, {"stop_id": "138", "stop_code": "23015x", "stop_name": "Meano \"Cimitero\"", "stop_lat": "46.125483", "stop_lon": "11.118320", "zone_id": "10110", "wheelchair_boarding": "1"}, {"stop_id": "139", "stop_code": "23045z", "stop_name": "Sp 76 \"Via Rossa\"", "stop_lat": "46.119858", "stop_lon": "11.111416", "zone_id": "10110", "wheelchair_boarding": "2"}, {"stop_id": "140", "stop_code": "23045x", "stop_name": "Sp 76 \"Via Rossa\"", "stop_lat": "46.119812", "stop_lon": "11.111266", "zone_id": "10110", "wheelchair_boarding": "2"}, {"stop_id": "141", "stop_code": "23025z", "stop_name": "Meano Piazza Dell'assunta", "stop_lat": "46.122688", "stop_lon": "11.116846", "zone_id": "10110", "wheelchair_boarding": "2"}, {"stop_id": "142", "stop_code": "23030x", "stop_name": "Meano Portoni", "stop_lat": "46.123624", "stop_lon": "11.116855", "zone_id": "10110", "wheelchair_boarding": "2"}, {"stop_id": "143", "stop_code": "23055z", "stop_name": "Sp 76 Dos di Lamar", "stop_lat": "46.124939", "stop_lon": "11.113463", "zone_id": "10110", "wheelchair_boarding": "2"}, {"stop_id": "144", "stop_code": "23055x", "stop_name": "Sp 76 Dos di Lamar", "stop_lat": "46.124718", "stop_lon": "11.113018", "zone_id": "10110", "wheelchair_boarding": "1"}, {"stop_id": "145", "stop_code": "25405z", "stop_name": "Mesiano \"Fac. Ingegneria\"", "stop_lat": "46.067138", "stop_lon": "11.139355", "zone_id": "10110", "wheelchair_boarding": "1"}, {"stop_id": "146", "stop_code": "25405x", "stop_name": "Mesiano \"Fac. Ingegneria\"", "stop_lat": "46.067198", "stop_lon": "11.139497", "zone_id": "10110", "wheelchair_boarding": "1"}, {"stop_id": "147", "stop_code": "25410z", "stop_name": "Mesiano \"Stazione Fs\"", "stop_lat": "46.064947", "stop_lon": "11.141689", "zone_id": "10110", "wheelchair_boarding": "1"}, {"stop_id": "148", "stop_code": "25410x", "stop_name": "Mesiano \"Stazione Fs\"", "stop_lat": "46.065068", "stop_lon": "11.141726", "zone_id": "10110", "wheelchair_boarding": "1"}, {"stop_id": "149", "stop_code": "25045z", "stop_name": "Povo Valoni", "stop_lat": "46.065698", "stop_lon": "11.146418", "zone_id": "10110", "wheelchair_boarding": "1"}, {"stop_id": "150", "stop_code": "25045x", "stop_name": "Povo Valoni", "stop_lat": "46.065746", "stop_lon": "11.146326", "zone_id": "10110", "wheelchair_boarding": "1"}, {"stop_id": "151", "stop_code": "24510c", "stop_name": "Montevaccino", "stop_lat": "46.108340", "stop_lon": "11.142765", "zone_id": "10110"}, {"stop_id": "152", "stop_code": "24515z", "stop_name": "Montevaccino di Sotto", "stop_lat": "46.109439", "stop_lon": "11.139972", "zone_id": "10110", "wheelchair_boarding": "2"}, {"stop_id": "153", "stop_code": "24515x", "stop_name": "Montevaccino di Sotto", "stop_lat": "46.109508", "stop_lon": "11.140097", "zone_id": "10110", "wheelchair_boarding": "2"}, {"stop_id": "154", "stop_code": "24520z", "stop_name": "Sp 131 \"Paganin\"", "stop_lat": "46.106288", "stop_lon": "11.137610", "zone_id": "10110", "wheelchair_boarding": "2"}, {"stop_id": "155", "stop_code": "24520x", "stop_name": "Sp 131 \"Paganin\"", "stop_lat": "46.106524", "stop_lon": "11.137306", "zone_id": "10110", "wheelchair_boarding": "2"}, {"stop_id": "156", "stop_code": "24505z", "stop_name": "M.Vaccino \"Maso Librar\"", "stop_lat": "46.110418", "stop_lon": "11.138435", "zone_id": "10110", "wheelchair_boarding": "2"}, {"stop_id": "157", "stop_code": "24505x", "stop_name": "M.Vaccino \"Maso Librar\"", "stop_lat": "46.110776", "stop_lon": "11.138074", "zone_id": "10110", "wheelchair_boarding": "2"}, {"stop_id": "158", "stop_code": "28055z", "stop_name": "Ss 45 \"Montevideo\"", "stop_lat": "46.080499", "stop_lon": "11.098333", "zone_id": "10110", "wheelchair_boarding": "2"}, {"stop_id": "159", "stop_code": "25640z", "stop_name": "Villazzano Valnigra", "stop_lat": "46.052092", "stop_lon": "11.146621", "zone_id": "10110", "wheelchair_boarding": "1"}, {"stop_id": "160", "stop_code": "25640x", "stop_name": "Villazzano Valnigra", "stop_lat": "46.052181", "stop_lon": "11.146486", "zone_id": "10110", "wheelchair_boarding": "1"}, {"stop_id": "161", "stop_code": "25105c", "stop_name": "Oltrecastello", "stop_lat": "46.072808", "stop_lon": "11.161957", "zone_id": "10110"}, {"stop_id": "162", "stop_code": "21300x", "stop_name": "F.Lli Fontana Gen. Cantore", "stop_lat": "46.076802", "stop_lon": "11.119114", "zone_id": "10110", "wheelchair_boarding": "1"}, {"stop_id": "163", "stop_code": "20115c", "stop_name": "Piazza Dante \"Palazzo Pat\"", "stop_lat": "46.072304", "stop_lon": "11.120426", "zone_id": "10110", "wheelchair_boarding": "1"}, {"stop_id": "165", "stop_code": "21545-", "stop_name": "Piazza di Fiera", "stop_lat": "46.065221", "stop_lon": "11.123271", "zone_id": "10110"}, {"stop_id": "166", "stop_code": "21595x", "stop_name": "S.Francesco Porta Nuova", "stop_lat": "46.066776", "stop_lon": "11.126346", "zone_id": "10110", "wheelchair_boarding": "1"}, {"stop_id": "167", "stop_code": "21560z", "stop_name": "Piazza Vicenza", "stop_lat": "46.062137", "stop_lon": "11.132764", "zone_id": "10110"}, {"stop_id": "168", "stop_code": "21560x", "stop_name": "Piazza Vicenza", "stop_lat": "46.062292", "stop_lon": "11.132772", "zone_id": "10110"}, {"stop_id": "169", "stop_code": "21565z", "stop_name": "Piazzale A22", "stop_lat": "46.077292", "stop_lon": "11.111111", "zone_id": "10110"}, {"stop_id": "171", "stop_code": "21175z", "stop_name": "Brescia \"Piedicastello\"", "stop_lat": "46.070870", "stop_lon": "11.113316", "zone_id": "10110", "wheelchair_boarding": "1"}, {"stop_id": "172", "stop_code": "21175x", "stop_name": "Brescia \"Piedicastello\"", "stop_lat": "46.070494", "stop_lon": "11.111383", "zone_id": "10110", "wheelchair_boarding": "1"}, {"stop_id": "173", "stop_code": "21625-", "stop_name": "Tanzengiale Ovest Pezcoller", "stop_lat": "46.047739", "stop_lon": "11.113564", "zone_id": "10110", "wheelchair_boarding": "2"}, {"stop_id": "174", "stop_code": "24605z", "stop_name": "Ponte Lodovico", "stop_lat": "46.069352", "stop_lon": "11.138957", "zone_id": "10110"}, {"stop_id": "175", "stop_code": "24605x", "stop_name": "Ponte Lodovico", "stop_lat": "46.069523", "stop_lon": "11.140201", "zone_id": "10110"}, {"stop_id": "176", "stop_code": "21745x", "stop_name": "Venezia \"Port'aquila\"", "stop_lat": "46.069865", "stop_lon": "11.128221", "zone_id": "10110", "wheelchair_boarding": "2"}, {"stop_id": "177", "stop_code": "21225z", "stop_name": "Cervara \"Port'aquila\"", "stop_lat": "46.070179", "stop_lon": "11.128083", "zone_id": "10110", "wheelchair_boarding": "2"}, {"stop_id": "178", "stop_code": "21225x", "stop_name": "Cervara \"Port'aquila\"", "stop_lat": "46.070164", "stop_lon": "11.127890", "zone_id": "10110", "wheelchair_boarding": "1"}, {"stop_id": "179", "stop_code": "25505z", "stop_name": "Spr\u00c3\u00a9 Pinara", "stop_lat": "46.067264", "stop_lon": "11.160937", "zone_id": "10110", "wheelchair_boarding": "1"}, {"stop_id": "180", "stop_code": "25505x", "stop_name": "Spr\u00c3\u00a9 Pinara", "stop_lat": "46.067264", "stop_lon": "11.160807", "zone_id": "10110", "wheelchair_boarding": "1"}, {"stop_id": "181", "stop_code": "25005z", "stop_name": "Povo \"Casa di Riposo\"", "stop_lat": "46.065663", "stop_lon": "11.159678", "zone_id": "10110", "wheelchair_boarding": "2"}, {"stop_id": "182", "stop_code": "25005x", "stop_name": "Povo \"Casa di Riposo\"", "stop_lat": "46.065594", "stop_lon": "11.159530", "zone_id": "10110", "wheelchair_boarding": "1"}, {"stop_id": "183", "stop_code": "25010z", "stop_name": "Povo \"Centro Civico\"", "stop_lat": "46.064162", "stop_lon": "11.152006", "zone_id": "10110", "wheelchair_boarding": "1"}, {"stop_id": "184", "stop_code": "25010x", "stop_name": "Povo \"Centro Civico\"", "stop_lat": "46.063862", "stop_lon": "11.151912", "zone_id": "10110", "wheelchair_boarding": "2"}, {"stop_id": "185", "stop_code": "25035z", "stop_name": "Povo S.Agata", "stop_lat": "46.066291", "stop_lon": "11.156494", "zone_id": "10110", "wheelchair_boarding": "1"}, {"stop_id": "186", "stop_code": "25030z", "stop_name": "Povo Piazza Manci", "stop_lat": "46.065806", "stop_lon": "11.154617", "zone_id": "10110", "wheelchair_boarding": "1"}, {"stop_id": "187", "stop_code": "25030x", "stop_name": "Povo Piazza Manci", "stop_lat": "46.065955", "stop_lon": "11.154596", "zone_id": "10110", "wheelchair_boarding": "2"}, {"stop_id": "188", "stop_code": "25015z", "stop_name": "Povo \"Fac. Scienze\"", "stop_lat": "46.063289", "stop_lon": "11.150005", "zone_id": "10110", "wheelchair_boarding": "1"}, {"stop_id": "189", "stop_code": "25015x", "stop_name": "Povo \"Fac. Scienze\"", "stop_lat": "46.063316", "stop_lon": "11.150209", "zone_id": "10110", "wheelchair_boarding": "1"}, {"stop_id": "190", "stop_code": "25020z", "stop_name": "Povo \"Polo Sociale\"", "stop_lat": "46.065442", "stop_lon": "11.157973", "zone_id": "10110", "wheelchair_boarding": "2"}, {"stop_id": "191", "stop_code": "25020x", "stop_name": "Povo \"Polo Sociale\"", "stop_lat": "46.065632", "stop_lon": "11.157936", "zone_id": "10110", "wheelchair_boarding": "1"}, {"stop_id": "192", "stop_code": "27035n", "stop_name": "Ravina Masere", "stop_lat": "46.039165", "stop_lon": "11.111935", "zone_id": "10110", "wheelchair_boarding": "2"}, {"stop_id": "193", "stop_code": "27035s", "stop_name": "Ravina Masere", "stop_lat": "46.039202", "stop_lon": "11.112293", "zone_id": "10110", "wheelchair_boarding": "1"}, {"stop_id": "194", "stop_code": "27010z", "stop_name": "Ravina \"Case Itea\"", "stop_lat": "46.037329", "stop_lon": "11.114043", "zone_id": "10110", "wheelchair_boarding": "1"}, {"stop_id": "195", "stop_code": "27010x", "stop_name": "Ravina \"Case Itea\"", "stop_lat": "46.037940", "stop_lon": "11.114062", "zone_id": "10110", "wheelchair_boarding": "2"}, {"stop_id": "196", "stop_code": "27020-", "stop_name": "Ravina Chiesa", "stop_lat": "46.037726", "stop_lon": "11.107755", "zone_id": "10110", "wheelchair_boarding": "2"}, {"stop_id": "197", "stop_code": "27045-", "stop_name": "Ravina Piazza", "stop_lat": "46.037878", "stop_lon": "11.108509", "zone_id": "10110", "wheelchair_boarding": "1"}, {"stop_id": "198", "stop_code": "27040z", "stop_name": "Ravina Per Belvedere", "stop_lat": "46.041292", "stop_lon": "11.106159", "zone_id": "10110", "wheelchair_boarding": "2"}, {"stop_id": "199", "stop_code": "27040x", "stop_name": "Ravina Per Belvedere", "stop_lat": "46.041001", "stop_lon": "11.106237", "zone_id": "10110", "wheelchair_boarding": "1"}, {"stop_id": "200", "stop_code": "27025z", "stop_name": "Ravina Del Ponte", "stop_lat": "46.043295", "stop_lon": "11.112317", "zone_id": "10110", "wheelchair_boarding": "2"}, {"stop_id": "201", "stop_code": "27025x", "stop_name": "Ravina Del Ponte", "stop_lat": "46.041069", "stop_lon": "11.113117", "zone_id": "10110", "wheelchair_boarding": "2"}, {"stop_id": "202", "stop_code": "20120c", "stop_name": "Piazza Dante \"Pal. Regione\"", "stop_lat": "46.071711", "stop_lon": "11.121389", "zone_id": "10110", "wheelchair_boarding": "1"}, {"stop_id": "203", "stop_code": "27215z", "stop_name": "Romagnano Nord", "stop_lat": "46.020174", "stop_lon": "11.110857", "zone_id": "10110", "wheelchair_boarding": "2"}, {"stop_id": "204", "stop_code": "27215x", "stop_name": "Romagnano Nord", "stop_lat": "46.019954", "stop_lon": "11.110897", "zone_id": "10110", "wheelchair_boarding": "2"}, {"stop_id": "205", "stop_code": "27210z", "stop_name": "Romagnano Fontanelle", "stop_lat": "46.015323", "stop_lon": "11.107087", "zone_id": "10110", "wheelchair_boarding": "2"}, {"stop_id": "206", "stop_code": "27210x", "stop_name": "Romagnano Fontanelle", "stop_lat": "46.014633", "stop_lon": "11.106836", "zone_id": "10110", "wheelchair_boarding": "2"}, {"stop_id": "207", "stop_code": "27205z", "stop_name": "Romagnano 7 Fontane", "stop_lat": "46.014689", "stop_lon": "11.105064", "zone_id": "10110", "wheelchair_boarding": "2"}, {"stop_id": "208", "stop_code": "27220c", "stop_name": "Romagnano Piazza Condini", "stop_lat": "46.017751", "stop_lon": "11.105818", "zone_id": "10110", "wheelchair_boarding": "1"}, {"stop_id": "209", "stop_code": "27230z", "stop_name": "Romagnano Sud", "stop_lat": "46.012857", "stop_lon": "11.105449", "zone_id": "10110", "wheelchair_boarding": "2"}, {"stop_id": "210", "stop_code": "27230x", "stop_name": "Romagnano Sud", "stop_lat": "46.012091", "stop_lon": "11.104952", "zone_id": "10110", "wheelchair_boarding": "2"}, {"stop_id": "211", "stop_code": "27225z", "stop_name": "Romagnano Rimoni", "stop_lat": "46.016782", "stop_lon": "11.108221", "zone_id": "10110", "wheelchair_boarding": "1"}, {"stop_id": "212", "stop_code": "27225x", "stop_name": "Romagnano Rimoni", "stop_lat": "46.016488", "stop_lon": "11.108269", "zone_id": "10110", "wheelchair_boarding": "1"}, {"stop_id": "213", "stop_code": "22505c", "stop_name": "Roncafort", "stop_lat": "46.101271", "stop_lon": "11.101583", "zone_id": "10110"}, {"stop_id": "214", "stop_code": "22230x", "stop_name": "Ss 12 \"Zona Ind.Le Ftm\"", "stop_lat": "46.120242", "stop_lon": "11.105822", "zone_id": "10110", "wheelchair_boarding": "2"}, {"stop_id": "215", "stop_code": "25040z", "stop_name": "Povo Sal\u00c3\u00a9", "stop_lat": "46.062029", "stop_lon": "11.151722", "zone_id": "10110", "wheelchair_boarding": "1"}, {"stop_id": "216", "stop_code": "25040x", "stop_name": "Povo Sal\u00c3\u00a9", "stop_lat": "46.062016", "stop_lon": "11.150851", "zone_id": "10110", "wheelchair_boarding": "2"}, {"stop_id": "217", "stop_code": "21765z", "stop_name": "Verona \"S.Bartolameo\"", "stop_lat": "46.050720", "stop_lon": "11.130389", "zone_id": "10110", "wheelchair_boarding": "1"}, {"stop_id": "218", "stop_code": "21765x", "stop_name": "Verona \"S.Bartolameo\"", "stop_lat": "46.050943", "stop_lon": "11.130473", "zone_id": "10110", "wheelchair_boarding": "1"}, {"stop_id": "219", "stop_code": "24610x", "stop_name": "San Don\u00c3\u00a0", "stop_lat": "46.071656", "stop_lon": "11.138308", "zone_id": "10110", "wheelchair_boarding": "1"}, {"stop_id": "220", "stop_code": "24615z", "stop_name": "San Don\u00c3\u00a0 \"Chiesa\"", "stop_lat": "46.072152", "stop_lon": "11.138406", "zone_id": "10110", "wheelchair_boarding": "2"}, {"stop_id": "222", "stop_code": "24610z", "stop_name": "San Don\u00c3\u00a0", "stop_lat": "46.070879", "stop_lon": "11.139532", "zone_id": "10110", "wheelchair_boarding": "2"}, {"stop_id": "223", "stop_code": "22225x", "stop_name": "Lamar Sponda Trentina", "stop_lat": "46.134588", "stop_lon": "11.111690", "zone_id": "10110", "wheelchair_boarding": "2"}, {"stop_id": "224", "stop_code": "23305x", "stop_name": "San Lazzaro Ponte Avisio", "stop_lat": "46.137885", "stop_lon": "11.118354", "zone_id": "10110", "wheelchair_boarding": "1"}, {"stop_id": "226", "stop_code": "25810e", "stop_name": "San Rocco Torricelle", "stop_lat": "46.038541", "stop_lon": "11.145521", "zone_id": "10110", "wheelchair_boarding": "2"}, {"stop_id": "227", "stop_code": "25805-", "stop_name": "San Rocco Piazza", "stop_lat": "46.036364", "stop_lon": "11.146158", "zone_id": "10110", "wheelchair_boarding": "1"}, {"stop_id": "228", "stop_code": "24905c", "stop_name": "Piazza Madonna Delle Laste", "stop_lat": "46.074103", "stop_lon": "11.135256", "zone_id": "10110"}, {"stop_id": "229", "stop_code": "28035z", "stop_name": "Sopramonte Piazza Oveno", "stop_lat": "46.071317", "stop_lon": "11.059207", "zone_id": "10110", "wheelchair_boarding": "2"}, {"stop_id": "230", "stop_code": "28030z", "stop_name": "Sopramonte Bivio Baselga", "stop_lat": "46.075572", "stop_lon": "11.058469", "zone_id": "10110", "wheelchair_boarding": "2"}, {"stop_id": "231", "stop_code": "28030x", "stop_name": "Sopramonte Bivio Baselga", "stop_lat": "46.075783", "stop_lon": "11.058721", "zone_id": "10110", "wheelchair_boarding": "2"}, {"stop_id": "232", "stop_code": "28025z", "stop_name": "Sopramonte \"Valle\"", "stop_lat": "46.075836", "stop_lon": "11.056024", "zone_id": "10110", "wheelchair_boarding": "2"}, {"stop_id": "233", "stop_code": "28025x", "stop_name": "Sopramonte \"Valle\"", "stop_lat": "46.075950", "stop_lon": "11.055788", "zone_id": "10110", "wheelchair_boarding": "2"}, {"stop_id": "234", "stop_code": "28020z", "stop_name": "Sopramonte \"Novai\"", "stop_lat": "46.067706", "stop_lon": "11.061545", "zone_id": "10110", "wheelchair_boarding": "1"}, {"stop_id": "235", "stop_code": "28035c", "stop_name": "Sopramonte Piazza Oveno", "stop_lat": "46.071151", "stop_lon": "11.059520", "zone_id": "10110", "wheelchair_boarding": "2"}, {"stop_id": "236", "stop_code": "28005z", "stop_name": "Sopramonte \"Bunaga\"", "stop_lat": "46.069103", "stop_lon": "11.056869", "zone_id": "10110", "wheelchair_boarding": "1"}, {"stop_id": "237", "stop_code": "28005x", "stop_name": "Sopramonte \"Bunaga\"", "stop_lat": "46.069730", "stop_lon": "11.057698", "zone_id": "10110", "wheelchair_boarding": "1"}, {"stop_id": "238", "stop_code": "22630c", "stop_name": "Spini di Gardolo", "stop_lat": "46.121729", "stop_lon": "11.089889", "zone_id": "10110"}, {"stop_id": "239", "stop_code": "22620z", "stop_name": "Spini Linz", "stop_lat": "46.118504", "stop_lon": "11.096131", "zone_id": "10110", "wheelchair_boarding": "2"}, {"stop_id": "240", "stop_code": "22620x", "stop_name": "Spini Linz", "stop_lat": "46.118550", "stop_lon": "11.096708", "zone_id": "10110", "wheelchair_boarding": "2"}, {"stop_id": "241", "stop_code": "22605z", "stop_name": "Spini Monaco", "stop_lat": "46.118623", "stop_lon": "11.092766", "zone_id": "10110", "wheelchair_boarding": "2"}, {"stop_id": "242", "stop_code": "22605x", "stop_name": "Spini Monaco", "stop_lat": "46.118581", "stop_lon": "11.092616", "zone_id": "10110", "wheelchair_boarding": "2"}, {"stop_id": "243", "stop_code": "25510z", "stop_name": "Spr\u00c3\u00a9 S.Lucia", "stop_lat": "46.069294", "stop_lon": "11.161412", "zone_id": "10110", "wheelchair_boarding": "2"}, {"stop_id": "244", "stop_code": "25510x", "stop_name": "Spr\u00c3\u00a9 S.Lucia", "stop_lat": "46.069214", "stop_lon": "11.161151", "zone_id": "10110", "wheelchair_boarding": "2"}, {"stop_id": "245", "stop_code": "28045z", "stop_name": "Sp 85 \"Soraval\"", "stop_lat": "46.083258", "stop_lon": "11.063955", "zone_id": "10110", "wheelchair_boarding": "1"}, {"stop_id": "246", "stop_code": "28045x", "stop_name": "Sp 85 \"Soraval\"", "stop_lat": "46.083094", "stop_lon": "11.063877", "zone_id": "10110", "wheelchair_boarding": "2"}, {"stop_id": "247", "stop_code": "20125p", "stop_name": "Piazza Dante \"Stazione Fs\"", "stop_lat": "46.071917", "stop_lon": "11.119568", "zone_id": "10110", "wheelchair_boarding": "1"}, {"stop_id": "248", "stop_code": "24715z", "stop_name": "Tavernaro Centro", "stop_lat": "46.081448", "stop_lon": "11.154819", "zone_id": "10110", "wheelchair_boarding": "2"}, {"stop_id": "249", "stop_code": "24715x", "stop_name": "Tavernaro Centro", "stop_lat": "46.081579", "stop_lon": "11.155098", "zone_id": "10110", "wheelchair_boarding": "1"}, {"stop_id": "250", "stop_code": "24705z", "stop_name": "Tavernaro \"Salet\"", "stop_lat": "46.081815", "stop_lon": "11.157965", "zone_id": "10110", "wheelchair_boarding": "1"}, {"stop_id": "251", "stop_code": "24705x", "stop_name": "Tavernaro \"Salet\"", "stop_lat": "46.082026", "stop_lon": "11.158507", "zone_id": "10110", "wheelchair_boarding": "1"}, {"stop_id": "252", "stop_code": "24710z", "stop_name": "Tavernaro \"Villa Clementi\"", "stop_lat": "46.080906", "stop_lon": "11.157521", "zone_id": "10110", "wheelchair_boarding": "2"}, {"stop_id": "253", "stop_code": "24710x", "stop_name": "Tavernaro \"Villa Clementi\"", "stop_lat": "46.081266", "stop_lon": "11.155969", "zone_id": "10110", "wheelchair_boarding": "2"}, {"stop_id": "254", "stop_code": "28310p", "stop_name": "Vela Centro", "stop_lat": "46.082085", "stop_lon": "11.102047", "zone_id": "10110", "wheelchair_boarding": "2"}, {"stop_id": "255", "stop_code": "28305z", "stop_name": "Vela Alla Scala", "stop_lat": "46.078955", "stop_lon": "11.103563", "zone_id": "10110", "wheelchair_boarding": "1"}, {"stop_id": "256", "stop_code": "28305x", "stop_name": "Vela Alla Scala", "stop_lat": "46.078841", "stop_lon": "11.103473", "zone_id": "10110", "wheelchair_boarding": "1"}, {"stop_id": "257", "stop_code": "22030z", "stop_name": "Gardolo 4 Nov. Canova", "stop_lat": "46.098861", "stop_lon": "11.112925", "zone_id": "10110", "wheelchair_boarding": "1"}, {"stop_id": "258", "stop_code": "22025z", "stop_name": "Gardolo 4 Nov. \"Piscina\"", "stop_lat": "46.104288", "stop_lon": "11.112963", "zone_id": "10110", "wheelchair_boarding": "1"}, {"stop_id": "259", "stop_code": "22035z", "stop_name": "Gardolo 4 Nov. Soprasasso", "stop_lat": "46.106560", "stop_lon": "11.112346", "zone_id": "10110", "wheelchair_boarding": "2"}, {"stop_id": "260", "stop_code": "21055x", "stop_name": "Adamello Gorizia", "stop_lat": "46.059853", "stop_lon": "11.132395", "zone_id": "10110", "wheelchair_boarding": "2"}, {"stop_id": "261", "stop_code": "22020-", "stop_name": "Gardolo \"Stazione Ftm\"", "stop_lat": "46.107233", "stop_lon": "11.103861", "zone_id": "10110", "wheelchair_boarding": "2"}, {"stop_id": "262", "stop_code": "22305n", "stop_name": "M. Rossi \"Stella D.Mattino\"", "stop_lat": "46.107384", "stop_lon": "11.101204", "zone_id": "10110", "wheelchair_boarding": "1"}, {"stop_id": "263", "stop_code": "22305s", "stop_name": "M. Rossi \"Stella D.Mattino\"", "stop_lat": "46.107331", "stop_lon": "11.100406", "zone_id": "10110", "wheelchair_boarding": "2"}, {"stop_id": "264", "stop_code": "21060x", "stop_name": "Al Desert Muredei", "stop_lat": "46.051409", "stop_lon": "11.117370", "zone_id": "10110", "wheelchair_boarding": "2"}, {"stop_id": "265", "stop_code": "21060z", "stop_name": "Al Desert Muredei", "stop_lat": "46.050987", "stop_lon": "11.117056", "zone_id": "10110", "wheelchair_boarding": "1"}, {"stop_id": "266", "stop_code": "21065x", "stop_name": "Al Desert Ragazzi Del '99", "stop_lat": "46.046952", "stop_lon": "11.115704", "zone_id": "10110", "wheelchair_boarding": "1"}, {"stop_id": "267", "stop_code": "21065z", "stop_name": "Al Desert Ragazzi Del '99", "stop_lat": "46.047147", "stop_lon": "11.115661", "zone_id": "10110", "wheelchair_boarding": "1"}, {"stop_id": "269", "stop_code": "21075z", "stop_name": "Apuleio \"Case Degasperi\"", "stop_lat": "46.073284", "stop_lon": "11.115482", "zone_id": "10110", "wheelchair_boarding": "1"}, {"stop_id": "270", "stop_code": "21080z", "stop_name": "Apuleio \"Ponte S.Giorgio\"", "stop_lat": "46.076220", "stop_lon": "11.115030", "zone_id": "10110", "wheelchair_boarding": "2"}, {"stop_id": "271", "stop_code": "21090z", "stop_name": "Asiago \"Cernidor\"", "stop_lat": "46.050242", "stop_lon": "11.137200", "zone_id": "10110", "wheelchair_boarding": "2"}, {"stop_id": "272", "stop_code": "21085z", "stop_name": "Asiago \"Bellevue\"", "stop_lat": "46.053348", "stop_lon": "11.136344", "zone_id": "10110", "wheelchair_boarding": "2"}, {"stop_id": "273", "stop_code": "21085x", "stop_name": "Asiago \"Bellevue\"", "stop_lat": "46.053209", "stop_lon": "11.136495", "zone_id": "10110", "wheelchair_boarding": "2"}, {"stop_id": "274", "stop_code": "21090x", "stop_name": "Asiago \"Cernidor\"", "stop_lat": "46.049550", "stop_lon": "11.137273", "zone_id": "10110", "wheelchair_boarding": "2"}, {"stop_id": "275", "stop_code": "21005z", "stop_name": "Castello Buonconsiglio", "stop_lat": "46.070312", "stop_lon": "11.126964", "zone_id": "10110"}, {"stop_id": "276", "stop_code": "21645x", "stop_name": "Sanzio \"Castello\"", "stop_lat": "46.071906", "stop_lon": "11.126021", "zone_id": "10110", "wheelchair_boarding": "1"}, {"stop_id": "277", "stop_code": "21110-", "stop_name": "Barbacovi \"Itg Pozzo\"", "stop_lat": "46.064329", "stop_lon": "11.129974", "zone_id": "10110", "wheelchair_boarding": "1"}, {"stop_id": "278", "stop_code": "21680z", "stop_name": "Ss 47 Muralta", "stop_lat": "46.077059", "stop_lon": "11.131773", "zone_id": "10110", "wheelchair_boarding": "2"}, {"stop_id": "279", "stop_code": "24315z", "stop_name": "Martignano Capitel", "stop_lat": "46.082132", "stop_lon": "11.127158", "zone_id": "10110", "wheelchair_boarding": "2"}, {"stop_id": "280", "stop_code": "24315x", "stop_name": "Martignano Capitel", "stop_lat": "46.081762", "stop_lon": "11.126874", "zone_id": "10110", "wheelchair_boarding": "1"}, {"stop_id": "281", "stop_code": "21120z", "stop_name": "Bettini \"Nido Mad. Bianca\"", "stop_lat": "46.040477", "stop_lon": "11.135351", "zone_id": "10110", "wheelchair_boarding": "1"}, {"stop_id": "282", "stop_code": "21120x", "stop_name": "Bettini \"Nido Mad. Bianca\"", "stop_lat": "46.040082", "stop_lon": "11.135431", "zone_id": "10110", "wheelchair_boarding": "1"}, {"stop_id": "283", "stop_code": "21125x", "stop_name": "Bezzi Filzi", "stop_lat": "46.058467", "stop_lon": "11.119271", "zone_id": "10110", "wheelchair_boarding": "1"}, {"stop_id": "284", "stop_code": "21130z", "stop_name": "Bolghera \"S.Antonio\"", "stop_lat": "46.058155", "stop_lon": "11.131199", "zone_id": "10110", "wheelchair_boarding": "1"}, {"stop_id": "285", "stop_code": "22210x", "stop_name": "Lamar \"Sottostazione Enel\"", "stop_lat": "46.130819", "stop_lon": "11.110121", "zone_id": "10110", "wheelchair_boarding": "2"}, {"stop_id": "286", "stop_code": "22710x", "stop_name": "Ss 12 \"Pioppeto\"", "stop_lat": "46.108369", "stop_lon": "11.108528", "zone_id": "10110", "wheelchair_boarding": "1"}, {"stop_id": "287", "stop_code": "22715x", "stop_name": "Ss 12 Bivio Meano", "stop_lat": "46.116062", "stop_lon": "11.106197", "zone_id": "10110", "wheelchair_boarding": "2"}, {"stop_id": "288", "stop_code": "22720x", "stop_name": "Ss 12 Canova", "stop_lat": "46.098985", "stop_lon": "11.111739", "zone_id": "10110", "wheelchair_boarding": "1"}, {"stop_id": "289", "stop_code": "22705x", "stop_name": "Ss 12 \"Paludi\"", "stop_lat": "46.102643", "stop_lon": "11.110490", "zone_id": "10110", "wheelchair_boarding": "2"}, {"stop_id": "290", "stop_code": "22720z", "stop_name": "Ss 12 Canova", "stop_lat": "46.100264", "stop_lon": "11.111578", "zone_id": "10110", "wheelchair_boarding": "1"}, {"stop_id": "291", "stop_code": "21135x", "stop_name": "Brennero \"Bren Center\"", "stop_lat": "46.091361", "stop_lon": "11.115392", "zone_id": "10110", "wheelchair_boarding": "1"}, {"stop_id": "292", "stop_code": "21135z", "stop_name": "Brennero \"Bren Center\"", "stop_lat": "46.091461", "stop_lon": "11.115591", "zone_id": "10110", "wheelchair_boarding": "1"}, {"stop_id": "293", "stop_code": "21165z", "stop_name": "Brennero Marconi", "stop_lat": "46.082901", "stop_lon": "11.120503", "zone_id": "10110", "wheelchair_boarding": "1"}, {"stop_id": "294", "stop_code": "21160z", "stop_name": "Brennero Malvasia", "stop_lat": "46.077969", "stop_lon": "11.123274", "zone_id": "10110", "wheelchair_boarding": "1"}, {"stop_id": "295", "stop_code": "21165x", "stop_name": "Brennero Marconi", "stop_lat": "46.083720", "stop_lon": "11.119823", "zone_id": "10110", "wheelchair_boarding": "1"}, {"stop_id": "296", "stop_code": "21145x", "stop_name": "Brennero \"Magnete\"", "stop_lat": "46.089442", "stop_lon": "11.116527", "zone_id": "10110", "wheelchair_boarding": "1"}, {"stop_id": "297", "stop_code": "21140z", "stop_name": "Brennero \"Ex Scalo Filzi\"", "stop_lat": "46.079982", "stop_lon": "11.122133", "zone_id": "10110", "wheelchair_boarding": "1"}, {"stop_id": "298", "stop_code": "21140x", "stop_name": "Brennero \"Ex Scalo Filzi\"", "stop_lat": "46.079301", "stop_lon": "11.122355", "zone_id": "10110", "wheelchair_boarding": "1"}, {"stop_id": "300", "stop_code": "21155z", "stop_name": "Brennero \"Tridente\"", "stop_lat": "46.086479", "stop_lon": "11.118447", "zone_id": "10110", "wheelchair_boarding": "1"}, {"stop_id": "301", "stop_code": "21190x", "stop_name": "Brigata Acqui \"Itc Tambosi\"", "stop_lat": "46.065346", "stop_lon": "11.128400", "zone_id": "10110", "wheelchair_boarding": "1"}, {"stop_id": "303", "stop_code": "22510z", "stop_name": "Roncafort Bettine", "stop_lat": "46.097530", "stop_lon": "11.102648", "zone_id": "10110", "wheelchair_boarding": "2"}, {"stop_id": "304", "stop_code": "21040z", "stop_name": "Caneppele Goio", "stop_lat": "46.094476", "stop_lon": "11.105228", "zone_id": "10110", "wheelchair_boarding": "2"}, {"stop_id": "305", "stop_code": "21040x", "stop_name": "Caneppele Goio", "stop_lat": "46.094431", "stop_lon": "11.105006", "zone_id": "10110", "wheelchair_boarding": "2"}, {"stop_id": "306", "stop_code": "21675z", "stop_name": "Spalliera Cereria", "stop_lat": "46.074170", "stop_lon": "11.128506", "zone_id": "10110", "wheelchair_boarding": "2"}, {"stop_id": "307", "stop_code": "21675x", "stop_name": "Spalliera Cereria", "stop_lat": "46.074158", "stop_lon": "11.128327", "zone_id": "10110", "wheelchair_boarding": "2"}, {"stop_id": "308", "stop_code": "24325z", "stop_name": "Martignano Cesarini", "stop_lat": "46.086271", "stop_lon": "11.129177", "zone_id": "10110", "wheelchair_boarding": "2"}, {"stop_id": "309", "stop_code": "24325x", "stop_name": "Martignano Cesarini", "stop_lat": "46.087137", "stop_lon": "11.129668", "zone_id": "10110", "wheelchair_boarding": "2"}, {"stop_id": "310", "stop_code": "21240z", "stop_name": "Conci De Riccabona", "stop_lat": "46.039645", "stop_lon": "11.140944", "zone_id": "10110", "wheelchair_boarding": "2"}, {"stop_id": "311", "stop_code": "21240x", "stop_name": "Conci De Riccabona", "stop_lat": "46.039406", "stop_lon": "11.140409", "zone_id": "10110", "wheelchair_boarding": "1"}, {"stop_id": "312", "stop_code": "21235z", "stop_name": "Conci Ferrovia", "stop_lat": "46.039365", "stop_lon": "11.137717", "zone_id": "10110", "wheelchair_boarding": "2"}, {"stop_id": "313", "stop_code": "21235x", "stop_name": "Conci Ferrovia", "stop_lat": "46.039883", "stop_lon": "11.137453", "zone_id": "10110", "wheelchair_boarding": "2"}, {"stop_id": "314", "stop_code": "21255z", "stop_name": "Degasperi Anna Frank", "stop_lat": "46.050201", "stop_lon": "11.124017", "zone_id": "10110", "wheelchair_boarding": "1"}, {"stop_id": "315", "stop_code": "21255x", "stop_name": "Degasperi Anna Frank", "stop_lat": "46.051099", "stop_lon": "11.123052", "zone_id": "10110", "wheelchair_boarding": "1"}, {"stop_id": "316", "stop_code": "21250z", "stop_name": "Degasperi \"Palazzo Stella\"", "stop_lat": "46.043178", "stop_lon": "11.129229", "zone_id": "10110", "wheelchair_boarding": "1"}, {"stop_id": "317", "stop_code": "21250x", "stop_name": "Degasperi \"Palazzo Stella\"", "stop_lat": "46.042977", "stop_lon": "11.129678", "zone_id": "10110", "wheelchair_boarding": "1"}, {"stop_id": "318", "stop_code": "21245z", "stop_name": "Degasperi \"Big Center\"", "stop_lat": "46.044870", "stop_lon": "11.128026", "zone_id": "10110", "wheelchair_boarding": "1"}, {"stop_id": "319", "stop_code": "21245x", "stop_name": "Degasperi \"Big Center\"", "stop_lat": "46.044947", "stop_lon": "11.128128", "zone_id": "10110", "wheelchair_boarding": "2"}, {"stop_id": "320", "stop_code": "21260z", "stop_name": "Degasperi La Clarina", "stop_lat": "46.048057", "stop_lon": "11.126674", "zone_id": "10110", "wheelchair_boarding": "1"}, {"stop_id": "321", "stop_code": "21260x", "stop_name": "Degasperi La Clarina", "stop_lat": "46.048680", "stop_lon": "11.126247", "zone_id": "10110", "wheelchair_boarding": "1"}, {"stop_id": "322", "stop_code": "21275z", "stop_name": "Dei Mille \"Villa Igea\"", "stop_lat": "46.062490", "stop_lon": "11.127802", "zone_id": "10110", "wheelchair_boarding": "1"}, {"stop_id": "323", "stop_code": "21275x", "stop_name": "Dei Mille \"Villa Igea\"", "stop_lat": "46.062506", "stop_lon": "11.127984", "zone_id": "10110", "wheelchair_boarding": "1"}, {"stop_id": "324", "stop_code": "25610z", "stop_name": "Villazzano \"Villa De Mersi\"", "stop_lat": "46.048131", "stop_lon": "11.143328", "zone_id": "10110", "wheelchair_boarding": "1"}, {"stop_id": "325", "stop_code": "24330z", "stop_name": "Martignano Costiole", "stop_lat": "46.092274", "stop_lon": "11.132622", "zone_id": "10110", "wheelchair_boarding": "1"}, {"stop_id": "326", "stop_code": "24330x", "stop_name": "Martignano Costiole", "stop_lat": "46.092513", "stop_lon": "11.132436", "zone_id": "10110", "wheelchair_boarding": "2"}, {"stop_id": "327", "stop_code": "24320z", "stop_name": "Martignano Castori", "stop_lat": "46.083356", "stop_lon": "11.127848", "zone_id": "10110", "wheelchair_boarding": "2"}, {"stop_id": "328", "stop_code": "24320x", "stop_name": "Martignano Castori", "stop_lat": "46.083311", "stop_lon": "11.127683", "zone_id": "10110", "wheelchair_boarding": "1"}, {"stop_id": "329", "stop_code": "21290x", "stop_name": "Dos Trento Mariano", "stop_lat": "46.074597", "stop_lon": "11.113358", "zone_id": "10110", "wheelchair_boarding": "1"}, {"stop_id": "330", "stop_code": "21285x", "stop_name": "Dos Trento Apuleio", "stop_lat": "46.073022", "stop_lon": "11.114843", "zone_id": "10110", "wheelchair_boarding": "1"}, {"stop_id": "331", "stop_code": "21030x", "stop_name": "Ponte S.Giorgio", "stop_lat": "46.076974", "stop_lon": "11.114129", "zone_id": "10110"}, {"stop_id": "333", "stop_code": "21300z", "stop_name": "F.Lli Fontana Gen. Cantore", "stop_lat": "46.076988", "stop_lon": "11.118892", "zone_id": "10110", "wheelchair_boarding": "1"}, {"stop_id": "334", "stop_code": "21295z", "stop_name": "F.Lli Fontana Oberziner", "stop_lat": "46.077461", "stop_lon": "11.116749", "zone_id": "10110", "wheelchair_boarding": "1"}, {"stop_id": "335", "stop_code": "21310z", "stop_name": "Fermi La Clarina", "stop_lat": "46.048733", "stop_lon": "11.128986", "zone_id": "10110", "wheelchair_boarding": "1"}, {"stop_id": "338", "stop_code": "21315z", "stop_name": "Fogazzaro \"Piscina\"", "stop_lat": "46.056279", "stop_lon": "11.130465", "zone_id": "10110", "wheelchair_boarding": "1"}, {"stop_id": "339", "stop_code": "21315x", "stop_name": "Fogazzaro \"Piscina\"", "stop_lat": "46.055966", "stop_lon": "11.129610", "zone_id": "10110", "wheelchair_boarding": "1"}, {"stop_id": "340", "stop_code": "25815z", "stop_name": "Ss 349 Pozzata", "stop_lat": "46.039534", "stop_lon": "11.144070", "zone_id": "10110", "wheelchair_boarding": "2"}, {"stop_id": "342", "stop_code": "21320x", "stop_name": "Gandhi \"Parco Anna Frank\"", "stop_lat": "46.051689", "stop_lon": "11.124402", "zone_id": "10110", "wheelchair_boarding": "1"}, {"stop_id": "344", "stop_code": "21335x", "stop_name": "Gerola \"Ospedale S.Chiara\"", "stop_lat": "46.058389", "stop_lon": "11.133087", "zone_id": "10110", "wheelchair_boarding": "1"}, {"stop_id": "345", "stop_code": "21345z", "stop_name": "Ghiaie Monte Baldo", "stop_lat": "46.056275", "stop_lon": "11.116062", "zone_id": "10110", "wheelchair_boarding": "2"}, {"stop_id": "346", "stop_code": "21340z", "stop_name": "Ghiaie \"Giardinerie\"", "stop_lat": "46.053228", "stop_lon": "11.116716", "zone_id": "10110", "wheelchair_boarding": "1"}, {"stop_id": "347", "stop_code": "21350x", "stop_name": "Giovanelli \"Osp. S.Camillo\"", "stop_lat": "46.065485", "stop_lon": "11.131892", "zone_id": "10110", "wheelchair_boarding": "1"}, {"stop_id": "348", "stop_code": "21360z", "stop_name": "Giusti Pascoli", "stop_lat": "46.060364", "stop_lon": "11.118908", "zone_id": "10110", "wheelchair_boarding": "1"}, {"stop_id": "349", "stop_code": "21355x", "stop_name": "Giusti \"Arcivescovile\"", "stop_lat": "46.061394", "stop_lon": "11.119040", "zone_id": "10110", "wheelchair_boarding": "1"}, {"stop_id": "350", "stop_code": "21010c", "stop_name": "Gocciadoro \"Arcate\"", "stop_lat": "46.054910", "stop_lon": "11.133806", "zone_id": "10110", "wheelchair_boarding": "1"}, {"stop_id": "351", "stop_code": "21365-", "stop_name": "Gocciadoro \"Poliambulatori\"", "stop_lat": "46.055618", "stop_lon": "11.132178", "zone_id": "10110", "wheelchair_boarding": "1"}, {"stop_id": "352", "stop_code": "21370z", "stop_name": "Gorizia Adamello", "stop_lat": "46.059882", "stop_lon": "11.131327", "zone_id": "10110", "wheelchair_boarding": "1"}, {"stop_id": "353", "stop_code": "21375x", "stop_name": "Gramsci \"Materna La Clarina\"", "stop_lat": "46.053319", "stop_lon": "11.125589", "zone_id": "10110", "wheelchair_boarding": "1"}, {"stop_id": "354", "stop_code": "21380x", "stop_name": "Gramsci Einaudi", "stop_lat": "46.052678", "stop_lon": "11.128127", "zone_id": "10110", "wheelchair_boarding": "2"}, {"stop_id": "355", "stop_code": "21390x", "stop_name": "Grazioli Brigata Acqui", "stop_lat": "46.067096", "stop_lon": "11.128810", "zone_id": "10110", "wheelchair_boarding": "2"}, {"stop_id": "356", "stop_code": "21405z", "stop_name": "Guardini Gilli", "stop_lat": "46.091986", "stop_lon": "11.119080", "zone_id": "10110", "wheelchair_boarding": "1"}, {"stop_id": "357", "stop_code": "21405x", "stop_name": "Guardini Gilli", "stop_lat": "46.091235", "stop_lon": "11.119268", "zone_id": "10110", "wheelchair_boarding": "2"}, {"stop_id": "358", "stop_code": "21425z", "stop_name": "Lunelli Centochiavi", "stop_lat": "46.092703", "stop_lon": "11.119936", "zone_id": "10110", "wheelchair_boarding": "1"}, {"stop_id": "360", "stop_code": "21440x", "stop_name": "Maccani \"Rotatoria\"", "stop_lat": "46.082766", "stop_lon": "11.114831", "zone_id": "10110", "wheelchair_boarding": "1"}, {"stop_id": "361", "stop_code": "21455z", "stop_name": "Maccani Commercio", "stop_lat": "46.091714", "stop_lon": "11.107510", "zone_id": "10110", "wheelchair_boarding": "2"}, {"stop_id": "362", "stop_code": "21455x", "stop_name": "Maccani Commercio", "stop_lat": "46.091591", "stop_lon": "11.107450", "zone_id": "10110", "wheelchair_boarding": "1"}, {"stop_id": "363", "stop_code": "21450z", "stop_name": "Maccani Campotrentino", "stop_lat": "46.085771", "stop_lon": "11.112487", "zone_id": "10110", "wheelchair_boarding": "1"}, {"stop_id": "364", "stop_code": "21450x", "stop_name": "Maccani Campotrentino", "stop_lat": "46.085490", "stop_lon": "11.112579", "zone_id": "10110", "wheelchair_boarding": "2"}, {"stop_id": "365", "stop_code": "21445z", "stop_name": "Maccani Abondi", "stop_lat": "46.080928", "stop_lon": "11.116577", "zone_id": "10110", "wheelchair_boarding": "1"}, {"stop_id": "366", "stop_code": "21445x", "stop_name": "Maccani Abondi", "stop_lat": "46.080800", "stop_lon": "11.116529", "zone_id": "10110", "wheelchair_boarding": "1"}, {"stop_id": "368", "stop_code": "21435z", "stop_name": "Maccani \"Polizia Locale\"", "stop_lat": "46.089720", "stop_lon": "11.109149", "zone_id": "10110", "wheelchair_boarding": "1"}, {"stop_id": "369", "stop_code": "21435x", "stop_name": "Maccani \"Polizia Locale\"", "stop_lat": "46.090562", "stop_lon": "11.108259", "zone_id": "10110", "wheelchair_boarding": "1"}, {"stop_id": "370", "stop_code": "21440z", "stop_name": "Maccani \"Rotatoria\"", "stop_lat": "46.082853", "stop_lon": "11.114968", "zone_id": "10110", "wheelchair_boarding": "1"}, {"stop_id": "371", "stop_code": "21430z", "stop_name": "Maccani \"Ex Sloi\"", "stop_lat": "46.087887", "stop_lon": "11.110721", "zone_id": "10110", "wheelchair_boarding": "1"}, {"stop_id": "372", "stop_code": "21430x", "stop_name": "Maccani \"Ex Sloi\"", "stop_lat": "46.087847", "stop_lon": "11.110579", "zone_id": "10110", "wheelchair_boarding": "1"}, {"stop_id": "374", "stop_code": "21475z", "stop_name": "Marconi Solteri", "stop_lat": "46.084413", "stop_lon": "11.121323", "zone_id": "10110", "wheelchair_boarding": "2"}, {"stop_id": "375", "stop_code": "21475x", "stop_name": "Marconi Solteri", "stop_lat": "46.084543", "stop_lon": "11.121732", "zone_id": "10110", "wheelchair_boarding": "1"}, {"stop_id": "376", "stop_code": "25630z", "stop_name": "Villazzano Marzola", "stop_lat": "46.046672", "stop_lon": "11.148788", "zone_id": "10110", "wheelchair_boarding": "2"}, {"stop_id": "377", "stop_code": "25630x", "stop_name": "Villazzano Marzola", "stop_lat": "46.046549", "stop_lon": "11.149058", "zone_id": "10110", "wheelchair_boarding": "2"}, {"stop_id": "378", "stop_code": "25625z", "stop_name": "Villazzano Giordano", "stop_lat": "46.050678", "stop_lon": "11.148464", "zone_id": "10110", "wheelchair_boarding": "2"}, {"stop_id": "379", "stop_code": "25625x", "stop_name": "Villazzano Giordano", "stop_lat": "46.050736", "stop_lon": "11.148327", "zone_id": "10110", "wheelchair_boarding": "2"}, {"stop_id": "380", "stop_code": "21480x", "stop_name": "Mattioli Vittorio Veneto", "stop_lat": "46.058838", "stop_lon": "11.122521", "zone_id": "10110", "wheelchair_boarding": "1"}, {"stop_id": "382", "stop_code": "21490z", "stop_name": "Menguzzato Al Casteller", "stop_lat": "46.038222", "stop_lon": "11.134508", "zone_id": "10110", "wheelchair_boarding": "2"}, {"stop_id": "383", "stop_code": "21485z", "stop_name": "Menguzzato \"Centro Civico\"", "stop_lat": "46.040449", "stop_lon": "11.131690", "zone_id": "10110", "wheelchair_boarding": "1"}, {"stop_id": "384", "stop_code": "21485x", "stop_name": "Menguzzato \"Centro Civico\"", "stop_lat": "46.040107", "stop_lon": "11.132070", "zone_id": "10110", "wheelchair_boarding": "1"}, {"stop_id": "385", "stop_code": "21490x", "stop_name": "Menguzzato Al Casteller", "stop_lat": "46.038106", "stop_lon": "11.134135", "zone_id": "10110", "wheelchair_boarding": "1"}, {"stop_id": "386", "stop_code": "21495x", "stop_name": "Milano A Prato", "stop_lat": "46.060791", "stop_lon": "11.127602", "zone_id": "10110", "wheelchair_boarding": "2"}, {"stop_id": "387", "stop_code": "21495z", "stop_name": "Milano A Prato", "stop_lat": "46.060723", "stop_lon": "11.127671", "zone_id": "10110", "wheelchair_boarding": "1"}, {"stop_id": "388", "stop_code": "21500z", "stop_name": "Missioni Africane", "stop_lat": "46.076760", "stop_lon": "11.128229", "zone_id": "10110"}, {"stop_id": "389", "stop_code": "21035z", "stop_name": "Quattro Strade", "stop_lat": "46.075587", "stop_lon": "11.128243", "zone_id": "10110"}, {"stop_id": "390", "stop_code": "21035x", "stop_name": "Quattro Strade", "stop_lat": "46.076150", "stop_lon": "11.128131", "zone_id": "10110"}, {"stop_id": "391", "stop_code": "21500x", "stop_name": "Missioni Africane", "stop_lat": "46.078671", "stop_lon": "11.127111", "zone_id": "10110"}, {"stop_id": "392", "stop_code": "21505x", "stop_name": "Monte Baldo Ghiaie", "stop_lat": "46.057153", "stop_lon": "11.115163", "zone_id": "10110", "wheelchair_boarding": "2"}, {"stop_id": "393", "stop_code": "21515z", "stop_name": "Muredei Prati", "stop_lat": "46.056966", "stop_lon": "11.118125", "zone_id": "10110", "wheelchair_boarding": "2"}, {"stop_id": "395", "stop_code": "21510z", "stop_name": "Muredei Benevoli", "stop_lat": "46.053728", "stop_lon": "11.118206", "zone_id": "10110", "wheelchair_boarding": "2"}, {"stop_id": "397", "stop_code": "21520x", "stop_name": "Oberziner Alpini", "stop_lat": "46.078744", "stop_lon": "11.117589", "zone_id": "10110", "wheelchair_boarding": "1"}, {"stop_id": "400", "stop_code": "21525x", "stop_name": "Pasubio Adamello", "stop_lat": "46.060030", "stop_lon": "11.133381", "zone_id": "10110", "wheelchair_boarding": "1"}, {"stop_id": "401", "stop_code": "21305x", "stop_name": "F.Lli Perini 3 Novembre", "stop_lat": "46.060903", "stop_lon": "11.124400", "zone_id": "10110", "wheelchair_boarding": "1"}, {"stop_id": "402", "stop_code": "21535z", "stop_name": "Piave \"Parco S.Chiara\"", "stop_lat": "46.064151", "stop_lon": "11.127563", "zone_id": "10110", "wheelchair_boarding": "2"}, {"stop_id": "403", "stop_code": "21580x", "stop_name": "Romagnosi Vannetti", "stop_lat": "46.072993", "stop_lon": "11.122651", "zone_id": "10110", "wheelchair_boarding": "1"}, {"stop_id": "404", "stop_code": "21585z", "stop_name": "Rosmini \"Cimitero\" / Muse", "stop_lat": "46.064185", "stop_lon": "11.119431", "zone_id": "10110", "wheelchair_boarding": "1"}, {"stop_id": "405", "stop_code": "21585x", "stop_name": "Rosmini \"Cimitero\"", "stop_lat": "46.063745", "stop_lon": "11.119596", "zone_id": "10110", "wheelchair_boarding": "1"}, {"stop_id": "406", "stop_code": "21590x", "stop_name": "Rosmini S.Maria Maggiore", "stop_lat": "46.067846", "stop_lon": "11.118867", "zone_id": "10110", "wheelchair_boarding": "1"}, {"stop_id": "407", "stop_code": "21590z", "stop_name": "Rosmini S.Maria Maggiore", "stop_lat": "46.068100", "stop_lon": "11.118642", "zone_id": "10110", "wheelchair_boarding": "1"}, {"stop_id": "408", "stop_code": "21045z", "stop_name": "3 Nov. \"Centro S.Chiara\"", "stop_lat": "46.062231", "stop_lon": "11.123671", "zone_id": "10110", "wheelchair_boarding": "1"}, {"stop_id": "409", "stop_code": "21045x", "stop_name": "3 Nov. \"Centro S.Chiara\"", "stop_lat": "46.062181", "stop_lon": "11.123931", "zone_id": "10110", "wheelchair_boarding": "1"}, {"stop_id": "410", "stop_code": "21595z", "stop_name": "S.Francesco Porta Nuova", "stop_lat": "46.067075", "stop_lon": "11.126226", "zone_id": "10110", "wheelchair_boarding": "1"}, {"stop_id": "412", "stop_code": "21615x", "stop_name": "S.Pio X Matteotti", "stop_lat": "46.056396", "stop_lon": "11.119944", "zone_id": "10110", "wheelchair_boarding": "1"}, {"stop_id": "413", "stop_code": "21610z", "stop_name": "S.Pio X Largo Prati", "stop_lat": "46.056862", "stop_lon": "11.119124", "zone_id": "10110", "wheelchair_boarding": "1"}, {"stop_id": "414", "stop_code": "21605z", "stop_name": "S.Pio X Benevoli", "stop_lat": "46.053951", "stop_lon": "11.120497", "zone_id": "10110", "wheelchair_boarding": "1"}, {"stop_id": "415", "stop_code": "21605x", "stop_name": "S.Pio X Benevoli", "stop_lat": "46.053806", "stop_lon": "11.120736", "zone_id": "10110", "wheelchair_boarding": "1"}, {"stop_id": "416", "stop_code": "21635x", "stop_name": "Sanseverino S.Nicol\u00c3\u00b2", "stop_lat": "46.052351", "stop_lon": "11.112016", "zone_id": "10110", "wheelchair_boarding": "1"}, {"stop_id": "417", "stop_code": "21635z", "stop_name": "Sanseverino S.Nicol\u00c3\u00b2", "stop_lat": "46.051036", "stop_lon": "11.111609", "zone_id": "10110", "wheelchair_boarding": "1"}, {"stop_id": "420", "stop_code": "21650x", "stop_name": "Segantini Centa", "stop_lat": "46.075601", "stop_lon": "11.122399", "zone_id": "10110", "wheelchair_boarding": "1"}, {"stop_id": "421", "stop_code": "21655x", "stop_name": "Segantini Dogana", "stop_lat": "46.074211", "stop_lon": "11.121460", "zone_id": "10110", "wheelchair_boarding": "2"}, {"stop_id": "422", "stop_code": "21665z", "stop_name": "Solteri \"Piazzina\"", "stop_lat": "46.085489", "stop_lon": "11.122562", "zone_id": "10110", "wheelchair_boarding": "1"}, {"stop_id": "423", "stop_code": "21665x", "stop_name": "Solteri \"Piazzina\"", "stop_lat": "46.085516", "stop_lon": "11.122391", "zone_id": "10110", "wheelchair_boarding": "2"}, {"stop_id": "424", "stop_code": "21670z", "stop_name": "Solteri Largaiolli", "stop_lat": "46.089937", "stop_lon": "11.120942", "zone_id": "10110", "wheelchair_boarding": "1"}, {"stop_id": "425", "stop_code": "21670x", "stop_name": "Solteri Largaiolli", "stop_lat": "46.090005", "stop_lon": "11.120776", "zone_id": "10110", "wheelchair_boarding": "1"}, {"stop_id": "426", "stop_code": "21660z", "stop_name": "Solteri \"Nido La Trottola\"", "stop_lat": "46.087985", "stop_lon": "11.121274", "zone_id": "10110", "wheelchair_boarding": "1"}, {"stop_id": "427", "stop_code": "21660x", "stop_name": "Solteri \"Nido La Trottola\"", "stop_lat": "46.087571", "stop_lon": "11.121354", "zone_id": "10110", "wheelchair_boarding": "1"}, {"stop_id": "428", "stop_code": "22005z", "stop_name": "Gardolo Soprasasso", "stop_lat": "46.105677", "stop_lon": "11.107554", "zone_id": "10110", "wheelchair_boarding": "2"}, {"stop_id": "429", "stop_code": "22005x", "stop_name": "Gardolo Soprasasso", "stop_lat": "46.105504", "stop_lon": "11.107295", "zone_id": "10110", "wheelchair_boarding": "1"}, {"stop_id": "430", "stop_code": "22010-", "stop_name": "Gardolo \"Cimitero\"", "stop_lat": "46.106505", "stop_lon": "11.105512", "zone_id": "10110", "wheelchair_boarding": "1"}, {"stop_id": "431", "stop_code": "21025z", "stop_name": "Parco Del Dos Trent", "stop_lat": "46.073381", "stop_lon": "11.107449", "zone_id": "10110"}, {"stop_id": "432", "stop_code": "21025x", "stop_name": "Parco Del Dos Trent", "stop_lat": "46.073309", "stop_lon": "11.107377", "zone_id": "10110"}, {"stop_id": "433", "stop_code": "21185z", "stop_name": "Brescia Divisioni Alpine", "stop_lat": "46.071055", "stop_lon": "11.109691", "zone_id": "10110", "wheelchair_boarding": "2"}, {"stop_id": "434", "stop_code": "21185x", "stop_name": "Brescia Divisioni Alpine", "stop_lat": "46.070912", "stop_lon": "11.109660", "zone_id": "10110", "wheelchair_boarding": "2"}, {"stop_id": "435", "stop_code": "28315z", "stop_name": "Vela S.Giorgio", "stop_lat": "46.076202", "stop_lon": "11.105081", "zone_id": "10110", "wheelchair_boarding": "2"}, {"stop_id": "436", "stop_code": "28315x", "stop_name": "Vela S.Giorgio", "stop_lat": "46.076061", "stop_lon": "11.105187", "zone_id": "10110", "wheelchair_boarding": "1"}, {"stop_id": "437", "stop_code": "21280z", "stop_name": "Dos Trento \"Centro Sportivo\"", "stop_lat": "46.075676", "stop_lon": "11.106983", "zone_id": "10110", "wheelchair_boarding": "2"}, {"stop_id": "438", "stop_code": "21280x", "stop_name": "Dos Trento \"Centro Sportivo\"", "stop_lat": "46.075319", "stop_lon": "11.107407", "zone_id": "10110", "wheelchair_boarding": "2"}, {"stop_id": "439", "stop_code": "27050z", "stop_name": "Sp 90 \"Maso Prudenza\"", "stop_lat": "46.028867", "stop_lon": "11.111521", "zone_id": "10110", "wheelchair_boarding": "2"}, {"stop_id": "440", "stop_code": "27050x", "stop_name": "Sp 90 \"Maso Prudenza\"", "stop_lat": "46.029290", "stop_lon": "11.111771", "zone_id": "10110", "wheelchair_boarding": "2"}, {"stop_id": "441", "stop_code": "22315o", "stop_name": "Maso Rossi Aichner", "stop_lat": "46.105159", "stop_lon": "11.100565", "zone_id": "10110", "wheelchair_boarding": "2"}, {"stop_id": "443", "stop_code": "21700z", "stop_name": "Torre Verde Galasso", "stop_lat": "46.070658", "stop_lon": "11.122787", "zone_id": "10110", "wheelchair_boarding": "2"}, {"stop_id": "444", "stop_code": "21710z", "stop_name": "Travai Al Nuoto / Muse", "stop_lat": "46.064556", "stop_lon": "11.120926", "zone_id": "10110", "wheelchair_boarding": "1"}, {"stop_id": "446", "stop_code": "21790z", "stop_name": "Vittorio Veneto \"S.Giuseppe\"", "stop_lat": "46.057772", "stop_lon": "11.119307", "zone_id": "10110", "wheelchair_boarding": "1"}, {"stop_id": "447", "stop_code": "21795z", "stop_name": "Vittorio Veneto Lorenzoni", "stop_lat": "46.058577", "stop_lon": "11.123837", "zone_id": "10110", "wheelchair_boarding": "1"}, {"stop_id": "448", "stop_code": "21410z", "stop_name": "Largo Prati", "stop_lat": "46.057597", "stop_lon": "11.117583", "zone_id": "10110"}, {"stop_id": "449", "stop_code": "21410x", "stop_name": "Largo Prati", "stop_lat": "46.057417", "stop_lon": "11.117430", "zone_id": "10110"}, {"stop_id": "450", "stop_code": "21750z", "stop_name": "Venezia Cave", "stop_lat": "46.066609", "stop_lon": "11.131484", "zone_id": "10110", "wheelchair_boarding": "2"}, {"stop_id": "451", "stop_code": "21750x", "stop_name": "Venezia Cave", "stop_lat": "46.066491", "stop_lon": "11.132676", "zone_id": "10110", "wheelchair_boarding": "2"}, {"stop_id": "452", "stop_code": "21735z", "stop_name": "Venezia \"Corallo\"", "stop_lat": "46.068570", "stop_lon": "11.136388", "zone_id": "10110", "wheelchair_boarding": "1"}, {"stop_id": "453", "stop_code": "21735x", "stop_name": "Venezia \"Corallo\"", "stop_lat": "46.069162", "stop_lon": "11.136348", "zone_id": "10110", "wheelchair_boarding": "1"}, {"stop_id": "454", "stop_code": "21785z", "stop_name": "Vicenza Montello", "stop_lat": "46.061670", "stop_lon": "11.135931", "zone_id": "10110", "wheelchair_boarding": "1"}, {"stop_id": "455", "stop_code": "21785x", "stop_name": "Vicenza Montello", "stop_lat": "46.061778", "stop_lon": "11.135821", "zone_id": "10110", "wheelchair_boarding": "1"}, {"stop_id": "456", "stop_code": "21800o", "stop_name": "Zambra \"Ist. D'arte Vittoria\"", "stop_lat": "46.092337", "stop_lon": "11.116358", "zone_id": "10110", "wheelchair_boarding": "1"}, {"stop_id": "457", "stop_code": "21775z", "stop_name": "Verona Fogazzaro", "stop_lat": "46.056510", "stop_lon": "11.128372", "zone_id": "10110", "wheelchair_boarding": "1"}, {"stop_id": "458", "stop_code": "21775x", "stop_name": "Verona Fogazzaro", "stop_lat": "46.056407", "stop_lon": "11.128667", "zone_id": "10110", "wheelchair_boarding": "1"}, {"stop_id": "459", "stop_code": "21760z", "stop_name": "Verona \"Palazzo Stella\"", "stop_lat": "46.043574", "stop_lon": "11.131166", "zone_id": "10110", "wheelchair_boarding": "1"}, {"stop_id": "460", "stop_code": "21780x", "stop_name": "Verona Menguzzato", "stop_lat": "46.042589", "stop_lon": "11.131405", "zone_id": "10110", "wheelchair_boarding": "2"}, {"stop_id": "461", "stop_code": "21755z", "stop_name": "Verona \"Questura\"", "stop_lat": "46.047815", "stop_lon": "11.130991", "zone_id": "10110", "wheelchair_boarding": "2"}, {"stop_id": "462", "stop_code": "21770z", "stop_name": "Verona Einaudi", "stop_lat": "46.052915", "stop_lon": "11.129683", "zone_id": "10110", "wheelchair_boarding": "1"}, {"stop_id": "463", "stop_code": "21770x", "stop_name": "Verona Einaudi", "stop_lat": "46.052746", "stop_lon": "11.129880", "zone_id": "10110", "wheelchair_boarding": "1"}, {"stop_id": "464", "stop_code": "21755x", "stop_name": "Verona \"Questura\"", "stop_lat": "46.048048", "stop_lon": "11.131243", "zone_id": "10110", "wheelchair_boarding": "2"}, {"stop_id": "466", "stop_code": "21050x", "stop_name": "3 Nov. \"Ponte Cavalleggeri\"", "stop_lat": "46.059292", "stop_lon": "11.126670", "zone_id": "10110", "wheelchair_boarding": "1"}, {"stop_id": "467", "stop_code": "23415z", "stop_name": "Vigo Meano Rio Papa", "stop_lat": "46.133302", "stop_lon": "11.132599", "zone_id": "10110", "wheelchair_boarding": "2"}, {"stop_id": "468", "stop_code": "23415x", "stop_name": "Vigo Meano Rio Papa", "stop_lat": "46.133567", "stop_lon": "11.132452", "zone_id": "10110", "wheelchair_boarding": "2"}, {"stop_id": "469", "stop_code": "23410z", "stop_name": "Vigo Meano Piazza Stainer", "stop_lat": "46.131626", "stop_lon": "11.134225", "zone_id": "10110", "wheelchair_boarding": "1"}, {"stop_id": "470", "stop_code": "23410x", "stop_name": "Vigo Meano Piazza Stainer", "stop_lat": "46.132010", "stop_lon": "11.134083", "zone_id": "10110", "wheelchair_boarding": "1"}, {"stop_id": "471", "stop_code": "23205z", "stop_name": "Gazzadina Al Molar", "stop_lat": "46.130605", "stop_lon": "11.130767", "zone_id": "10110", "wheelchair_boarding": "2"}, {"stop_id": "472", "stop_code": "23205x", "stop_name": "Gazzadina Al Molar", "stop_lat": "46.130546", "stop_lon": "11.130630", "zone_id": "10110", "wheelchair_boarding": "2"}, {"stop_id": "473", "stop_code": "25645z", "stop_name": "Villazzano Villa Belfonte", "stop_lat": "46.043515", "stop_lon": "11.149665", "zone_id": "10110", "wheelchair_boarding": "1"}, {"stop_id": "474", "stop_code": "25645x", "stop_name": "Villazzano Villa Belfonte", "stop_lat": "46.043654", "stop_lon": "11.149738", "zone_id": "10110", "wheelchair_boarding": "1"}, {"stop_id": "475", "stop_code": "25615z", "stop_name": "Villazzano \"Villa Tambosi\"", "stop_lat": "46.043856", "stop_lon": "11.140566", "zone_id": "10110", "wheelchair_boarding": "1"}, {"stop_id": "476", "stop_code": "25615x", "stop_name": "Villazzano \"Villa Tambosi\"", "stop_lat": "46.043867", "stop_lon": "11.140230", "zone_id": "10110", "wheelchair_boarding": "1"}, {"stop_id": "477", "stop_code": "24810c", "stop_name": "Villamontagna P.Predaroi", "stop_lat": "46.086139", "stop_lon": "11.160226", "zone_id": "10110", "wheelchair_boarding": "1"}, {"stop_id": "478", "stop_code": "24805z", "stop_name": "Villamontagna \"Michei\"", "stop_lat": "46.084032", "stop_lon": "11.162655", "zone_id": "10110", "wheelchair_boarding": "2"}, {"stop_id": "479", "stop_code": "24805x", "stop_name": "Villamontagna \"Michei\"", "stop_lat": "46.084634", "stop_lon": "11.163253", "zone_id": "10110", "wheelchair_boarding": "2"}, {"stop_id": "481", "stop_code": "25605z", "stop_name": "Villazzano \"Chiesa\"", "stop_lat": "46.049549", "stop_lon": "11.144079", "zone_id": "10110", "wheelchair_boarding": "2"}, {"stop_id": "484", "stop_code": "25635z", "stop_name": "Villazzano Piazza Nicolini", "stop_lat": "46.048986", "stop_lon": "11.145976", "zone_id": "10110", "wheelchair_boarding": "1"}, {"stop_id": "485", "stop_code": "25635x", "stop_name": "Villazzano Piazza Nicolini", "stop_lat": "46.049116", "stop_lon": "11.146036", "zone_id": "10110", "wheelchair_boarding": "1"}, {"stop_id": "486", "stop_code": "25620x", "stop_name": "Villazzano Banala", "stop_lat": "46.047513", "stop_lon": "11.142278", "zone_id": "10110", "wheelchair_boarding": "1"}, {"stop_id": "488", "stop_code": "21230c", "stop_name": "Conci \"Villazzano 3\"", "stop_lat": "46.041088", "stop_lon": "11.140552", "zone_id": "10110", "wheelchair_boarding": "1"}, {"stop_id": "490", "stop_code": "24205z", "stop_name": "Zell Marnighe", "stop_lat": "46.080366", "stop_lon": "11.138214", "zone_id": "10110", "wheelchair_boarding": "1"}, {"stop_id": "491", "stop_code": "24205x", "stop_name": "Zell Marnighe", "stop_lat": "46.079984", "stop_lon": "11.138881", "zone_id": "10110", "wheelchair_boarding": "1"}, {"stop_id": "492", "stop_code": "22610z", "stop_name": "Spini \"Officine\"", "stop_lat": "46.118326", "stop_lon": "11.100624", "zone_id": "10110", "wheelchair_boarding": "2"}, {"stop_id": "493", "stop_code": "22610x", "stop_name": "Spini \"Officine\"", "stop_lat": "46.118172", "stop_lon": "11.100941", "zone_id": "10110", "wheelchair_boarding": "2"}, {"stop_id": "494", "stop_code": "22625z", "stop_name": "Spini \"Zona Ind.Le Ftm\"", "stop_lat": "46.118118", "stop_lon": "11.103691", "zone_id": "10110", "wheelchair_boarding": "2"}, {"stop_id": "495", "stop_code": "22625x", "stop_name": "Spini \"Zona Ind.Le Ftm\"", "stop_lat": "46.118028", "stop_lon": "11.103638", "zone_id": "10110", "wheelchair_boarding": "2"}, {"stop_id": "496", "stop_code": "22615z", "stop_name": "Spini Klagenfurt", "stop_lat": "46.117796", "stop_lon": "11.094285", "zone_id": "10110", "wheelchair_boarding": "1"}, {"stop_id": "497", "stop_code": "22615x", "stop_name": "Spini Klagenfurt", "stop_lat": "46.117695", "stop_lon": "11.094346", "zone_id": "10110", "wheelchair_boarding": "1"}, {"stop_id": "524", "stop_code": "21050z", "stop_name": "3 Nov. \"Ponte Cavalleggeri\"", "stop_lat": "46.059417", "stop_lon": "11.126263", "zone_id": "10110", "wheelchair_boarding": "1"}, {"stop_id": "527", "stop_code": "23010z", "stop_name": "Meano \"Centro Civico\"", "stop_lat": "46.126522", "stop_lon": "11.116682", "zone_id": "10110", "wheelchair_boarding": "1"}, {"stop_id": "1278", "stop_code": "31041z", "stop_name": "Corso Bettini Liceo", "stop_lat": "45.896138", "stop_lon": "11.043343", "zone_id": "10101", "wheelchair_boarding": "1"}, {"stop_id": "1279", "stop_code": "31041x", "stop_name": "Corso Bettini Liceo", "stop_lat": "45.895066", "stop_lon": "11.043410", "zone_id": "10101", "wheelchair_boarding": "1"}, {"stop_id": "1280", "stop_code": "31051x", "stop_name": "Corso Bettini \"Mart\"", "stop_lat": "45.893031", "stop_lon": "11.043616", "zone_id": "10101", "wheelchair_boarding": "1"}, {"stop_id": "1281", "stop_code": "31051z", "stop_name": "Corso Bettini \"Mart\"", "stop_lat": "45.892816", "stop_lon": "11.043904", "zone_id": "10101", "wheelchair_boarding": "2"}, {"stop_id": "1282", "stop_code": "30141n", "stop_name": "Corso Rosmini Via Savioli", "stop_lat": "45.890972", "stop_lon": "11.038504", "zone_id": "10121", "wheelchair_boarding": "1"}, {"stop_id": "1283", "stop_code": "30111-", "stop_name": "Corso Rosmini Monumento", "stop_lat": "45.890870", "stop_lon": "11.042857", "zone_id": "10101", "wheelchair_boarding": "1"}, {"stop_id": "1284", "stop_code": "10121", "stop_name": "Corso Rosmini Posta", "stop_lat": "45.890973", "stop_lon": "11.041257", "zone_id": "10121", "wheelchair_boarding": "1"}, {"stop_id": "1285", "stop_code": "30141s", "stop_name": "Corso Rosmini Via Savioli", "stop_lat": "45.890883", "stop_lon": "11.038010", "zone_id": "10101", "wheelchair_boarding": "1"}, {"stop_id": "1286", "stop_code": "31071z", "stop_name": "Corso Verona Ospedale", "stop_lat": "45.882343", "stop_lon": "11.040385", "zone_id": "10121", "wheelchair_boarding": "1"}, {"stop_id": "1287", "stop_code": "31061x", "stop_name": "Lizzanella Corso Verona", "stop_lat": "45.875566", "stop_lon": "11.034071", "zone_id": "10121", "wheelchair_boarding": "2"}, {"stop_id": "1289", "stop_code": "31071x", "stop_name": "Corso Verona Ospedale", "stop_lat": "45.881066", "stop_lon": "11.039620", "zone_id": "10121", "wheelchair_boarding": "2"}, {"stop_id": "1290", "stop_code": "31711x", "stop_name": "Via Vicenza Via Cartiera", "stop_lat": "45.887155", "stop_lon": "11.050411", "zone_id": "10101", "wheelchair_boarding": "2"}, {"stop_id": "1291", "stop_code": "31711z", "stop_name": "Via Vicenza Via Cartiera", "stop_lat": "45.887187", "stop_lon": "11.051160", "zone_id": "10101", "wheelchair_boarding": "2"}, {"stop_id": "1292", "stop_code": "37011x", "stop_name": "Chiusole", "stop_lat": "45.925520", "stop_lon": "11.052173", "zone_id": "17031", "wheelchair_boarding": "2"}, {"stop_id": "1293", "stop_code": "37011z", "stop_name": "Chiusole", "stop_lat": "45.925390", "stop_lon": "11.053592", "zone_id": "17031", "wheelchair_boarding": "2"}, {"stop_id": "1295", "stop_code": "32561c", "stop_name": "Costa Capolinea", "stop_lat": "45.884218", "stop_lon": "11.072911", "zone_id": "10101", "wheelchair_boarding": "2"}, {"stop_id": "1296", "stop_code": "32651x", "stop_name": "Sp.2 Loc. Beccache'", "stop_lat": "45.882087", "stop_lon": "11.071643", "zone_id": "10101", "wheelchair_boarding": "2"}, {"stop_id": "1297", "stop_code": "32051z", "stop_name": "Marco Via Pinera", "stop_lat": "45.847835", "stop_lon": "11.011731", "zone_id": "10101", "wheelchair_boarding": "2"}, {"stop_id": "1298", "stop_code": "32021z", "stop_name": "Marco Centro", "stop_lat": "45.844005", "stop_lon": "11.008643", "zone_id": "10101", "wheelchair_boarding": "2"}, {"stop_id": "1299", "stop_code": "32031z", "stop_name": "Marco Chiesa", "stop_lat": "45.841765", "stop_lon": "11.007816", "zone_id": "10101", "wheelchair_boarding": "1"}, {"stop_id": "1300", "stop_code": "32041z", "stop_name": "Marco Via Alla Ghiffa", "stop_lat": "45.840118", "stop_lon": "11.009468", "zone_id": "10101", "wheelchair_boarding": "2"}, {"stop_id": "1301", "stop_code": "32011c", "stop_name": "Marco", "stop_lat": "45.836852", "stop_lon": "11.011188", "zone_id": "10101"}, {"stop_id": "1302", "stop_code": "32041x", "stop_name": "Marco Via Alla Ghiffa", "stop_lat": "45.840222", "stop_lon": "11.009563", "zone_id": "10101", "wheelchair_boarding": "2"}, {"stop_id": "1303", "stop_code": "32031x", "stop_name": "Marco Chiesa", "stop_lat": "45.841469", "stop_lon": "11.008281", "zone_id": "10101", "wheelchair_boarding": "2"}, {"stop_id": "1304", "stop_code": "32021x", "stop_name": "Marco Centro", "stop_lat": "45.843767", "stop_lon": "11.008609", "zone_id": "10101", "wheelchair_boarding": "1"}, {"stop_id": "1305", "stop_code": "32051x", "stop_name": "Marco Via Pinera", "stop_lat": "45.847568", "stop_lon": "11.011566", "zone_id": "10101", "wheelchair_boarding": "2"}, {"stop_id": "1307", "stop_code": "35121x", "stop_name": "Nogaredo Via Zuccate", "stop_lat": "45.912139", "stop_lon": "11.025272", "zone_id": "15091", "wheelchair_boarding": "2"}, {"stop_id": "1308", "stop_code": "35121z", "stop_name": "Nogaredo Via Zuccate", "stop_lat": "45.912212", "stop_lon": "11.025262", "zone_id": "15091", "wheelchair_boarding": "2"}, {"stop_id": "1309", "stop_code": "36021z", "stop_name": "Nomi \"Casa di Riposo\"", "stop_lat": "45.927892", "stop_lon": "11.076793", "zone_id": "16011", "wheelchair_boarding": "2"}, {"stop_id": "1310", "stop_code": "16011", "stop_name": "Nomi Piazza Springa", "stop_lat": "45.928891", "stop_lon": "11.072085", "zone_id": "16011", "wheelchair_boarding": "2"}, {"stop_id": "1311", "stop_code": "30161-", "stop_name": "Piazzale Orsi Stazione Fs", "stop_lat": "45.890189", "stop_lon": "11.034270", "zone_id": "10121", "wheelchair_boarding": "1"}, {"stop_id": "1312", "stop_code": "30191-", "stop_name": "Stazione Fs", "stop_lat": "45.890593", "stop_lon": "11.034104", "zone_id": "10101"}, {"stop_id": "1313", "stop_code": "31151e", "stop_name": "Piazzale S.Giorgio Est", "stop_lat": "45.895510", "stop_lon": "11.029591", "zone_id": "10121"}, {"stop_id": "1314", "stop_code": "31151o", "stop_name": "Piazzale S.Giorgio Ovest", "stop_lat": "45.895699", "stop_lon": "11.028855", "zone_id": "10121"}, {"stop_id": "1315", "stop_code": "31101z", "stop_name": "Piazzale S.Maria Ospedale", "stop_lat": "45.883438", "stop_lon": "11.040503", "zone_id": "10121", "wheelchair_boarding": "1"}, {"stop_id": "1316", "stop_code": "31101x", "stop_name": "Piazzale S.Maria Ospedale", "stop_lat": "45.883616", "stop_lon": "11.040937", "zone_id": "10121", "wheelchair_boarding": "1"}, {"stop_id": "1318", "stop_code": "31131x", "stop_name": "Piazza Manifattura", "stop_lat": "45.883923", "stop_lon": "11.021153", "zone_id": "10101"}, {"stop_id": "1319", "stop_code": "31131z", "stop_name": "Piazza Manifattura", "stop_lat": "45.883838", "stop_lon": "11.020771", "zone_id": "10101"}, {"stop_id": "1320", "stop_code": "30511-", "stop_name": "Piazza Battisti", "stop_lat": "45.890071", "stop_lon": "11.043906", "zone_id": "10121"}, {"stop_id": "1322", "stop_code": "31141x", "stop_name": "Piazza Podest\u00c3\u00a0", "stop_lat": "45.886586", "stop_lon": "11.045629", "zone_id": "10121"}, {"stop_id": "1323", "stop_code": "30521-", "stop_name": "Piazza S.Marco", "stop_lat": "45.888708", "stop_lon": "11.045294", "zone_id": "10101"}, {"stop_id": "1324", "stop_code": "38011x", "stop_name": "Piazzo", "stop_lat": "45.922256", "stop_lon": "11.033881", "zone_id": "18041", "wheelchair_boarding": "1"}, {"stop_id": "1325", "stop_code": "38011z", "stop_name": "Piazzo", "stop_lat": "45.922219", "stop_lon": "11.033932", "zone_id": "18041", "wheelchair_boarding": "2"}, {"stop_id": "1326", "stop_code": "37021x", "stop_name": "Pomarolo Chiesa", "stop_lat": "45.926469", "stop_lon": "11.045297", "zone_id": "17031", "wheelchair_boarding": "2"}, {"stop_id": "1327", "stop_code": "37021z", "stop_name": "Pomarolo Chiesa", "stop_lat": "45.926386", "stop_lon": "11.045658", "zone_id": "17031", "wheelchair_boarding": "2"}, {"stop_id": "1328", "stop_code": "17031", "stop_name": "Pomarolo Via Degasperi", "stop_lat": "45.926343", "stop_lon": "11.042440", "zone_id": "17031", "wheelchair_boarding": "2"}, {"stop_id": "1329", "stop_code": "37031z", "stop_name": "Pomarolo Via Degasperi", "stop_lat": "45.926217", "stop_lon": "11.042436", "zone_id": "17031", "wheelchair_boarding": "2"}, {"stop_id": "1331", "stop_code": "31171x", "stop_name": "S.Ilario Sav", "stop_lat": "45.908213", "stop_lon": "11.040563", "zone_id": "10101", "wheelchair_boarding": "2"}, {"stop_id": "1332", "stop_code": "31181-", "stop_name": "S.Ilario Via Monti", "stop_lat": "45.910990", "stop_lon": "11.040806", "zone_id": "10101", "wheelchair_boarding": "2"}, {"stop_id": "1333", "stop_code": "31171z", "stop_name": "S.Ilario Sav", "stop_lat": "45.908078", "stop_lon": "11.040657", "zone_id": "10101", "wheelchair_boarding": "2"}, {"stop_id": "1334", "stop_code": "32651z", "stop_name": "Sp.2 Loc. Beccache'", "stop_lat": "45.882063", "stop_lon": "11.071733", "zone_id": "10101", "wheelchair_boarding": "2"}, {"stop_id": "1335", "stop_code": "32731z", "stop_name": "Viale Dei Colli \"Distributore\"", "stop_lat": "45.887518", "stop_lon": "11.059253", "zone_id": "10101", "wheelchair_boarding": "2"}, {"stop_id": "1337", "stop_code": "32731x", "stop_name": "Viale Dei Colli \"Distributore\"", "stop_lat": "45.887439", "stop_lon": "11.059541", "zone_id": "10101", "wheelchair_boarding": "2"}, {"stop_id": "1338", "stop_code": "32661x", "stop_name": "Sp.2 Fr. Campolongo", "stop_lat": "45.886995", "stop_lon": "11.063902", "zone_id": "10101", "wheelchair_boarding": "1"}, {"stop_id": "1339", "stop_code": "32671x", "stop_name": "Sp.2 Noriglio", "stop_lat": "45.884263", "stop_lon": "11.070323", "zone_id": "10101", "wheelchair_boarding": "2"}, {"stop_id": "1340", "stop_code": "32671z", "stop_name": "Sp.2 Noriglio", "stop_lat": "45.884371", "stop_lon": "11.069842", "zone_id": "10101", "wheelchair_boarding": "2"}, {"stop_id": "1341", "stop_code": "32661z", "stop_name": "Sp.2 Fr. Campolongo", "stop_lat": "45.886988", "stop_lon": "11.063994", "zone_id": "10101", "wheelchair_boarding": "1"}, {"stop_id": "1342", "stop_code": "32691x", "stop_name": "Noriglio Via Dei Cimbri", "stop_lat": "45.884696", "stop_lon": "11.069650", "zone_id": "10101", "wheelchair_boarding": "2"}, {"stop_id": "1343", "stop_code": "31201x", "stop_name": "Lizzana Cristo", "stop_lat": "45.866956", "stop_lon": "11.030832", "zone_id": "10101", "wheelchair_boarding": "2"}, {"stop_id": "1347", "stop_code": "31201z", "stop_name": "Lizzana Cristo", "stop_lat": "45.867259", "stop_lon": "11.030840", "zone_id": "10101", "wheelchair_boarding": "1"}, {"stop_id": "1348", "stop_code": "31211z", "stop_name": "Lizzana Scuole Medie", "stop_lat": "45.870236", "stop_lon": "11.031119", "zone_id": "10121", "wheelchair_boarding": "1"}, {"stop_id": "1349", "stop_code": "31211x", "stop_name": "Lizzana Scuole Medie", "stop_lat": "45.870623", "stop_lon": "11.031133", "zone_id": "10121", "wheelchair_boarding": "1"}, {"stop_id": "1350", "stop_code": "31221z", "stop_name": "Lizzanella Ss.12", "stop_lat": "45.875522", "stop_lon": "11.031822", "zone_id": "10101", "wheelchair_boarding": "2"}, {"stop_id": "1351", "stop_code": "31221x", "stop_name": "Lizzanella Ss.12", "stop_lat": "45.875686", "stop_lon": "11.032030", "zone_id": "10101", "wheelchair_boarding": "2"}, {"stop_id": "1357", "stop_code": "31281z", "stop_name": "Via Benacense Via Fiume", "stop_lat": "45.882042", "stop_lon": "11.038360", "zone_id": "10121", "wheelchair_boarding": "1"}, {"stop_id": "1358", "stop_code": "31281x", "stop_name": "Via Benacense Via Fiume", "stop_lat": "45.881993", "stop_lon": "11.038495", "zone_id": "10121", "wheelchair_boarding": "1"}, {"stop_id": "1359", "stop_code": "31261z", "stop_name": "Via Benacense Parco Ferrari", "stop_lat": "45.878072", "stop_lon": "11.033318", "zone_id": "10101", "wheelchair_boarding": "1"}, {"stop_id": "1360", "stop_code": "31271z", "stop_name": "Via Benacense Scuole Dante", "stop_lat": "45.879617", "stop_lon": "11.035043", "zone_id": "10121", "wheelchair_boarding": "1"}, {"stop_id": "1361", "stop_code": "31271x", "stop_name": "Via Benacense Scuole Dante", "stop_lat": "45.879709", "stop_lon": "11.035212", "zone_id": "10121", "wheelchair_boarding": "1"}, {"stop_id": "1362", "stop_code": "31261x", "stop_name": "Via Benacense Parco Ferrari", "stop_lat": "45.877921", "stop_lon": "11.033242", "zone_id": "10101", "wheelchair_boarding": "1"}, {"stop_id": "1363", "stop_code": "31311z", "stop_name": "Via Cavour Via Riva", "stop_lat": "45.887219", "stop_lon": "11.034767", "zone_id": "10121", "wheelchair_boarding": "1"}, {"stop_id": "1364", "stop_code": "31301x", "stop_name": "Via Cavour", "stop_lat": "45.887163", "stop_lon": "11.038518", "zone_id": "10101"}, {"stop_id": "1365", "stop_code": "31311x", "stop_name": "Via Cavour Via Riva", "stop_lat": "45.887293", "stop_lon": "11.034164", "zone_id": "10121", "wheelchair_boarding": "1"}, {"stop_id": "1366", "stop_code": "31301z", "stop_name": "Via Cavour", "stop_lat": "45.887090", "stop_lon": "11.038240", "zone_id": "10101"}, {"stop_id": "1367", "stop_code": "30171-", "stop_name": "Via Cesari Stazione Fs", "stop_lat": "45.890279", "stop_lon": "11.035658", "zone_id": "10121", "wheelchair_boarding": "2"}, {"stop_id": "1369", "stop_code": "31351z", "stop_name": "Via Dante Borgo S.Caterina", "stop_lat": "45.889592", "stop_lon": "11.040460", "zone_id": "10121", "wheelchair_boarding": "2"}, {"stop_id": "1370", "stop_code": "31361x", "stop_name": "Via Dante Mon. All'alpino", "stop_lat": "45.886729", "stop_lon": "11.040387", "zone_id": "10121", "wheelchair_boarding": "2"}, {"stop_id": "1371", "stop_code": "31361z", "stop_name": "Via Dante Mon. All'alpino", "stop_lat": "45.886067", "stop_lon": "11.040305", "zone_id": "10121", "wheelchair_boarding": "2"}, {"stop_id": "1372", "stop_code": "32751x", "stop_name": "Viale Dei Colli Sc. Alberghiera", "stop_lat": "45.891067", "stop_lon": "11.047189", "zone_id": "10101", "wheelchair_boarding": "2"}, {"stop_id": "1373", "stop_code": "32751z", "stop_name": "Viale Dei Colli Sc. Alberghiera", "stop_lat": "45.891046", "stop_lon": "11.047336", "zone_id": "10101", "wheelchair_boarding": "2"}, {"stop_id": "1374", "stop_code": "32741z", "stop_name": "Viale Dei Colli S.Biagio", "stop_lat": "45.890313", "stop_lon": "11.050118", "zone_id": "10101", "wheelchair_boarding": "2"}, {"stop_id": "1375", "stop_code": "32741x", "stop_name": "Viale Dei Colli S.Biagio", "stop_lat": "45.890265", "stop_lon": "11.050139", "zone_id": "10101", "wheelchair_boarding": "2"}, {"stop_id": "1376", "stop_code": "31401x", "stop_name": "Via Driopozzo Bivio Solatrix", "stop_lat": "45.899638", "stop_lon": "11.044451", "zone_id": "10121", "wheelchair_boarding": "2"}, {"stop_id": "1378", "stop_code": "31461-", "stop_name": "Via Lungo Leno Destro", "stop_lat": "45.884855", "stop_lon": "11.038586", "zone_id": "10121"}, {"stop_id": "1380", "stop_code": "31431-", "stop_name": "Via Giovannini", "stop_lat": "45.907026", "stop_lon": "11.043154", "zone_id": "10101"}, {"stop_id": "1381", "stop_code": "31491z", "stop_name": "Via Magazol Via Cimarosa", "stop_lat": "45.899835", "stop_lon": "11.039968", "zone_id": "10121", "wheelchair_boarding": "2"}, {"stop_id": "1383", "stop_code": "31501x", "stop_name": "Via Manzoni A.S.M.", "stop_lat": "45.893369", "stop_lon": "11.036067", "zone_id": "10121", "wheelchair_boarding": "2"}, {"stop_id": "1384", "stop_code": "31501z", "stop_name": "Via Manzoni A.S.M.", "stop_lat": "45.893369", "stop_lon": "11.036193", "zone_id": "10121", "wheelchair_boarding": "2"}, {"stop_id": "1385", "stop_code": "31241x", "stop_name": "Via Balista", "stop_lat": "45.894967", "stop_lon": "11.032631", "zone_id": "10101"}, {"stop_id": "1386", "stop_code": "31241z", "stop_name": "Via Balista", "stop_lat": "45.894961", "stop_lon": "11.032738", "zone_id": "10101"}, {"stop_id": "1388", "stop_code": "31511z", "stop_name": "Via Manzoni Via Paoli", "stop_lat": "45.892237", "stop_lon": "11.039370", "zone_id": "10121", "wheelchair_boarding": "1"}, {"stop_id": "1389", "stop_code": "31531x", "stop_name": "Via Paoli Piazza 25 Aprile", "stop_lat": "45.893116", "stop_lon": "11.040065", "zone_id": "10121", "wheelchair_boarding": "1"}, {"stop_id": "1391", "stop_code": "31533-", "stop_name": "Via Paoli", "stop_lat": "45.891431", "stop_lon": "11.040037", "zone_id": "10101"}, {"stop_id": "1392", "stop_code": "31571x", "stop_name": "Via Pasubio Via Unione", "stop_lat": "45.887465", "stop_lon": "11.024942", "zone_id": "10101", "wheelchair_boarding": "1"}, {"stop_id": "1393", "stop_code": "31561x", "stop_name": "Via Pasubio Viale Vittoria", "stop_lat": "45.887211", "stop_lon": "11.030668", "zone_id": "10101", "wheelchair_boarding": "1"}, {"stop_id": "1394", "stop_code": "31561z", "stop_name": "Via Pasubio Viale Vittoria", "stop_lat": "45.887266", "stop_lon": "11.030142", "zone_id": "10101", "wheelchair_boarding": "2"}, {"stop_id": "1395", "stop_code": "31571z", "stop_name": "Via Pasubio Via Unione", "stop_lat": "45.887505", "stop_lon": "11.024737", "zone_id": "10101", "wheelchair_boarding": "2"}, {"stop_id": "1397", "stop_code": "31231z", "stop_name": "Via A Prato", "stop_lat": "45.893666", "stop_lon": "11.030581", "zone_id": "10121"}, {"stop_id": "1398", "stop_code": "31611x", "stop_name": "Via Puccini Via Perosi", "stop_lat": "45.903785", "stop_lon": "11.045042", "zone_id": "10121", "wheelchair_boarding": "1"}, {"stop_id": "1399", "stop_code": "31601x", "stop_name": "Via Puccini Via Donizetti", "stop_lat": "45.901372", "stop_lon": "11.046220", "zone_id": "10121", "wheelchair_boarding": "2"}, {"stop_id": "1400", "stop_code": "31591x", "stop_name": "Via Pellico Brione", "stop_lat": "45.904569", "stop_lon": "11.042576", "zone_id": "10101", "wheelchair_boarding": "2"}, {"stop_id": "1401", "stop_code": "31641x", "stop_name": "Via Saibanti", "stop_lat": "45.888163", "stop_lon": "11.036728", "zone_id": "10101"}, {"stop_id": "1402", "stop_code": "31641z", "stop_name": "Via Saibanti", "stop_lat": "45.888111", "stop_lon": "11.036707", "zone_id": "10101"}, {"stop_id": "1404", "stop_code": "30151-", "stop_name": "Piazzale Orsi Ist. Veronesi", "stop_lat": "45.891328", "stop_lon": "11.034569", "zone_id": "10121", "wheelchair_boarding": "1"}, {"stop_id": "1405", "stop_code": "31421z", "stop_name": "Via Tiella", "stop_lat": "45.907669", "stop_lon": "11.043757", "zone_id": "10101"}, {"stop_id": "1408", "stop_code": "31691x", "stop_name": "Via Unione Scuole Degasperi", "stop_lat": "45.885236", "stop_lon": "11.023282", "zone_id": "10101", "wheelchair_boarding": "2"}, {"stop_id": "1409", "stop_code": "31691z", "stop_name": "Via Unione Scuole Degasperi", "stop_lat": "45.885564", "stop_lon": "11.023170", "zone_id": "10101", "wheelchair_boarding": "2"}, {"stop_id": "1410", "stop_code": "31721x", "stop_name": "Via Zeni \"Centro Tecnofin\"", "stop_lat": "45.890465", "stop_lon": "11.032705", "zone_id": "10101", "wheelchair_boarding": "2"}, {"stop_id": "1411", "stop_code": "31721z", "stop_name": "Via Zeni \"Centro Tecnofin\"", "stop_lat": "45.891013", "stop_lon": "11.032714", "zone_id": "10101", "wheelchair_boarding": "1"}, {"stop_id": "1412", "stop_code": "31761x", "stop_name": "Viale Trento Via Magazol", "stop_lat": "45.899562", "stop_lon": "11.042141", "zone_id": "10121", "wheelchair_boarding": "1"}, {"stop_id": "1413", "stop_code": "31761z", "stop_name": "Viale Trento Via Magazol", "stop_lat": "45.899616", "stop_lon": "11.042207", "zone_id": "10121", "wheelchair_boarding": "1"}, {"stop_id": "1414", "stop_code": "31751x", "stop_name": "Viale Trento Via Brione", "stop_lat": "45.901770", "stop_lon": "11.041487", "zone_id": "10121", "wheelchair_boarding": "1"}, {"stop_id": "1415", "stop_code": "31751z", "stop_name": "Viale Trento Via Brione", "stop_lat": "45.901722", "stop_lon": "11.041666", "zone_id": "10121", "wheelchair_boarding": "1"}, {"stop_id": "1416", "stop_code": "31771x", "stop_name": "Viale Trento Via Salvetti", "stop_lat": "45.906610", "stop_lon": "11.040104", "zone_id": "10101", "wheelchair_boarding": "2"}, {"stop_id": "1417", "stop_code": "31771z", "stop_name": "Viale Trento Via Salvetti", "stop_lat": "45.906689", "stop_lon": "11.040210", "zone_id": "10101", "wheelchair_boarding": "2"}, {"stop_id": "1418", "stop_code": "31801z", "stop_name": "Viale Vittoria Via Zotti", "stop_lat": "45.885459", "stop_lon": "11.025871", "zone_id": "10101", "wheelchair_boarding": "2"},