{"records": [{"id": 2090, "geometry": {"type": "Point", "coordinates": [11.193322, 46.14484]}, "name": "Ambulatorio: dove siamo", "address": "via S. Antonio 30 - Albiano", "city": "Albiano"}, {"id": 1958, "geometry": {"type": "Point", "coordinates": [11.109585, 45.942003]}, "name": "Ambulatorio medico e pediatrico", "city": "Besenello"}, {"id": 1991, "geometry": {"type": "Point", "coordinates": [10.758872, 46.118413]}, "name": " Ambulatorio comunale", "address": "Via Ferrazza 54 - 38080 Bocenago", "city": "Bocenago"}, {"id": 1910, "geometry": {"type": "Point", "coordinates": [11.107963, 46.431132]}, "name": "Ambulatorio medico", "address": "Piazza Municipio, 1 Brez", "city": "Brez"}, {"id": 2025, "geometry": {"type": "Point", "coordinates": [11.26612, 45.99319]}, "name": "Ambulatorio Comunale", "address": "Via Brenta, 1 Caldonazzo", "city": "Caldonazzo"}, {"id": 1899, "name": "Ambulatorio medico", "address": {"latitude": 0, "longitude": 0, "address": ""}, "city": "Capriana"}, {"id": 2392, "geometry": {"type": "Point", "coordinates": [11.116506, 46.453388]}, "name": "Ambulatorio medico", "address": "Via G. Cantore - Castelfondo", "city": "Castelfondo"}, {"id": 1904, "name": "Ambulatorio Medico", "address": {"latitude": 0, "longitude": 0, "address": ""}, "city": "Fondo"}, {"id": 1760, "geometry": {"type": "Point", "coordinates": [11.152455, 46.155879]}, "name": "Ambulatorio infermieristico", "address": "Giovo", "city": "Giovo"}, {"id": 1978, "geometry": {"type": "Point", "coordinates": [11.095991, 46.211779]}, "name": "Ambulatorio igiene e sanit\u00e0 pubblici", "address": "Via degli Alpini, Mezzolombardo, Comunit&agrave; Rotaliana-K&ouml;nigsberg, TN, Trentino-Alto Adige, 38017, Italia", "city": "Mezzocorona"}, {"id": 1979, "geometry": {"type": "Point", "coordinates": [11.120145, 46.215123]}, "name": "Ambulatorio infermieristico", "address": "ITAS Assicurazioni, Corso 4 Novembre, Mezzocorona, Comunit&agrave; Rotaliana-K&ouml;nigsberg, TN, Trentino-Alto Adige, 38016, Italia", "city": "Mezzocorona"}, {"id": 1981, "geometry": {"type": "Point", "coordinates": [11.120124, 46.215087]}, "name": "Assistenza medico-pedriatica di base", "address": "ITAS Assicurazioni, Corso 4 Novembre, Mezzocorona, Comunit&agrave; Rotaliana-K&ouml;nigsberg, TN, Trentino-Alto Adige, 38016, Italia", "city": "Mezzocorona"}, {"id": 1983, "geometry": {"type": "Point", "coordinates": [11.12035, 46.21441]}, "name": "Medici generici di base - Ambulatorio via Verdi, 32", "address": "via Verdi, 32 - Mezzocorona", "city": "Mezzocorona"}, {"id": 1984, "geometry": {"type": "Point", "coordinates": [11.120106, 46.215112]}, "name": "Medici generici di base - Ambulatorio - Piazza S. Gottardo - Palazzo al Corso", "address": "ITAS Assicurazioni, Corso 4 Novembre, Mezzocorona, Comunit&agrave; Rotaliana-K&ouml;nigsberg, TN, Trentino-Alto Adige, 38016, Italia", "city": "Mezzocorona"}, {"id": 1945, "name": "Ambulatorio medico ", "address": {"latitude": 0, "longitude": 0, "address": ""}, "city": "Ruffr\u00e8 Mendola"}, {"id": 3059, "geometry": {"type": "Point", "coordinates": [11.258301, 46.189146]}, "name": "Ambulatorio medici di base", "address": "Scancio - Segonzano", "city": "Segonzano"}, {"id": 3060, "geometry": {"type": "Point", "coordinates": [11.258301, 46.189146]}, "name": "Ambulatorio pediatrico", "address": "Scancio - Segonzano", "city": "Segonzano"}, {"id": 3061, "geometry": {"type": "Point", "coordinates": [11.258301, 46.189146]}, "name": "Ambulatorio infermieristico", "address": "Scancio - Segonzano", "city": "Segonzano"}, {"id": 3062, "geometry": {"type": "Point", "coordinates": [11.261346, 46.187572]}, "name": "Ambulatorio ginecologico", "address": "Polifunziona di Scancio - Segonzano", "city": "Segonzano"}, {"id": 3063, "geometry": {"type": "Point", "coordinates": [11.261346, 46.187572]}, "name": "Medico d'igiene", "address": "Polifunziona di Scancio - Segonzano", "city": "Segonzano"}, {"id": 1944, "geometry": {"type": "Point", "coordinates": [11.316303, 46.221827]}, "name": "Ambulatorio medico Sover", "address": "via Ferari, 73 Sover", "city": "Sover"}, {"id": 1945, "geometry": {"type": "Point", "coordinates": [11.326373, 46.217237]}, "name": "Ambulatorio medico Montesover", "address": "Montesov&eacute;r", "city": "Sover"}, {"id": 1946, "geometry": {"type": "Point", "coordinates": [11.325202, 46.239248]}, "name": "Ambulatorio medico Piscine", "address": "Piscine, via Lagorai, 3/c", "city": "Sover"}, {"id": 1927, "name": "Ambulatorio Dott. Marzini Stefano", "address": {"latitude": 0, "longitude": 0, "address": ""}, "city": "Tenno"}, {"id": 929081, "geometry": {"type": "Point", "coordinates": [11.121499, 46.065602]}, "name": "Ambulatorio via al Torrione 1  - Trento", "city": "Trento"}, {"id": 928076, "geometry": {"type": "Point", "coordinates": [11.045436, 46.081673]}, "name": "Ambulatorio via 12 Settembre 7 - Vigolo Baselga", "city": "Trento"}, {"id": 928084, "geometry": {"type": "Point", "coordinates": [11.063281, 46.086332]}, "name": "Ambulatorio via dell'Androna 1 - Cadine", "city": "Trento"}, {"id": 928389, "geometry": {"type": "Point", "coordinates": [11.15836, 46.085369]}, "name": "Ambulatorio via San Fabiano 13 - Villamontagna", "city": "Trento"}, {"id": 927862, "geometry": {"type": "Point", "coordinates": [11.124594, 46.048593]}, "name": "Ambulatorio via Volta 38", "city": "Trento"}, {"id": 927875, "geometry": {"type": "Point", "coordinates": [11.136229, 46.134311]}, "name": "Ambulatorio via de le Oselere - Vigo Meano", "city": "Trento"}, {"id": 927880, "geometry": {"type": "Point", "coordinates": [11.0472, 46.078734]}, "name": "Ambulatorio strada del Dos Grum 16 - Baselga del Bondone", "city": "Trento"}, {"id": 926914, "geometry": {"type": "Point", "coordinates": [11.156884, 46.007836]}, "name": "Ambulatorio Valsorda", "city": "Trento"}, {"id": 930536, "geometry": {"type": "Point", "coordinates": [11.130311, 46.062409]}, "name": "Ambulatorio via Milano 118  - Trento", "city": "Trento"}, {"id": 930539, "geometry": {"type": "Point", "coordinates": [11.117733, 46.07925]}, "name": "Ambulatorio corso Alpini 6  - Trento", "city": "Trento"}, {"id": 1043383, "geometry": {"type": "Point", "coordinates": [11.135708, 46.070937]}, "name": "Ambulatorio pediatrico loc. S. Don\u00e0 51 - Cognola", "city": "Trento"}, {"id": 1043385, "geometry": {"type": "Point", "coordinates": [11.128441, 46.00607]}, "name": "Ambulatorio pediatrico via Poli 4 - Mattarello", "city": "Trento"}, {"id": 1217728, "geometry": {"type": "Point", "coordinates": [11.129619, 46.061407]}, "name": "Ambulatorio via dei Mille 61  - Trento", "city": "Trento"}, {"id": 927877, "geometry": {"type": "Point", "coordinates": [11.124228, 46.05328]}, "name": "Ambulatorio via Gramsci 40/A", "city": "Trento"}, {"id": 927863, "geometry": {"type": "Point", "coordinates": [11.133895, 46.131963]}, "name": "Ambulatorio piazza Stainer 2 - Vigo Meano", "city": "Trento"}, {"id": 1205426, "geometry": {"type": "Point", "coordinates": [11.146686, 46.0492]}, "name": "Ambulatorio via Giordano 8", "city": "Trento"}, {"id": 930167, "geometry": {"type": "Point", "coordinates": [11.11731, 46.092096]}, "name": "Ambulatorio via Lunelli 50  - Trento", "city": "Trento"}, {"id": 1043360, "geometry": {"type": "Point", "coordinates": [11.11761, 46.092173]}, "name": "Ambulatorio pediatrico via Lunelli 32 - Trento", "city": "Trento"}, {"id": 1043354, "geometry": {"type": "Point", "coordinates": [11.124444, 46.067147]}, "name": "Ambulatorio pediatrico via Calepina 35  - Trento", "city": "Trento"}, {"id": 1184700, "geometry": {"type": "Point", "coordinates": [11.118859, 46.073857]}, "name": "Ambulatorio corso Buonarroti 51  - Trento", "city": "Trento"}, {"id": 928080, "geometry": {"type": "Point", "coordinates": [11.058803, 46.070941]}, "name": "Ambulatorio piazza Oveno 15 - Sopramonte", "city": "Trento"}, {"id": 928372, "geometry": {"type": "Point", "coordinates": [11.097707, 46.063662]}, "name": "Ambulatorio piazza Santi Filippo e Giacomo - Sardagna", "city": "Trento"}, {"id": 927883, "geometry": {"type": "Point", "coordinates": [11.13079, 46.058542]}, "name": "Ambulatorio via Gorizia 2", "city": "Trento"}, {"id": 1043369, "geometry": {"type": "Point", "coordinates": [11.116127, 46.126515]}, "name": "Ambulatorio pediatrico via delle Sugarine 26 - Meano", "city": "Trento"}, {"id": 926918, "geometry": {"type": "Point", "coordinates": [11.11117, 46.098378]}, "name": "Ambulatorio via Canova 6 - Gardolo", "city": "Trento"}, {"id": 928385, "geometry": {"type": "Point", "coordinates": [11.139658, 46.070678]}, "name": "Ambulatorio San Don\u00e0 51/1 - Trento", "city": "Trento"}, {"id": 930172, "geometry": {"type": "Point", "coordinates": [11.121052, 46.06713]}, "name": "Ambulatorio piazza Duomo 11  - Trento", "city": "Trento"}, {"id": 930132, "geometry": {"type": "Point", "coordinates": [11.124797, 46.074665]}, "name": "Ambulatorio largo Nazario Sauro 8  - Trento", "city": "Trento"}, {"id": 930529, "geometry": {"type": "Point", "coordinates": [11.11723, 46.092076]}, "name": "Ambulatorio via Lunelli 32 - Trento", "city": "Trento"}, {"id": 927854, "geometry": {"type": "Point", "coordinates": [11.102364, 46.098019]}, "name": "Ambulatorio via Caneppele 31 Roncafort - Gardolo", "city": "Trento"}, {"id": 930493, "geometry": {"type": "Point", "coordinates": [11.131496, 46.064648]}, "name": "Ambulatorio via Giovanelli 25 - Trento", "city": "Trento"}, {"id": 929082, "geometry": {"type": "Point", "coordinates": [11.125107, 46.060668]}, "name": "Ambulatorio corso 3 Novembre 116  - Trento", "city": "Trento"}, {"id": 928387, "geometry": {"type": "Point", "coordinates": [11.13194, 46.0888]}, "name": "Ambulatorio via Serafini 46 - Martignano", "city": "Trento"}, {"id": 927856, "geometry": {"type": "Point", "coordinates": [11.111537, 46.10809]}, "name": "Ambulatorio via Aeroporto 1 - Gardolo", "city": "Trento"}, {"id": 927871, "geometry": {"type": "Point", "coordinates": [11.116127, 46.126515]}, "name": "Ambulatorio comunale via Sugarine 26 - Meano", "city": "Trento"}, {"id": 1043370, "geometry": {"type": "Point", "coordinates": [11.12504, 46.04919]}, "name": "Ambulatorio pediatrico via Degasperi 102 - Trento", "city": "Trento"}, {"id": 926916, "geometry": {"type": "Point", "coordinates": [11.146686, 46.0492]}, "name": "Ambulatorio via Giordano 4", "city": "Trento"}, {"id": 926906, "geometry": {"type": "Point", "coordinates": [11.113552, 46.107339]}, "name": "Ambulatorio via Monte Calisio 12 - Gardolo", "city": "Trento"}, {"id": 1043387, "geometry": {"type": "Point", "coordinates": [11.05962, 46.07126]}, "name": "Ambulatorio pediatrico piazza Oveno 15 - Sopramonte", "city": "Trento"}, {"id": 929079, "geometry": {"type": "Point", "coordinates": [11.11978, 46.05994]}, "name": "Ambulatorio via Perini 4  - Trento", "city": "Trento"}, {"id": 1043375, "geometry": {"type": "Point", "coordinates": [11.126365, 46.053388]}, "name": "Ambulatorio pediatrico via Gramsci 40/A - Trento", "city": "Trento"}, {"id": 928395, "geometry": {"type": "Point", "coordinates": [11.108824, 46.071649]}, "name": "Ambulatorio strada di Montevaccino 1 - Trento", "city": "Trento"}, {"id": 1265894, "geometry": {"type": "Point", "coordinates": [11.11256, 46.108005]}, "name": "Ambulatorio via M. Pola 6 - Gardolo", "city": "Trento"}, {"id": 930175, "geometry": {"type": "Point", "coordinates": [11.12527, 46.07411]}, "name": "Ambulatorio via San Martino 11 - Trento", "city": "Trento"}, {"id": 928388, "geometry": {"type": "Point", "coordinates": [11.142169, 46.076772]}, "name": "Ambulatorio via C. e V. Julg 9 - Cognola", "city": "Trento"}, {"id": 1043373, "geometry": {"type": "Point", "coordinates": [11.11256, 46.108005]}, "name": "Ambulatorio pediatrico via M. Pola 6 - Gardolo", "city": "Trento"}, {"id": 927850, "geometry": {"type": "Point", "coordinates": [11.133565, 46.040992]}, "name": "Ambulatorio piazzale Europa 7", "city": "Trento"}, {"id": 928112, "geometry": {"type": "Point", "coordinates": [11.105678, 46.016687]}, "name": "Ambulatorio via alle Sette Fontane 1 - Romagnano", "city": "Trento"}, {"id": 928592, "geometry": {"type": "Point", "coordinates": [11.159664, 46.065809]}, "name": "Ambulatorio via della Resistenza 61/B - Povo", "city": "Trento"}, {"id": 1887, "geometry": {"type": "Point", "coordinates": [10.999119, 46.077922]}, "name": "Ambulatorio pediatra di base", "address": "Via Roma, Vallelaghi, Comunit&amp;agrave; della Valle dei Laghi, TN, Trentino-Alto Adige, 38076, Italia", "city": "Vallelaghi"}]}