{
	"records": [
		{
			"name": "Chiesa dei Santi Pietro e Paolo - Soraga di Fassa ",
			"address": "Strada de Gejia, 38030 Soraga",
			"GeoCoordinate": {
				"longitude": 11.666989,
				"latitude": 46.394776
			}
		},
		{
			"name": "Cappella della Madonna Immacolata - Soraga ",
			"address": "Strada de Barbida, 38030 Soraga",
			"GeoCoordinate": {
				"longitude": 11.666028,
				"latitude": 46.398607
			}
		},
		{
			"name": "Chiesa dei Santi Filippo e Giacomo  - Campitello di Fassa ",
			"address": "Campitello",
			"GeoCoordinate": {
				"longitude": 11.741218,
				"latitude": 46.477716
			}
		},
		{
			"name": "Chiesa della Beata Maria Vergine - fraz Pian -  Campitello di Fassa ",
			"address": "Str&egrave;da de Pian, Campitello",
			"GeoCoordinate": {
				"longitude": 11.7431,
				"latitude": 46.47996
			}
		},
		{
			"name": "Chiesa di San Antonio Abate - Alba di Canazei ",
			"address": "Via Soraperra, alba di Canazei",
			"GeoCoordinate": {
				"longitude": 11.77639,
				"latitude": 46.46657
			}
		},
		{
			"name": "Chiesa di Nostra Signora del Carmelo - Fontanazzo ",
			"address": "Fontanazzo, Mazzin",
			"GeoCoordinate": {
				"longitude": 11.72877,
				"latitude": 46.470505
			}
		},
		{
			"name": "Chiesa della Madonna della Neve - Fraz Gries - Canazei ",
			"address": "Piaz de Gries, Canazei",
			"GeoCoordinate": {
				"longitude": 11.764037,
				"latitude": 46.478753
			}
		},
		{
			"name": "Chiesa del Sacro Cuore - Canazei ",
			"address": "Str&egrave;da de magoa, Canazei",
			"GeoCoordinate": {
				"longitude": 11.770365,
				"latitude": 46.476778
			}
		},
		{
			"name": "Chiesa della Madonna di Lourdes - Campestrin ",
			"address": "Campestrin, Mazzin",
			"GeoCoordinate": {
				"longitude": 11.714307,
				"latitude": 46.463171
			}
		},
		{
			"name": "Chiesa di san Floriano - Canazei ",
			"address": "Strada Dolomiti, Canazei",
			"GeoCoordinate": {
				"longitude": 11.766672,
				"latitude": 46.47731
			}
		},
		{
			"name": "Chiesa della Santissima Trinit\u00e0 - Tamion ",
			"address": "Strada de Sora Pozat, Tamion, 38039 Vigo di Fassa",
			"GeoCoordinate": {
				"longitude": 11.657489,
				"latitude": 46.406649
			}
		},
		{
			"name": "Chiesa di San Giovanni Nepomuceno - Vallonga - S\u00e8n Jan di Fassa ",
			"address": "Vallonga, 38039 Vigo di Fassa",
			"GeoCoordinate": {
				"longitude": 11.658989,
				"latitude": 46.412619
			}
		},
		{
			"name": "Chiesa di S. Volfango - Moena ",
			"address": "Strada Don G. Iori, 10 38035 Moena, Italy",
			"GeoCoordinate": {
				"longitude": 11.6616,
				"latitude": 46.37642
			}
		},
		{
			"name": "Chiesa di san Giovanni Nepomuceno martire - Penia di Moena ",
			"address": "Penia, 38035 Moena",
			"GeoCoordinate": {
				"longitude": 11.635019,
				"latitude": 46.365032
			}
		},
		{
			"name": "Chiesa dei Santi Sebastiano e Rocco - Penia di Canazei",
			"address": "Penia, Canazei",
			"GeoCoordinate": {
				"longitude": 11.7972,
				"latitude": 46.458261
			}
		},
		{
			"name": "Chiesa dei Santi Rocco, Sebastiano e Fabiano - Someda - Moena ",
			"address": "Strada de Sen Roch, 38035 Moena",
			"GeoCoordinate": {
				"longitude": 11.67059,
				"latitude": 46.376953
			}
		},
		{
			"name": "Chiesa di San Giuseppe - Moena ",
			"address": "Strada de Sort, 38035 Moena",
			"GeoCoordinate": {
				"longitude": 11.647789,
				"latitude": 46.374757
			}
		},
		{
			"name": "Chiesa di san Lazzaro - Forno - Moena ",
			"address": "Via san Lazzaro, Forno, 38035 Moena",
			"GeoCoordinate": {
				"longitude": 11.628056,
				"latitude": 46.348611
			}
		},
		{
			"name": "Chiesa di S. Giovanni - Vigo di Fassa ",
			"address": "Strada De La Pieif, 14 38039, Vigo di Fassa, Italy",
			"GeoCoordinate": {
				"longitude": 11.674877,
				"latitude": 46.420863
			}
		},
		{
			"name": "Chiesa di Santa Maria Maddalena - Mazzin di Fassa ",
			"address": "Mazzin",
			"GeoCoordinate": {
				"longitude": 11.699612,
				"latitude": 46.457308
			}
		},
		{
			"name": "Chiesa di S. Giuliana - Vigo di Fassa ",
			"address": "Str&egrave;da Roma, 36 38032 Canazei, Italy",
			"GeoCoordinate": {
				"longitude": 11.738271,
				"latitude": 46.475608
			}
		},
		{
			"name": "Chiesa di Santa Maria Madre della Chiesa, di san Vigilio e di san Lorenzo - Pera di Fassa ",
			"address": "Strada Tita Piaz, Pera di fassa",
			"GeoCoordinate": {
				"longitude": 11.692163,
				"latitude": 46.440208
			}
		},
		{
			"name": "Chiesa di San Nicol\u00f2 - Pozza di Fassa ",
			"address": "Strada de Piz, 38036 Pozza di Fassa",
			"GeoCoordinate": {
				"longitude": 11.669439,
				"latitude": 46.419784
			}
		},
		{
			"name": "Chiesa di Maria Ausiliatrice - Pozza di Fassa ",
			"address": "Strada de Meida, 38036 Pozza di Fassa",
			"GeoCoordinate": {
				"longitude": 11.690253,
				"latitude": 46.43007
			}
		},
		{
			"name": "Chiesa di San Antonio - San Pellegrino - Moena ",
			"address": "San Pellegrino, 38035 Moena",
			"GeoCoordinate": {
				"longitude": 11.786247,
				"latitude": 46.379014
			}
		},
		{
			"name": "Chiesa di S. Vigilio - Moena ",
			"address": "Strada Don G. Iori, 10 38035 Moena, Italy",
			"GeoCoordinate": {
				"longitude": 11.6616,
				"latitude": 46.37642
			}
		},
		{
			"name": "Chiesa di Sant'Anna - Medil - Moena ",
			"address": "Moena, Comunit&agrave; della Val di Fassa, TN, Trentino-Alto Adige, 38035, Italia",
			"GeoCoordinate": {
				"longitude": 11.626292,
				"latitude": 46.353833
			}
		},
		{
			"name": "Chiesa di san Lorenzo - Pera di Fassa ",
			"address": "Strada Tita Piaz, Pera di Fassa",
			"GeoCoordinate": {
				"longitude": 11.692163,
				"latitude": 46.440208
			}
		},
		{
			"name": "Chiesa di Sant'Anna - Monzon - Pera di Fassa ",
			"address": "Monzon, Pera di fassa",
			"GeoCoordinate": {
				"longitude": 11.690519,
				"latitude": 46.435925
			}
		},
		{
			"name": "Chiesa di S.Antonio da Padova",
			"address": "Albiano tn",
			"GeoCoordinate": {
				"longitude": 11.194111,
				"latitude": 46.144362
			},
			"city": "Albiano"
		},
		{
			"name": "Chiesa Nuova",
			"address": "Albiano",
			"GeoCoordinate": {
				"longitude": 11.194111,
				"latitude": 46.144362
			},
			"city": "Albiano"
		},
		{
			"name": "Chiesa di S.Biagio",
			"address": "Albiano",
			"GeoCoordinate": {
				"longitude": 11.194111,
				"latitude": 46.144362
			},
			"city": "Albiano"
		},
		{
			"name": "Chiesa parrocchiale di Grumes",
			"address": "Altavalle, 38030, Trentino-Alto Adige, Italia",
			"GeoCoordinate": {
				"longitude": 11.292497,
				"latitude": 46.220339
			},
			"city": "Altavalle"
		},
		{
			"name": "La chiesa parrocchiale di Grauno",
			"address": "Altavalle, 38030, Trentino-Alto Adige, Italia",
			"GeoCoordinate": {
				"longitude": 11.298392,
				"latitude": 46.231042
			},
			"city": "Altavalle"
		},
		{
			"name": "Chiesa Parrocchiale di S. Filippo e S. Giacomo a Faver ",
			"address": "Altavalle, 38030, Trentino-Alto Adige, Italia",
			"GeoCoordinate": {
				"longitude": 11.237233,
				"latitude": 46.180937
			},
			"city": "Altavalle"
		},
		{
			"name": "Cappella del Santissimo Crocifisso",
			"address": "Altavalle, 38030, Trentino-Alto Adige, Italia",
			"GeoCoordinate": {
				"longitude": 11.240689,
				"latitude": 46.18429
			},
			"city": "Altavalle"
		},
		{
			"name": "Chiesa parrocchiale di Valda ",
			"address": "Altavalle, 38030, Trentino-Alto Adige, Italia",
			"GeoCoordinate": {
				"longitude": 11.265501,
				"latitude": 46.207653
			},
			"city": "Altavalle"
		},
		{
			"name": "La Chiesa Collegiata",
			"address": "Arco",
			"GeoCoordinate": {
				"longitude": 10.885576,
				"latitude": 45.917861
			},
			"city": "Arco"
		},
		{
			"name": "Chiesa parrocchiale di S. Rocco",
			"address": "miola baselga di pin&egrave;",
			"GeoCoordinate": {
				"longitude": 11.250003,
				"latitude": 46.126861
			},
			"city": "Baselga di Pin\u00e8"
		},
		{
			"name": "Chiesa di Sternigo",
			"address": "baselga di pin&egrave;",
			"GeoCoordinate": {
				"longitude": 11.246595,
				"latitude": 46.131489
			},
			"city": "Baselga di Pin\u00e8"
		},
		{
			"name": "Chiesa di S. Antonio da Padova",
			"address": "Rizzolaga baselga di pin&egrave;",
			"GeoCoordinate": {
				"longitude": 11.264079,
				"latitude": 46.146547
			},
			"city": "Baselga di Pin\u00e8"
		},
		{
			"name": "Chiesa parrocchiale della Trinit\u00e0",
			"address": "Faida baselga di pin&egrave;",
			"GeoCoordinate": {
				"longitude": 11.252834,
				"latitude": 46.10963
			},
			"city": "Baselga di Pin\u00e8"
		},
		{
			"name": "Chiesa degli Angeli Custodi",
			"address": "Ricaldo baselga di pin&egrave;",
			"GeoCoordinate": {
				"longitude": 11.24828,
				"latitude": 46.13558
			},
			"city": "Baselga di Pin\u00e8"
		},
		{
			"name": "Chiesa di San Mauro",
			"address": "San Mauro di Pin&eacute;",
			"GeoCoordinate": {
				"longitude": 11.222631,
				"latitude": 46.125046
			},
			"city": "Baselga di Pin\u00e8"
		},
		{
			"name": "Chiesa parrocchiale di S. Anna",
			"address": "Montagnaga di Pin&eacute;",
			"GeoCoordinate": {
				"longitude": 11.236857,
				"latitude": 46.101586
			},
			"city": "Baselga di Pin\u00e8"
		},
		{
			"name": "Chiesa di S. Maria Assunta",
			"address": "baselga di pin&egrave;",
			"GeoCoordinate": {
				"longitude": 11.246595,
				"latitude": 46.131489
			},
			"city": "Baselga di Pin\u00e8"
		},
		{
			"name": "La Chiesa di San Biagio",
			"GeoCoordinate": {
				"longitude": 11.554618,
				"latitude": 46.078232
			},
			"city": "Bieno"
		},
		{
			"name": "Chiesa di San Rocco",
			"GeoCoordinate": {
				"longitude": 11.544464,
				"latitude": 46.08304
			},
			"city": "Bieno"
		},
		{
			"name": "Chiesa di San Rocco",
			"address": "lera brentonico",
			"GeoCoordinate": {
				"longitude": 10.949557,
				"latitude": 45.817127
			},
			"city": "Brentonico"
		},
		{
			"name": "Chiesa dei Santi Pietro e Paolo",
			"address": "Brentonico",
			"GeoCoordinate": {
				"longitude": 10.949557,
				"latitude": 45.817127
			},
			"city": "Brentonico"
		},
		{
			"name": "Piazzale della Chiesa dei Santi Pietro e Paolo",
			"address": "Brentonico",
			"GeoCoordinate": {
				"longitude": 10.949557,
				"latitude": 45.817127
			},
			"city": "Brentonico"
		},
		{
			"name": "La Chiesa di Baselga",
			"GeoCoordinate": {
				"latitude": 46.415608,
				"longitude": 10.985737,
				"address": "baselga bresimo"
			},
			"city": "Bresimo"
		},
		{
			"name": "Chiesa di San Valentino",
			"address": "piazza san valentino, cagn&ograve;",
			"GeoCoordinate": {
				"longitude": 11.040309,
				"latitude": 46.394751
			},
			"city": "Cagn\u00f2"
		},
		{
			"name": "Cappella della Madonna del Rosario di Pompei",
			"address": "Via Nazionale, Cagn&ograve;, Comunit&agrave; della Val di Non, TN, Trentino-Alto Adige, 38028, Italia",
			"GeoCoordinate": {
				"longitude": 11.045358,
				"latitude": 46.391864
			},
			"city": "Cagn\u00f2"
		},
		{
			"name": "Chiesa parrocchiale di San Bartolomeo ",
			"address": "Piazza San Bartolomeo, Caldes",
			"GeoCoordinate": {
				"longitude": 10.94333,
				"latitude": 46.365324
			},
			"city": "Caldes"
		},
		{
			"name": "Chiesa di San Vigilio",
			"address": "Via Dei Tolameotti 19, caldes",
			"GeoCoordinate": {
				"longitude": 10.94089,
				"latitude": 46.36932
			},
			"city": "Caldes"
		},
		{
			"name": "Chiesa dei Santi Pietro e Paolo ",
			"address": "strada stale 42, bozzana",
			"GeoCoordinate": {
				"longitude": 10.984224,
				"latitude": 46.387805
			},
			"city": "Caldes"
		},
		{
			"name": "Chiesa dell\u2019Annunciazione di Maria ",
			"address": "bordiana, caldes",
			"GeoCoordinate": {
				"longitude": 10.976589,
				"latitude": 46.391552
			},
			"city": "Caldes"
		},
		{
			"name": "Chiesa della Madonna del Carmine (XVII sec.)",
			"address": "tozzaga, caldes",
			"GeoCoordinate": {
				"longitude": 10.971788,
				"latitude": 46.382191
			},
			"city": "Caldes"
		},
		{
			"name": "Chiesa di S.Tommaso apostolo ",
			"address": "via michele comini 18, caldes",
			"GeoCoordinate": {
				"longitude": 10.9605,
				"latitude": 46.37643
			},
			"city": "Caldes"
		},
		{
			"name": "Chiesa di S. Giacomo (XVI sec.)",
			"address": "san giacomo, caldes",
			"GeoCoordinate": {
				"longitude": 10.962446,
				"latitude": 46.38006
			},
			"city": "Caldes"
		},
		{
			"name": "Chiesa di San Lorenzo",
			"address": "Via Valentini, 15 - 38060 Calliano ",
			"GeoCoordinate": {
				"longitude": 11.09421,
				"latitude": 45.93473
			},
			"city": "Calliano"
		},
		{
			"name": "Chiesa ed Eremo di San Pancrazio",
			"address": "CAMPODENNO, Trentino-Alto Adige, 38010, Italia",
			"GeoCoordinate": {
				"longitude": 11.020698,
				"latitude": 46.261332
			},
			"city": "Campodenno"
		},
		{
			"name": "Chiesa di Sant'Egidio a Quetta",
			"address": "CAMPODENNO, Trentino-Alto Adige, 38010, Italia",
			"GeoCoordinate": {
				"longitude": 11.048083,
				"latitude": 46.26012
			},
			"city": "Campodenno"
		},
		{
			"name": "Chiesa di San Giovanni Battista a Termon",
			"address": "CAMPODENNO, Trentino-Alto Adige, 38010, Italia",
			"GeoCoordinate": {
				"longitude": 11.035638,
				"latitude": 46.268942
			},
			"city": "Campodenno"
		},
		{
			"name": "Chiesa di San Maurizio a Campodenno",
			"address": "CAMPODENNO, Trentino-Alto Adige, 38010, Italia",
			"GeoCoordinate": {
				"longitude": 11.037424,
				"latitude": 46.25683
			},
			"city": "Campodenno"
		},
		{
			"name": "Chiesa di Santo Stefano a Dercolo",
			"address": "CAMPODENNO, Trentino-Alto Adige, 38010, Italia",
			"GeoCoordinate": {
				"longitude": 11.048926,
				"latitude": 46.247842
			},
			"city": "Campodenno"
		},
		{
			"name": "Chiesa dell'Immacolata a Lover",
			"address": "CAMPODENNO, Trentino-Alto Adige, 38010, Italia",
			"GeoCoordinate": {
				"longitude": 11.026073,
				"latitude": 46.247534
			},
			"city": "Campodenno"
		},
		{
			"name": "Chiesa di S. Michele Arcangelo a Maso Sant'Angelo",
			"address": "SP55, Maso Santa Lucia, Campodenno, Provincia autonoma di Trento, Trentino-Alto Adige, 38010, Italia",
			"GeoCoordinate": {
				"longitude": 11.057739,
				"latitude": 46.257197
			},
			"city": "Campodenno"
		},
		{
			"name": "Chiesa parrocchiale",
			"GeoCoordinate": {
				"latitude": 0,
				"longitude": 0
			},
			"city": "Capriana"
		},
		{
			"name": "Chiesa di Carbonare",
			"GeoCoordinate": {
				"latitude": 0,
				"longitude": 0
			},
			"city": "Capriana"
		},
		{
			"name": "La chiesa di San Nicol\u00f2",
			"GeoCoordinate": {
				"latitude": 46.292136,
				"longitude": 11.440759,
				"address": "carano"
			},
			"city": "Carano"
		},
		{
			"name": "La chiesa di Aguai",
			"GeoCoordinate": {
				"latitude": 46.292136,
				"longitude": 11.440759,
				"address": "carano"
			},
			"city": "Carano"
		},
		{
			"name": "Chiesa di San Giorgio",
			"GeoCoordinate": {
				"longitude": 10.602074,
				"latitude": 45.914395
			},
			"city": "Castel Condino"
		},
		{
			"name": "La Cappella dei Morti",
			"GeoCoordinate": {
				"longitude": 10.602674,
				"latitude": 45.914455
			},
			"city": "Castel Condino"
		},
		{
			"name": "Chiesa di Sant\u2019Antonio Abate - Dovena",
			"address": "Dovena - Castelfondo",
			"GeoCoordinate": {
				"longitude": 11.129841,
				"latitude": 46.454883
			},
			"city": "Castelfondo"
		},
		{
			"name": "Chiesa della Madonna del Rosario - Raina",
			"address": "Raina - Castelfondo",
			"GeoCoordinate": {
				"longitude": 11.119578,
				"latitude": 46.45893
			},
			"city": "Castelfondo"
		},
		{
			"name": "Chiesa parrocchiale di san Nicol\u00f2 vescovo",
			"address": "Castelfondo",
			"GeoCoordinate": {
				"longitude": 11.116506,
				"latitude": 46.453388
			},
			"city": "Castelfondo"
		},
		{
			"name": "Chiesa di Masi di Cavalese: S.S. Trinit\u00e0",
			"address": "Tesero, Comunit&agrave; territoriale della Val di Fiemme, TN, Trentino-Alto Adige, 38033, Italia",
			"GeoCoordinate": {
				"longitude": 11.485761,
				"latitude": 46.28328
			},
			"city": "Cavalese"
		},
		{
			"name": "Chiesa di San Vigilio e Convento del Padri Francescani",
			"address": "Chiesa dei Frati Francescani, Via IX Novembre, Cavalese, Comunit&agrave; territoriale della Val di Fiemme, TN, Trentino-Alto Adige, 38033, Italia",
			"GeoCoordinate": {
				"longitude": 11.457877,
				"latitude": 46.292118
			},
			"city": "Cavalese"
		},
		{
			"name": "Chiesa di San Sebastiano e Fabiano e torre campanaria",
			"address": "Piazza Cesare Battisti - Cavalese",
			"GeoCoordinate": {
				"longitude": 11.459577,
				"latitude": 46.291639
			},
			"city": "Cavalese"
		},
		{
			"name": "Chiesa della Madonna Addolorata",
			"address": "Chiesa dell&#039;Addolorata, Passeggiata Santa Maria della Lasta, Cavalese, Comunit&agrave; territoriale della Val di Fiemme, TN, Trentino-Alto Adige,",
			"GeoCoordinate": {
				"longitude": 11.461825,
				"latitude": 46.28638
			},
			"city": "Cavalese"
		},
		{
			"name": "Chiesa parrocchiale San Lorenzo",
			"address": "San Lorenzo .- Cavedago",
			"GeoCoordinate": {
				"longitude": 11.027494,
				"latitude": 46.183277
			},
			"city": "Cavedago"
		},
		{
			"name": "Chiesa San Tommaso - Cimitero",
			"address": "San Tommaso - Cavedago",
			"GeoCoordinate": {
				"longitude": 11.021349,
				"latitude": 46.18609
			},
			"city": "Cavedago"
		},
		{
			"name": "Chiesa di San Pietro",
			"address": "Piazza San Pietro, Cembra Lisignago, Trentino-Alto Adige, 38034, Italia",
			"GeoCoordinate": {
				"longitude": 11.219112,
				"latitude": 46.175076
			},
			"city": "Cembralisignago"
		},
		{
			"name": "Chiesa di San Biagio",
			"address": "Piazza della Chiesa, Lisignago, Cembra Lisignago, Trentino-Alto Adige, 38034, Italia",
			"GeoCoordinate": {
				"longitude": 11.186185,
				"latitude": 46.160706
			},
			"city": "Cembralisignago"
		},
		{
			"name": "Chiesa di San Leonardo",
			"address": "Via Trento, Albiano, 38041, Trentino-Alto Adige, Italia",
			"GeoCoordinate": {
				"longitude": 11.187633,
				"latitude": 46.147744
			},
			"city": "Cembralisignago"
		},
		{
			"name": "Chiesa di S. Maria Assunta",
			"address": "cles",
			"GeoCoordinate": {
				"longitude": 11.035761,
				"latitude": 46.364566
			},
			"city": "Cles"
		},
		{
			"name": "Chiesa di S. Tommaso (Dres)",
			"address": "Dres, Cles",
			"GeoCoordinate": {
				"longitude": 11.033343,
				"latitude": 46.373179
			},
			"city": "Cles"
		},
		{
			"name": "Chiesa dei Ss. Pietro e Paolo (Maiano)",
			"GeoCoordinate": {
				"longitude": 11.04285,
				"latitude": 46.361971
			},
			"city": "Cles"
		},
		{
			"name": "Chiesa di S. Lucia (Caltron)",
			"GeoCoordinate": {
				"longitude": 11.027808,
				"latitude": 46.372843
			},
			"city": "Cles"
		},
		{
			"name": "Chiesa di San Vigilio (Pez)",
			"address": "pez cles",
			"GeoCoordinate": {
				"longitude": 11.036719,
				"latitude": 46.363498
			},
			"city": "Cles"
		},
		{
			"name": "Chiesa di San Felice",
			"address": "Comano",
			"GeoCoordinate": {
				"longitude": 10.130141,
				"latitude": 44.291519
			},
			"city": "Comano Terme"
		},
		{
			"name": "Chiesa della Madonna di Loreto",
			"address": "Via Brescia, Presson, 38025 - Dimaro Folgarida, TN, Trentino-Alto Adige, Italia",
			"GeoCoordinate": {
				"longitude": 10.881153,
				"latitude": 46.332673
			},
			"city": "Dimaro Folgarida"
		},
		{
			"name": "Chiesa di San Vigilio",
			"address": "Via San Vigilio, Monclassico, 38020, Dimaro Folgarida, TN, Trentino-Alto Adige, Italia ",
			"GeoCoordinate": {
				"longitude": 10.88574,
				"latitude": 46.33568
			},
			"city": "Dimaro Folgarida"
		},
		{
			"name": "Chiesa di S. Lorenzo",
			"address": "Via alla Chiesa, 8, Dimaro, 38025, Dimaro Folgarida, TN, Trentino-Alto Adige, Italia",
			"GeoCoordinate": {
				"longitude": 10.877151,
				"latitude": 46.326354
			},
			"city": "Dimaro Folgarida"
		},
		{
			"name": "Chiesa di S. Giovanni battista a Carciato",
			"address": "Piazza S. Giovanni, Carciato, Dimaro, 38025, Dimaro Folgarida, Trentino-Alto Adige, Italia",
			"GeoCoordinate": {
				"longitude": 10.883557,
				"latitude": 46.324475
			},
			"city": "Dimaro Folgarida"
		},
		{
			"name": "Chiesa Santa Maria del Carmine",
			"address": "drena",
			"GeoCoordinate": {
				"longitude": 10.945666,
				"latitude": 45.970821
			},
			"city": "Drena"
		},
		{
			"name": "Chiesa San Vigilio",
			"address": "drena",
			"GeoCoordinate": {
				"longitude": 10.945666,
				"latitude": 45.970821
			},
			"city": "Drena"
		},
		{
			"name": "Chiesa di San Martino",
			"address": "fornace",
			"GeoCoordinate": {
				"longitude": 11.207213,
				"latitude": 46.117901
			},
			"city": "Fornace"
		},
		{
			"name": "Chiesa di Sant'Antonio",
			"address": "fornace",
			"GeoCoordinate": {
				"longitude": 11.207213,
				"latitude": 46.117901
			},
			"city": "Fornace"
		},
		{
			"name": "Chiesa di San Rocco",
			"address": "fornace",
			"GeoCoordinate": {
				"longitude": 11.207213,
				"latitude": 46.117901
			},
			"city": "Fornace"
		},
		{
			"name": "Chiesa di Santo Stefano",
			"address": "fornace",
			"GeoCoordinate": {
				"longitude": 11.207213,
				"latitude": 46.117901
			},
			"city": "Fornace"
		},
		{
			"name": "Chiesa cinquecentesca",
			"GeoCoordinate": {
				"latitude": 46.089663,
				"longitude": 11.297549
			},
			"address": "frassilongo",
			"city": "Frassilongo"
		},
		{
			"name": "Chiesa di S. Osvaldo",
			"address": "loc. Sant Osvaldo",
			"GeoCoordinate": {
				"longitude": 11.091127,
				"latitude": 46.004593
			},
			"city": "Garniga Terme"
		},
		{
			"name": "Chiesa del Sacro Cuore di Ges\u00f9",
			"address": "Piazza don Pietro Simion, Garniga Terme, Territorio Val d&#039;Adige, TN, Trentino-Alto Adige, Italia",
			"GeoCoordinate": {
				"longitude": 11.08719,
				"latitude": 46.001553
			},
			"city": "Garniga Terme"
		},
		{
			"name": "Chiesa di Santa Maria Assunta",
			"address": "Verla di Giovo",
			"GeoCoordinate": {
				"longitude": 11.154259,
				"latitude": 46.158093
			},
			"city": "Giovo"
		},
		{
			"name": "Chiesa di S. Floriano",
			"address": "san Floriano Giovo",
			"GeoCoordinate": {
				"longitude": 11.167909,
				"latitude": 46.172602
			},
			"city": "Giovo"
		},
		{
			"name": "Chiesa di Sant'Antonio",
			"address": "Verla di Giovo",
			"GeoCoordinate": {
				"longitude": 11.154259,
				"latitude": 46.158093
			},
			"city": "Giovo"
		},
		{
			"name": "Chiesa di San Giorgio",
			"address": "Giovo",
			"GeoCoordinate": {
				"longitude": 11.152455,
				"latitude": 46.155879
			},
			"city": "Giovo"
		},
		{
			"name": "Chiesa parrocchiale del Redentore ",
			"GeoCoordinate": {
				"longitude": 11.301059,
				"latitude": 46.011974
			},
			"city": "Levico Terme"
		},
		{
			"name": "Chiesa di San Martino",
			"GeoCoordinate": {
				"latitude": 46.40311,
				"longitude": 11.01971
			},
			"address": "livo tn",
			"city": "Livo"
		},
		{
			"name": "Chiesa Nativit\u00e0 di S. Maria",
			"GeoCoordinate": {
				"latitude": 46.398185,
				"longitude": 11.021841
			},
			"city": "Livo"
		},
		{
			"name": "Chiesa di S. Antonio a Preghena",
			"GeoCoordinate": {
				"latitude": 46.409468,
				"longitude": 11.013003
			},
			"address": "preghena",
			"city": "Livo"
		},
		{
			"name": "Chiesa SS.Immacolata a Scanna",
			"GeoCoordinate": {
				"latitude": 46.396204,
				"longitude": 11.02574
			},
			"address": "scanna livo",
			"city": "Livo"
		},
		{
			"name": "Cappella Madruzziana - Calavino",
			"address": "Madruzzo, Trentino-Alto Adige, Italia",
			"GeoCoordinate": {
				"longitude": 10.985309,
				"latitude": 46.046857
			},
			"city": "Madruzzo"
		},
		{
			"name": "Cappella del rosario - Calavino",
			"address": "Madruzzo, Trentino-Alto Adige, Italia",
			"GeoCoordinate": {
				"longitude": 10.985309,
				"latitude": 46.046846
			},
			"city": "Madruzzo"
		},
		{
			"name": "Chiesa Lauretana - Madruzzo",
			"address": "Madruzzo, Trentino-Alto Adige, 38076, Italia",
			"GeoCoordinate": {
				"longitude": 10.986886,
				"latitude": 46.036524
			},
			"city": "Madruzzo"
		},
		{
			"name": "Chiesa parrocchiale della Nativit\u00e0 - Pergolese",
			"address": "Madruzzo, Trentino-Alto Adige, 38076, Italia",
			"GeoCoordinate": {
				"longitude": 10.959828,
				"latitude": 46.026595
			},
			"city": "Madruzzo"
		},
		{
			"name": "Chiesa parrocchiale SS Pietro e Paolo - Lasino",
			"address": "Madruzzo, Trentino-Alto Adige, 38076, Italia",
			"GeoCoordinate": {
				"longitude": 10.98253,
				"latitude": 46.026767
			},
			"city": "Madruzzo"
		},
		{
			"name": "Cappella del Santo Crocifisso - Lasino",
			"address": "Madruzzo, Trentino-Alto Adige, 38076, Italia",
			"GeoCoordinate": {
				"longitude": 10.98451,
				"latitude": 46.02743
			},
			"city": "Madruzzo"
		},
		{
			"name": "Chiesa dei Santi Grato, Mauro e Giacomo - Calavino",
			"address": "Madruzzo, Trentino-Alto Adige, 38076, Italia",
			"GeoCoordinate": {
				"longitude": 10.976865,
				"latitude": 46.047312
			},
			"city": "Madruzzo"
		},
		{
			"name": "Chiesa della Madonna del Carmelo - Sarche",
			"address": "Madruzzo, Trentino-Alto Adige, 38076, Italia",
			"GeoCoordinate": {
				"longitude": 10.953308,
				"latitude": 46.047677
			},
			"city": "Madruzzo"
		},
		{
			"name": "Chiesa di SS. Trinit\u00e0 - Calavino",
			"address": "Madruzzo, Trentino-Alto Adige, 38076, Italia",
			"GeoCoordinate": {
				"longitude": 10.984048,
				"latitude": 46.043203
			},
			"city": "Madruzzo"
		},
		{
			"name": "Chiesa parrocchiale di San Floriano e Santa Maria - Calavino",
			"address": "Madruzzo, Trentino-Alto Adige, 38076, Italia",
			"GeoCoordinate": {
				"longitude": 10.985293,
				"latitude": 46.046865
			},
			"city": "Madruzzo"
		},
		{
			"name": "Chiesa di Santa Maddalena Penitente, abside",
			"address": "mazzin",
			"GeoCoordinate": {
				"longitude": 11.699612,
				"latitude": 46.457308
			},
			"city": "Mazzin"
		},
		{
			"name": "Chiesa pievana di S. Maria Assunta",
			"address": "Piazza della Chiesa, 21 - Mezzocorona",
			"GeoCoordinate": {
				"longitude": 11.119249,
				"latitude": 46.21679
			},
			"city": "Mezzocorona"
		},
		{
			"name": "Chiesa di San Vigilio",
			"address": "Molveno",
			"GeoCoordinate": {
				"longitude": 10.965146,
				"latitude": 46.141734
			},
			"city": "Molveno"
		},
		{
			"name": "Chiesa di San Borromeo",
			"address": "Molveno",
			"GeoCoordinate": {
				"longitude": 10.965146,
				"latitude": 46.141734
			},
			"city": "Molveno"
		},
		{
			"name": "Chiesa di S. Tomaso",
			"GeoCoordinate": {
				"latitude": 46.303296,
				"longitude": 11.059458,
				"address": "portolo nanno"
			},
			"city": "Nanno"
		},
		{
			"name": "Chiesa di S. Fabiano e Sebastiano",
			"GeoCoordinate": {
				"latitude": 46.321107,
				"longitude": 11.033556
			},
			"city": "Nanno"
		},
		{
			"name": "Chiesa di S. Biagio",
			"GeoCoordinate": {
				"latitude": 46.316094,
				"longitude": 11.046502,
				"address": "nanno"
			},
			"city": "Nanno"
		},
		{
			"name": "La Chiesa di S.Valentino di Noarna",
			"GeoCoordinate": {
				"latitude": 45.91491,
				"longitude": 11.022841,
				"address": "nogaredo"
			},
			"city": "Nogaredo"
		},
		{
			"name": "Chiesa di San Giorgio a Peio paese",
			"address": "peio",
			"GeoCoordinate": {
				"longitude": 10.673533,
				"latitude": 46.36278
			},
			"city": "Peio"
		},
		{
			"name": "Chiesa di Ss. Filippo e Giacomo a Cogolo ",
			"address": "cogolo",
			"GeoCoordinate": {
				"longitude": 10.696544,
				"latitude": 46.347795
			},
			"city": "Peio"
		},
		{
			"name": "Chiesa di San Bartolomeo a Pegaia ",
			"address": "chiesetta di pegaia",
			"GeoCoordinate": {
				"longitude": 10.689204,
				"latitude": 46.361967
			},
			"city": "Peio"
		},
		{
			"name": "Chiesa di San Matteo a Comasine ",
			"address": "comasine",
			"GeoCoordinate": {
				"longitude": 10.705443,
				"latitude": 46.328501
			},
			"city": "Peio"
		},
		{
			"name": "Chiesa di San Agostino ",
			"address": "celentino",
			"GeoCoordinate": {
				"longitude": 10.717729,
				"latitude": 46.329462
			},
			"city": "Peio"
		},
		{
			"name": "Chiesa di San Camillo a Peio Fonti ",
			"GeoCoordinate": {
				"longitude": 10.665073,
				"latitude": 46.35441
			},
			"city": "Peio"
		},
		{
			"address": "pelugo tn",
			"name": "Chiesa cimiteriale di Sant'Antonio Abate",
			"GeoCoordinate": {
				"latitude": 46.087643,
				"longitude": 10.724535
			},
			"city": "Pelugo"
		},
		{
			"address": "pelugo tn",
			"name": "Chiesa parrocchiale di San Zeno",
			"GeoCoordinate": {
				"latitude": 46.087643,
				"longitude": 10.724535
			},
			"city": "Pelugo"
		},
		{
			"name": "Chiesa Arcipretale",
			"GeoCoordinate": {
				"latitude": 0,
				"longitude": 0
			},
			"city": "Pieve Tesino"
		},
		{
			"name": "Chiesa e Colle di San Sebastiano",
			"GeoCoordinate": {
				"latitude": 0,
				"longitude": 0
			},
			"city": "Pieve Tesino"
		},
		{
			"name": "Chiesa di Sant'Antonio ",
			"address": "pinzolo, Trentino-Alto Adige, Italia",
			"GeoCoordinate": {
				"longitude": 10.76007,
				"latitude": 46.170223
			},
			"city": "Pinzolo"
		},
		{
			"name": "Chiesa di San Lorenzo",
			"address": "pinzolo, Trentino-Alto Adige, Italia",
			"GeoCoordinate": {
				"longitude": 10.76547,
				"latitude": 46.159246
			},
			"city": "Pinzolo"
		},
		{
			"name": "La Chiesa di San Vigilio",
			"address": "pinzolo, Trentino-Alto Adige, Italia",
			"GeoCoordinate": {
				"longitude": 10.764729,
				"latitude": 46.16486
			},
			"city": "Pinzolo"
		},
		{
			"name": "Cappella di San Rocco",
			"address": "Via Sarco, Dar&egrave;, 38094, Porte di Rendena",
			"GeoCoordinate": {
				"longitude": 10.719647,
				"latitude": 46.076104
			},
			"city": "Porte di Rendena"
		},
		{
			"name": "Chiesa di San Lorenzo",
			"address": "Via IV Novembre, Vigo Rendena, 38094, Porte di Rendena",
			"GeoCoordinate": {
				"longitude": 10.719379,
				"latitude": 46.07853
			},
			"city": "Porte di Rendena"
		},
		{
			"name": "Chiesa Ss. Fabiano e Sebastiano a Verdesina",
			"address": "Fr. Verdesina, 38094, Porte di Rendena",
			"GeoCoordinate": {
				"longitude": 10.712802,
				"latitude": 46.055752
			},
			"city": "Porte di Rendena"
		},
		{
			"name": "Chiesa di Santa Maria Assunta a Javr\u00e8",
			"address": "Via Nazionale, 173, Javr&egrave;, 38094, Porte di Rendena",
			"GeoCoordinate": {
				"longitude": 10.712233,
				"latitude": 46.067804
			},
			"city": "Porte di Rendena"
		},
		{
			"name": "Chiesa parrocchiale di San Martino ",
			"address": "Strada Statale 239, Villa Rendena, 38094, Porte di Rendena",
			"GeoCoordinate": {
				"longitude": 10.712453,
				"latitude": 46.062701
			},
			"city": "Porte di Rendena"
		},
		{
			"name": "Chiesa di Santa Maria Ausiliatrice (Pozza)",
			"address": "Pozza di Fassa",
			"GeoCoordinate": {
				"longitude": 11.685717,
				"latitude": 46.430689
			},
			"city": "Pozza di Fassa"
		},
		{
			"name": "Chiesa di San Lorenzo (Pera)",
			"address": "Pera di Fassa",
			"GeoCoordinate": {
				"longitude": 11.690519,
				"latitude": 46.435925
			},
			"city": "Pozza di Fassa"
		},
		{
			"name": "Chiesa della Madonna del Rosario (Pera)",
			"address": "Pera di Fassa",
			"GeoCoordinate": {
				"longitude": 11.690519,
				"latitude": 46.435925
			},
			"city": "Pozza di Fassa"
		},
		{
			"name": "Chiesa del romitaggio di Santa Giustina ",
			"address": "dermulo",
			"GeoCoordinate": {
				"longitude": 11.062925,
				"latitude": 46.339064
			},
			"city": "Predaia"
		},
		{
			"name": "Chiesa di San Marcello",
			"address": "dardine",
			"GeoCoordinate": {
				"longitude": 11.082546,
				"latitude": 46.28619
			},
			"city": "Predaia"
		},
		{
			"name": "Chiesa di San Marco Evangelista ",
			"address": "mollaro ",
			"GeoCoordinate": {
				"longitude": 11.068172,
				"latitude": 46.294617
			},
			"city": "Predaia"
		},
		{
			"name": "Chiesa della nativit\u00e0 di Maria ",
			"address": "segno, taio ",
			"GeoCoordinate": {
				"longitude": 11.074963,
				"latitude": 46.306328
			},
			"city": "Predaia"
		},
		{
			"name": "Chiesa di S.Eusebio ",
			"address": "torra, taio",
			"GeoCoordinate": {
				"longitude": 8.945912,
				"latitude": 41.763403
			},
			"city": "Predaia"
		},
		{
			"name": "Chiesa di San Rocco confessore ",
			"address": "tuenetto ",
			"GeoCoordinate": {
				"longitude": 11.080733,
				"latitude": 46.296368
			},
			"city": "Predaia"
		},
		{
			"name": "Chiesa di San Rocco ",
			"address": "tres,tn ",
			"GeoCoordinate": {
				"longitude": 11.095507,
				"latitude": 46.321677
			},
			"city": "Predaia"
		},
		{
			"name": "Chiesa di San Sigismondo ",
			"address": "vion, tn ",
			"GeoCoordinate": {
				"longitude": 11.079864,
				"latitude": 46.307971
			},
			"city": "Predaia"
		},
		{
			"name": "Chiesa di Sant'Agnese ",
			"address": "tres,tn ",
			"GeoCoordinate": {
				"longitude": 11.095507,
				"latitude": 46.321677
			},
			"city": "Predaia"
		},
		{
			"name": "Chiesa dei Santi Filippo e Giacomo ",
			"address": "dermulo ",
			"GeoCoordinate": {
				"longitude": 11.062925,
				"latitude": 46.339064
			},
			"city": "Predaia"
		},
		{
			"name": "Chiesa parrocchiale di Santa Giustina ",
			"address": "dermulo",
			"GeoCoordinate": {
				"longitude": 11.062925,
				"latitude": 46.339064
			},
			"city": "Predaia"
		},
		{
			"name": "Chiesa di Santo Stefano",
			"address": "rev&ograve;",
			"GeoCoordinate": {
				"longitude": 11.058712,
				"latitude": 46.391689
			},
			"city": "Rev\u00f2"
		},
		{
			"name": "Chiesa di San Michele",
			"address": "San Michele, Viale Martiri XXVIII Giugno, Riva del Garda, Provincia autonoma di Trento, Trentino-Alto Adige, 38066, Italia",
			"GeoCoordinate": {
				"longitude": 10.843527,
				"latitude": 45.886723
			},
			"city": "Riva del Garda"
		},
		{
			"name": "Chiesa di Santo Stefano",
			"address": "Roncone",
			"GeoCoordinate": {
				"longitude": 10.670564,
				"latitude": 45.984954
			},
			"city": "Roncone"
		},
		{
			"name": "Cappella di Sant'Anna",
			"address": "rover&egrave; della luna, piazza unit&agrave; d&#039;italia",
			"GeoCoordinate": {
				"longitude": 11.170273,
				"latitude": 46.249839
			},
			"city": "Rover\u00e9 della Luna"
		},
		{
			"name": "Chiesa parrocchiale di Santa Caterina d'Alessandria",
			"address": "rovere della luna, piazza unit&agrave; d&#039;italia",
			"GeoCoordinate": {
				"longitude": 11.170273,
				"latitude": 46.249839
			},
			"city": "Rover\u00e9 della Luna"
		},
		{
			"name": "Chiesa parrocchiale di San Giuseppe",
			"GeoCoordinate": {
				"latitude": 46.080224,
				"longitude": 11.522493
			},
			"address": "samone tn",
			"city": "Samone"
		},
		{
			"name": "Chiesa di San Donato",
			"GeoCoordinate": {
				"latitude": 46.080224,
				"longitude": 11.522493
			},
			"address": "samone tn",
			"city": "Samone"
		},
		{
			"name": "La chiesa antica di San Giorgio",
			"GeoCoordinate": {
				"longitude": 10.896903,
				"latitude": 46.072691
			},
			"city": "San Lorenzo Dorsino"
		},
		{
			"name": "Basilica dei SS. Martiri di Sanzeno",
			"address": "sanzeno",
			"GeoCoordinate": {
				"longitude": 11.074577,
				"latitude": 46.366191
			},
			"city": "Sanzeno"
		},
		{
			"name": "Chiesa di S. Giorgio",
			"GeoCoordinate": {
				"latitude": 0,
				"longitude": 0
			},
			"city": "Sarnonico"
		},
		{
			"name": "Chiesa di S. Lorenzo",
			"GeoCoordinate": {
				"latitude": 0,
				"longitude": 0
			},
			"city": "Sarnonico"
		},
		{
			"name": "Chiesa di S.Maria",
			"GeoCoordinate": {
				"latitude": 0,
				"longitude": 0
			},
			"city": "Sarnonico"
		},
		{
			"name": "Antica chiesa di San Barnaba",
			"address": "Piazza Italia, Bondo, 38087, Sella Giudicarie",
			"GeoCoordinate": {
				"longitude": 10.69187,
				"latitude": 46.000599
			},
			"city": "Sella Giudicarie"
		},
		{
			"name": "Antica Chiesa di Sant'Andrea",
			"address": "Strada statale 237, Breguzzo, 38087, Sella Giudicarie",
			"GeoCoordinate": {
				"longitude": 10.70085,
				"latitude": 46.010506
			},
			"city": "Sella Giudicarie"
		},
		{
			"name": "Nuova chiesa di Sant'Andrea",
			"address": "Strada statale 237, Breguzzo, 38087, Sella Giudicarie",
			"GeoCoordinate": {
				"longitude": 10.6993,
				"latitude": 46.00847
			},
			"city": "Sella Giudicarie"
		},
		{
			"name": "Chiesa di Santo Stefano",
			"address": "Roncone, 38087, Sella Giudicarie",
			"GeoCoordinate": {
				"longitude": 10.671855,
				"latitude": 45.985296
			},
			"city": "Sella Giudicarie"
		},
		{
			"name": "Chiesa di San Vigilio",
			"GeoCoordinate": {
				"latitude": 46.052676,
				"longitude": 10.853631
			},
			"address": "stenico",
			"city": "Stenico"
		},
		{
			"name": "Chiesa di San Pietro e Paolo",
			"GeoCoordinate": {
				"latitude": 46.055562,
				"longitude": 10.883276
			},
			"address": "sclemo",
			"city": "Stenico"
		},
		{
			"name": "Chiesa di San Michele",
			"GeoCoordinate": {
				"latitude": 46.057277,
				"longitude": 10.871687
			},
			"address": "seo stenico",
			"city": "Stenico"
		},
		{
			"name": "Chiesa di Ss. Margherita e Lucia",
			"GeoCoordinate": {
				"latitude": 46.04806,
				"longitude": 10.873502
			},
			"address": "premione stenico",
			"city": "Stenico"
		},
		{
			"name": "Chiesa della Santa Trinit\u00e0",
			"GeoCoordinate": {
				"latitude": 46.04755,
				"longitude": 10.888232
			},
			"address": "villa banale",
			"city": "Stenico"
		},
		{
			"name": "Cappella Bozzoni",
			"GeoCoordinate": {
				"latitude": 0,
				"longitude": 0
			},
			"city": "Tenno"
		},
		{
			"name": "Chiesa dei SS. Pietro e Paolo",
			"address": "Piazza - Terragnolo",
			"GeoCoordinate": {
				"longitude": 11.151917,
				"latitude": 45.878522
			},
			"city": "Terragnolo"
		},
		{
			"name": "Chiesa dell'Immacolata Concezione",
			"address": "Zoreri - Terragnolo",
			"GeoCoordinate": {
				"longitude": 11.184651,
				"latitude": 45.866256
			},
			"city": "Terragnolo"
		},
		{
			"name": "Chiesa della Madonna del Buonconsiglio",
			"address": "Scottini - Terragnolo",
			"GeoCoordinate": {
				"longitude": 11.131098,
				"latitude": 45.884915
			},
			"city": "Terragnolo"
		},
		{
			"name": "Chiesa della Madonna di Caravaggio",
			"address": "Geroli - Terragnolo",
			"GeoCoordinate": {
				"longitude": 11.168922,
				"latitude": 45.865686
			},
			"city": "Terragnolo"
		},
		{
			"name": "Chiesa dei SS. Nicol\u00f2 e Colombano",
			"address": "S. Nicol&ograve; - Terragnolo",
			"GeoCoordinate": {
				"longitude": 11.097892,
				"latitude": 45.871171
			},
			"city": "Terragnolo"
		},
		{
			"name": "Chiesa della Madonna del Carmine",
			"address": "Valduga - Terragnolo",
			"GeoCoordinate": {
				"longitude": 11.128909,
				"latitude": 45.877409
			},
			"city": "Terragnolo"
		},
		{
			"name": "Chiesa di S. Antonio",
			"address": "Perini, Comunit&agrave; della Vallagarina, TN, Trentino-Alto Adige, Italia",
			"GeoCoordinate": {
				"longitude": 11.106465,
				"latitude": 45.878366
			},
			"city": "Terragnolo"
		},
		{
			"name": "Chiesa di S. Maria Maddalena",
			"address": "Camperi - Terragnolo",
			"GeoCoordinate": {
				"longitude": 11.162758,
				"latitude": 45.876277
			},
			"city": "Terragnolo"
		},
		{
			"name": "Chiesa di S. Eliseo",
			"address": "p.zza Chiesa - 38038 Tesero ",
			"GeoCoordinate": {
				"longitude": 11.512338,
				"latitude": 46.288869
			},
			"city": "Tesero"
		},
		{
			"name": "Chiesa di San Leonardo",
			"address": "Via S. Leonardo - 38038 Tesero",
			"GeoCoordinate": {
				"longitude": 11.508809,
				"latitude": 46.291918
			},
			"city": "Tesero"
		},
		{
			"name": "Chiesa SS. Trinit\u00e0 - Ricovero",
			"address": "Via Giovanelli - 38038 Tesero",
			"GeoCoordinate": {
				"longitude": 11.510032,
				"latitude": 46.289115
			},
			"city": "Tesero"
		},
		{
			"name": "Cappella della Palanca",
			"address": "Via Stava - 38038 Tesero",
			"GeoCoordinate": {
				"longitude": 11.508071,
				"latitude": 46.291994
			},
			"city": "Tesero"
		},
		{
			"name": "Chiesa della Madonna delle Grazie",
			"address": " Via - Lago di Tesero ",
			"GeoCoordinate": {
				"longitude": 11.517945,
				"latitude": 46.282165
			},
			"city": "Tesero"
		},
		{
			"name": "Chiesa dei Santi Fabiano e Sebastiano",
			"GeoCoordinate": {
				"latitude": 0,
				"longitude": 0
			},
			"city": "Ton"
		},
		{
			"name": "Chiesa di San Nicol\u00f2",
			"GeoCoordinate": {
				"latitude": 0,
				"longitude": 0
			},
			"city": "Ton"
		},
		{
			"name": "Chiesa di San Vigilio",
			"GeoCoordinate": {
				"latitude": 0,
				"longitude": 0
			},
			"city": "Ton"
		},
		{
			"name": "Chiesa di Santa Maria Assunta",
			"GeoCoordinate": {
				"latitude": 0,
				"longitude": 0
			},
			"city": "Ton"
		},
		{
			"name": "Chiesa parrocchiale",
			"address": "torcegno",
			"GeoCoordinate": {
				"longitude": 11.451462,
				"latitude": 46.074745
			},
			"city": "Torcegno"
		},
		{
			"name": "Cappella Maria Ausiliatrice",
			"address": "torcegno",
			"GeoCoordinate": {
				"longitude": 11.451462,
				"latitude": 46.074745
			},
			"city": "Torcegno"
		},
		{
			"name": "Cappella del cimitero",
			"address": "torcegno",
			"GeoCoordinate": {
				"longitude": 11.451462,
				"latitude": 46.074745
			},
			"city": "Torcegno"
		},
		{
			"name": "Cappella San Rocco",
			"address": "torcegno",
			"GeoCoordinate": {
				"longitude": 11.451462,
				"latitude": 46.074745
			},
			"city": "Torcegno"
		},
		{
			"name": "Garage Parcheggio Duomo - P5",
			"GeoCoordinate": {
				"longitude": 11.115204,
				"latitude": 46.066895
			},
			"city": "Trento"
		},
		{
			"name": "Giardino Valsorda Chiesa",
			"GeoCoordinate": {
				"longitude": 11.155897,
				"latitude": 46.007671
			},
			"city": "Trento"
		},
		{
			"name": "Chiesa paleocristiana sul Doss Trento",
			"GeoCoordinate": {
				"longitude": 11.112092,
				"latitude": 46.072457
			},
			"city": "Trento"
		},
		{
			"name": "Chiesa dei Santi Pietro e Paolo ",
			"GeoCoordinate": {
				"longitude": 11.133812,
				"latitude": 46.132445
			},
			"city": "Trento"
		},
		{
			"name": "Chiesa di San Marco",
			"GeoCoordinate": {
				"longitude": 11.125733,
				"latitude": 46.069904
			},
			"city": "Trento"
		},
		{
			"name": "Chiesa di San Francesco Saverio",
			"GeoCoordinate": {
				"longitude": 11.121038,
				"latitude": 46.06981
			},
			"city": "Trento"
		},
		{
			"name": "Chiesa di Santa Trinit\u00e0",
			"GeoCoordinate": {
				"longitude": 11.124859,
				"latitude": 46.066505
			},
			"city": "Trento"
		},
		{
			"name": "Chiesa di S. Apollinare",
			"GeoCoordinate": {
				"longitude": 11.114627,
				"latitude": 46.070711
			},
			"city": "Trento"
		},
		{
			"name": "Piazza Duomo",
			"GeoCoordinate": {
				"longitude": 11.121251,
				"latitude": 46.067403
			},
			"city": "Trento"
		},
		{
			"name": "La basilica paleocristiana di San Vigilio",
			"GeoCoordinate": {
				"longitude": 11.12176,
				"latitude": 46.066986
			},
			"city": "Trento"
		},
		{
			"name": "Basilica di Santa Maria Maggiore",
			"GeoCoordinate": {
				"longitude": 11.119221,
				"latitude": 46.068642
			},
			"city": "Trento"
		},
		{
			"name": "Chiesa del battesimo di Chiara",
			"GeoCoordinate": {
				"longitude": 11.119666,
				"latitude": 46.068526
			},
			"city": "Trento"
		},
		{
			"name": "Chiesa dell\u2019adorazione",
			"GeoCoordinate": {
				"longitude": 11.123738,
				"latitude": 46.062359
			},
			"city": "Trento"
		},
		{
			"name": "Chiesa dei Cappuccini",
			"GeoCoordinate": {
				"longitude": 11.128721,
				"latitude": 46.073059
			},
			"city": "Trento"
		},
		{
			"name": "Ambulatorio piazza Duomo 11  - Trento",
			"GeoCoordinate": {
				"longitude": 11.121052,
				"latitude": 46.06713
			},
			"city": "Trento"
		},
		{
			"name": "Chiesa di San Pietro",
			"GeoCoordinate": {
				"longitude": 11.124686,
				"latitude": 46.069356
			},
			"city": "Trento"
		},
		{
			"name": "Palazzo Bortolazzi-Cappella del Simonino",
			"GeoCoordinate": {
				"longitude": 11.123759,
				"latitude": 46.068638
			},
			"city": "Trento"
		},
		{
			"name": "DAE di piazza Duomo",
			"GeoCoordinate": {
				"longitude": 11.12134,
				"latitude": 46.067745
			},
			"city": "Trento"
		},
		{
			"name": "Chiesa parrocchiale di San Faustino",
			"GeoCoordinate": {
				"latitude": 0,
				"longitude": 0
			},
			"city": "Treville"
		},
		{
			"name": "Chiesa di San Bartolomeo ",
			"GeoCoordinate": {
				"longitude": 10.620186,
				"latitude": 45.946519
			},
			"city": "Valdaone"
		},
		{
			"name": "Chiesa di San Bartolomeo",
			"address": "Via S. Bartolomeo, Fraveggio 38070 Vezzano, Vallelaghi",
			"GeoCoordinate": {
				"longitude": 10.990105,
				"latitude": 46.079899
			},
			"city": "Vallelaghi"
		},
		{
			"name": "Chiesa di San Lorenzo a Ciago",
			"address": "Via al Belvedere, Ciago 38070 Vezzano, Vallelaghi",
			"GeoCoordinate": {
				"longitude": 11.006649,
				"latitude": 46.089841
			},
			"city": "Vallelaghi"
		},
		{
			"name": "Chiesa di San Pantaleone",
			"GeoCoordinate": {
				"longitude": 11.048303,
				"latitude": 46.089863
			},
			"city": "Vallelaghi"
		},
		{
			"name": "Chiesa parrocchiale di San Nicol\u00f2",
			"address": "Ranzo 38070 Vezzano, Vallelaghi",
			"GeoCoordinate": {
				"longitude": 10.943424,
				"latitude": 46.063833
			},
			"city": "Vallelaghi"
		},
		{
			"name": "Chiesa parrocchiale di Santa Massenza",
			"GeoCoordinate": {
				"longitude": 10.991998,
				"latitude": 46.059165
			},
			"city": "Vallelaghi"
		},
		{
			"name": "Chiesa parrocchiale di Sant'Andrea",
			"address": "Via Roma 12 38070 Terlago, Vallelaghi",
			"GeoCoordinate": {
				"longitude": 11.04524,
				"latitude": 46.097582
			},
			"city": "Vallelaghi"
		},
		{
			"name": "Chiesa parrocchiale Santi Vigilio e Valentino",
			"address": "Piazza S. Valentino 38070 Vezzano, Vallelaghi",
			"GeoCoordinate": {
				"longitude": 11.00085,
				"latitude": 46.078656
			},
			"city": "Vallelaghi"
		},
		{
			"name": "Chiesa parrocchiale dei Santi Filippo e Giacomo",
			"address": "Via Montagnola 11 38070 Padergnone, Vallelaghi",
			"GeoCoordinate": {
				"longitude": 10.990325,
				"latitude": 46.06192
			},
			"city": "Vallelaghi"
		},
		{
			"name": "Chiesa di Santa Maria della Pace",
			"address": "Via Montagnola 75 38070 Padergnone, Vezzano",
			"GeoCoordinate": {
				"longitude": 10.988399,
				"latitude": 46.06154
			},
			"city": "Vallelaghi"
		},
		{
			"name": "Chiesa di Santa Maria Maddalena",
			"address": "Margone 38070 Vezzano, Vallelaghi",
			"GeoCoordinate": {
				"longitude": 10.962682,
				"latitude": 46.068437
			},
			"city": "Vallelaghi"
		},
		{
			"name": "Chiesa, campanile e campane ",
			"address": "varena tn",
			"GeoCoordinate": {
				"longitude": 11.457909,
				"latitude": 46.305309
			},
			"city": "Varena"
		},
		{
			"name": "Chiesa di San Bartolomeo",
			"GeoCoordinate": {
				"latitude": 46.04478,
				"longitude": 11.27637,
				"address": "frazione Vignola 12"
			},
			"city": "Vignola Falesina"
		},
		{
			"name": "Chiesa di S. Biagio",
			"address": "Piazza San Biagio 38010 Nanno, Ville d&#039;Anaunia",
			"GeoCoordinate": {
				"longitude": 11.04906,
				"latitude": 46.314628
			},
			"city": "Ville d'Anaunia"
		},
		{
			"name": "Chiesa di S. Fabiano e Sebastiano",
			"address": "Strada Provinciale 10 38010 Nanno, Ville d&#039;Anaunia",
			"GeoCoordinate": {
				"longitude": 11.039586,
				"latitude": 46.318939
			},
			"city": "Ville d'Anaunia"
		},
		{
			"name": "Chiesa di S. Tommaso",
			"address": "Via di San Tommaso 38010 Portolo, Ville d&#039;Anaunia",
			"GeoCoordinate": {
				"longitude": 11.060362,
				"latitude": 46.302359
			},
			"city": "Ville d'Anaunia"
		},
		{
			"name": "Chiesa di Santa Emerenziana",
			"address": "Strada Provinciale 14 del Lago di Tovel, Ville d&#039;Anaunia, Comunit&agrave; della Val di Non, TN, Trentino-Alto Adige, 38019, Italia",
			"GeoCoordinate": {
				"longitude": 11.009567,
				"latitude": 46.326224
			},
			"city": "Ville d'Anaunia"
		},
		{
			"name": "Chiesa Parrocchiale",
			"GeoCoordinate": {
				"latitude": 0,
				"longitude": 0
			},
			"city": "Volano"
		},
		{
			"name": "Chiesa di San Rocco",
			"GeoCoordinate": {
				"latitude": 0,
				"longitude": 0
			},
			"city": "Volano"
		},
		{
			"name": "Chiesa dei Santi Filippo e Giacomo ",
			"address": "zambana, piazza s.s. giacomo e filippo",
			"GeoCoordinate": {
				"longitude": 11.096472,
				"latitude": 46.151606
			},
			"city": "Zambana"
		},
		{
			"name": "Chiesa dell'Inviolata",
			"GeoCoordinate": {
				"longitude": 10.84266,
				"latitude": 45.888517
			}
		},
		{
			"name": "Chiesa di S. Marco - Rovereto",
			"GeoCoordinate": {
				"longitude": 11.045294,
				"latitude": 45.888708
			}
		},
		{
			"name": "Chiesa di S. Maria Assunta - Villa Lagarina",
			"GeoCoordinate": {
				"longitude": 11.036778,
				"latitude": 45.921435
			}
		},
		{
			"name": "Romeno, chiesa di S. Antonio",
			"GeoCoordinate": {
				"longitude": 11.10713,
				"latitude": 46.38631
			}
		},
		{
			"name": "Sanzeno, basilica dei Santi Martiri",
			"GeoCoordinate": {
				"longitude": 11.063926,
				"latitude": 46.371107
			}
		},
		{
			"name": "Basilica dei SS. Martiri di Sanzeno",
			"GeoCoordinate": {
				"longitude": 11.063926,
				"latitude": 46.371107
			}
		},
		{
			"name": "Chiesa di S. Antonio Abate",
			"GeoCoordinate": {
				"longitude": 10.644115,
				"latitude": 46.111147
			}
		},
		{
			"name": "Chiesa di S. Stefano",
			"GeoCoordinate": {
				"longitude": 10.746781,
				"latitude": 46.17215
			}
		},
		{
			"name": "Chiesa di S. Vigilio - Pinzolo",
			"GeoCoordinate": {
				"longitude": 10.765332,
				"latitude": 46.161256
			}
		},
		{
			"name": "Pelugo, la chiesa",
			"GeoCoordinate": {
				"longitude": 10.644115,
				"latitude": 46.111147
			}
		},
		{
			"name": "Chiesa di S. Lorenzo",
			"GeoCoordinate": {
				"longitude": 10.872259,
				"latitude": 46.012492
			}
		},
		{
			"name": "Massimeno, chiesa di S.Giovanni",
			"GeoCoordinate": {
				"longitude": 10.773043,
				"latitude": 46.140417
			}
		},
		{
			"name": "Pelugo, chiesa di S. Antonio",
			"GeoCoordinate": {
				"longitude": 10.730037,
				"latitude": 46.092307
			}
		},
		{
			"name": "Chiesa di S. Vigilio e Convento dei Francescani",
			"GeoCoordinate": {
				"longitude": 11.460566,
				"latitude": 46.291202
			}
		},
		{
			"name": "Chiesa di S. Maria Assunta - Cavalese",
			"GeoCoordinate": {
				"longitude": 11.460566,
				"latitude": 46.291202
			}
		},
		{
			"name": "Chiesa di S. Biagio",
			"GeoCoordinate": {
				"longitude": 11.331713,
				"latitude": 46.001019
			}
		},
		{
			"name": "Chiesa di S. Valentino",
			"GeoCoordinate": {
				"longitude": 11.276874,
				"latitude": 45.987211
			}
		},
		{
			"name": "Chiesa di S. Ermete",
			"GeoCoordinate": {
				"longitude": 11.244401,
				"latitude": 46.00328
			}
		}
	]
}