{
    "records": [
        {
            "name": "Chiesa dei Santi Pietro e Paolo - Soraga di Fassa ",
            "GeoCoordinate": {
                "longitude": 11.666989,
                "latitude": 46.394776
            },
            "city": "Soraga",
            "StreetType": "Strada",
            "StreetName": "de Gejia",
            "PostalCode": "38030"
        },
        {
            "name": "Cappella della Madonna Immacolata - Soraga ",
            "GeoCoordinate": {
                "longitude": 11.666028,
                "latitude": 46.398607
            },
            "city": "Soraga",
            "StreetType": "Strada",
            "StreetName": "de Barbida",
            "PostalCode": "38030"
        },
        {
            "name": "Chiesa dei Santi Filippo e Giacomo  - Campitello di Fassa ",
            "GeoCoordinate": {
                "longitude": 11.741218,
                "latitude": 46.477716
            },
            "address_additional_information": "Campitello"
        },
        {
            "name": "Chiesa della Beata Maria Vergine - fraz Pian -  Campitello di Fassa ",
            "GeoCoordinate": {
                "longitude": 11.7431,
                "latitude": 46.47996
            },
            "address_additional_information": "Str&egrave;da de Pian, Campitello"
        },
        {
            "name": "Chiesa di San Antonio Abate - Alba di Canazei ",
            "GeoCoordinate": {
                "longitude": 11.77639,
                "latitude": 46.46657
            },
            "city": "Canazei",
            "StreetType": "Via",
            "StreetName": "Soraperra"
        },
        {
            "name": "Chiesa di Nostra Signora del Carmelo - Fontanazzo ",
            "GeoCoordinate": {
                "longitude": 11.72877,
                "latitude": 46.470505
            },
            "city": "Mazzin",
            "address_additional_information": "Fontanazzo, Mazzin"
        },
        {
            "name": "Chiesa della Madonna della Neve - Fraz Gries - Canazei ",
            "GeoCoordinate": {
                "longitude": 11.764037,
                "latitude": 46.478753
            },
            "city": "Canazei",
            "StreetType": "Piaz",
            "StreetName": "de Gries"
        },
        {
            "name": "Chiesa del Sacro Cuore - Canazei ",
            "GeoCoordinate": {
                "longitude": 11.770365,
                "latitude": 46.476778
            },
            "city": "Canazei",
            "address_additional_information": "Str&egrave;da de magoa, Canazei"
        },
        {
            "name": "Chiesa della Madonna di Lourdes - Campestrin ",
            "GeoCoordinate": {
                "longitude": 11.714307,
                "latitude": 46.463171
            },
            "city": "Mazzin",
            "address_additional_information": "Campestrin, Mazzin"
        },
        {
            "name": "Chiesa di san Floriano - Canazei ",
            "GeoCoordinate": {
                "longitude": 11.766672,
                "latitude": 46.47731
            },
            "city": "Canazei",
            "StreetType": "Strada",
            "StreetName": "Dolomiti"
        },
        {
            "name": "Chiesa della Santissima Trinit\u00e0 - Tamion ",
            "GeoCoordinate": {
                "longitude": 11.657489,
                "latitude": 46.406649
            },
            "city": "Ora",
            "StreetType": "Strada",
            "StreetName": "de Sora Pozat",
            "PostalCode": "38039"
        },
        {
            "name": "Chiesa di San Giovanni Nepomuceno - Vallonga - S\u00e8n Jan di Fassa ",
            "GeoCoordinate": {
                "longitude": 11.658989,
                "latitude": 46.412619
            },
            "city": "Vigo di Fassa",
            "PostalCode": "38039"
        },
        {
            "name": "Chiesa di S. Volfango - Moena ",
            "GeoCoordinate": {
                "longitude": 11.6616,
                "latitude": 46.37642
            },
            "city": "Moena",
            "StreetType": "Strada",
            "StreetName": "Don G. Iori",
            "HouseNumber": "10",
            "PostalCode": "38035"
        },
        {
            "name": "Chiesa di san Giovanni Nepomuceno martire - Penia di Moena ",
            "GeoCoordinate": {
                "longitude": 11.635019,
                "latitude": 46.365032
            },
            "city": "Moena",
            "PostalCode": "38035"
        },
        {
            "name": "Chiesa dei Santi Sebastiano e Rocco - Penia di Canazei",
            "GeoCoordinate": {
                "longitude": 11.7972,
                "latitude": 46.458261
            },
            "city": "Canazei",
            "address_additional_information": "Penia, Canazei"
        },
        {
            "name": "Chiesa dei Santi Rocco, Sebastiano e Fabiano - Someda - Moena ",
            "GeoCoordinate": {
                "longitude": 11.67059,
                "latitude": 46.376953
            },
            "city": "Moena",
            "StreetType": "Strada",
            "StreetName": "de Sen Roch",
            "PostalCode": "38035"
        },
        {
            "name": "Chiesa di San Giuseppe - Moena ",
            "GeoCoordinate": {
                "longitude": 11.647789,
                "latitude": 46.374757
            },
            "city": "Moena",
            "StreetType": "Strada",
            "StreetName": "de Sort",
            "PostalCode": "38035"
        },
        {
            "name": "Chiesa di san Lazzaro - Forno - Moena ",
            "GeoCoordinate": {
                "longitude": 11.628056,
                "latitude": 46.348611
            },
            "city": "Moena",
            "StreetType": "Via",
            "StreetName": "san Lazzaro",
            "PostalCode": "38035"
        },
        {
            "name": "Chiesa di S. Giovanni - Vigo di Fassa ",
            "GeoCoordinate": {
                "longitude": 11.674877,
                "latitude": 46.420863
            },
            "city": "Vigo di Fassa",
            "StreetType": "Strada",
            "StreetName": "De La Pieif",
            "HouseNumber": "14",
            "PostalCode": "38039"
        },
        {
            "name": "Chiesa di Santa Maria Maddalena - Mazzin di Fassa ",
            "GeoCoordinate": {
                "longitude": 11.699612,
                "latitude": 46.457308
            },
            "city": "Mazzin",
            "address_additional_information": "Mazzin"
        },
        {
            "name": "Chiesa di S. Giuliana - Vigo di Fassa ",
            "GeoCoordinate": {
                "longitude": 11.738271,
                "latitude": 46.475608
            },
            "city": "Canazei",
            "HouseNumber": "36",
            "PostalCode": "38032"
        },
        {
            "name": "Chiesa di Santa Maria Madre della Chiesa, di san Vigilio e di san Lorenzo - Pera di Fassa ",
            "GeoCoordinate": {
                "longitude": 11.692163,
                "latitude": 46.440208
            },
            "city": "Pera di Fassa",
            "StreetType": "Piaz",
            "StreetName": "Tita"
        },
        {
            "name": "Chiesa di San Nicol\u00f2 - Pozza di Fassa ",
            "GeoCoordinate": {
                "longitude": 11.669439,
                "latitude": 46.419784
            },
            "city": "Pozza di Fassa",
            "StreetType": "Strada",
            "StreetName": "de Piz",
            "PostalCode": "38036"
        },
        {
            "name": "Chiesa di Maria Ausiliatrice - Pozza di Fassa ",
            "GeoCoordinate": {
                "longitude": 11.690253,
                "latitude": 46.43007
            },
            "city": "Pozza di Fassa",
            "StreetType": "Strada",
            "StreetName": "de Meida",
            "PostalCode": "38036"
        },
        {
            "name": "Chiesa di San Antonio - San Pellegrino - Moena ",
            "GeoCoordinate": {
                "longitude": 11.786247,
                "latitude": 46.379014
            },
            "city": "Moena",
            "PostalCode": "38035"
        },
        {
            "name": "Chiesa di S. Vigilio - Moena ",
            "GeoCoordinate": {
                "longitude": 11.6616,
                "latitude": 46.37642
            },
            "city": "Moena",
            "StreetType": "Strada",
            "StreetName": "Don G. Iori",
            "HouseNumber": "10",
            "PostalCode": "38035"
        },
        {
            "name": "Chiesa di Sant'Anna - Medil - Moena ",
            "GeoCoordinate": {
                "longitude": 11.626292,
                "latitude": 46.353833
            },
            "city": "Moena",
            "PostalCode": "38035"
        },
        {
            "name": "Chiesa di san Lorenzo - Pera di Fassa ",
            "GeoCoordinate": {
                "longitude": 11.692163,
                "latitude": 46.440208
            },
            "city": "Pera di Fassa",
            "StreetType": "Piaz",
            "StreetName": "Tita"
        },
        {
            "name": "Chiesa di Sant'Anna - Monzon - Pera di Fassa ",
            "GeoCoordinate": {
                "longitude": 11.690519,
                "latitude": 46.435925
            },
            "city": "Pera di Fassa",
            "address_additional_information": "Monzon, Pera di fassa"
        },
        {
            "name": "Chiesa di S.Antonio da Padova",
            "GeoCoordinate": {
                "longitude": 11.194111,
                "latitude": 46.144362
            },
            "city": "Albiano",
            "address_additional_information": "Albiano tn"
        },
        {
            "name": "Chiesa Nuova",
            "GeoCoordinate": {
                "longitude": 11.194111,
                "latitude": 46.144362
            },
            "city": "Albiano",
            "address_additional_information": "Albiano"
        },
        {
            "name": "Chiesa di S.Biagio",
            "GeoCoordinate": {
                "longitude": 11.194111,
                "latitude": 46.144362
            },
            "city": "Albiano",
            "address_additional_information": "Albiano"
        },
        {
            "name": "Chiesa parrocchiale di Grumes",
            "GeoCoordinate": {
                "longitude": 11.292497,
                "latitude": 46.220339
            },
            "city": "Altavalle",
            "PostalCode": "38030"
        },
        {
            "name": "La chiesa parrocchiale di Grauno",
            "GeoCoordinate": {
                "longitude": 11.298392,
                "latitude": 46.231042
            },
            "city": "Altavalle",
            "PostalCode": "38030"
        },
        {
            "name": "Chiesa Parrocchiale di S. Filippo e S. Giacomo a Faver ",
            "GeoCoordinate": {
                "longitude": 11.237233,
                "latitude": 46.180937
            },
            "city": "Altavalle",
            "PostalCode": "38030"
        },
        {
            "name": "Cappella del Santissimo Crocifisso",
            "GeoCoordinate": {
                "longitude": 11.240689,
                "latitude": 46.18429
            },
            "city": "Altavalle",
            "PostalCode": "38030"
        },
        {
            "name": "Chiesa parrocchiale di Valda ",
            "GeoCoordinate": {
                "longitude": 11.265501,
                "latitude": 46.207653
            },
            "city": "Altavalle",
            "PostalCode": "38030"
        },
        {
            "name": "La Chiesa Collegiata",
            "GeoCoordinate": {
                "longitude": 10.885576,
                "latitude": 45.917861
            },
            "city": "Arco",
            "address_additional_information": "Arco"
        },
        {
            "name": "Chiesa parrocchiale di S. Rocco",
            "GeoCoordinate": {
                "longitude": 11.250003,
                "latitude": 46.126861
            },
            "city": "Baselga di Pin\u00e8",
            "address_additional_information": "miola baselga di pin&egrave;"
        },
        {
            "name": "Chiesa di Sternigo",
            "GeoCoordinate": {
                "longitude": 11.246595,
                "latitude": 46.131489
            },
            "city": "Baselga di Pin\u00e8",
            "address_additional_information": "baselga di pin&egrave;"
        },
        {
            "name": "Chiesa di S. Antonio da Padova",
            "GeoCoordinate": {
                "longitude": 11.264079,
                "latitude": 46.146547
            },
            "city": "Baselga di Pin\u00e8",
            "address_additional_information": "Rizzolaga baselga di pin&egrave;"
        },
        {
            "name": "Chiesa parrocchiale della Trinit\u00e0",
            "GeoCoordinate": {
                "longitude": 11.252834,
                "latitude": 46.10963
            },
            "city": "Baselga di Pin\u00e8",
            "address_additional_information": "Faida baselga di pin&egrave;"
        },
        {
            "name": "Chiesa degli Angeli Custodi",
            "GeoCoordinate": {
                "longitude": 11.24828,
                "latitude": 46.13558
            },
            "city": "Baselga di Pin\u00e8",
            "address_additional_information": "Ricaldo baselga di pin&egrave;"
        },
        {
            "name": "Chiesa di San Mauro",
            "GeoCoordinate": {
                "longitude": 11.222631,
                "latitude": 46.125046
            },
            "city": "Baselga di Pin\u00e8",
            "address_additional_information": "San Mauro di Pin&eacute;"
        },
        {
            "name": "Chiesa parrocchiale di S. Anna",
            "GeoCoordinate": {
                "longitude": 11.236857,
                "latitude": 46.101586
            },
            "city": "Baselga di Pin\u00e8",
            "address_additional_information": "Montagnaga di Pin&eacute;"
        },
        {
            "name": "Chiesa di S. Maria Assunta",
            "GeoCoordinate": {
                "longitude": 11.246595,
                "latitude": 46.131489
            },
            "city": "Baselga di Pin\u00e8",
            "address_additional_information": "baselga di pin&egrave;"
        },
        {
            "name": "La Chiesa di San Biagio",
            "GeoCoordinate": {
                "longitude": 11.554618,
                "latitude": 46.078232
            },
            "city": "Bieno"
        },
        {
            "name": "Chiesa di San Rocco",
            "GeoCoordinate": {
                "longitude": 11.544464,
                "latitude": 46.08304
            },
            "city": "Bieno"
        },
        {
            "name": "Chiesa di San Rocco",
            "GeoCoordinate": {
                "longitude": 10.949557,
                "latitude": 45.817127
            },
            "city": "Brentonico",
            "address_additional_information": "lera brentonico"
        },
        {
            "name": "Chiesa dei Santi Pietro e Paolo",
            "GeoCoordinate": {
                "longitude": 10.949557,
                "latitude": 45.817127
            },
            "city": "Brentonico",
            "address_additional_information": "Brentonico"
        },
        {
            "name": "Piazzale della Chiesa dei Santi Pietro e Paolo",
            "GeoCoordinate": {
                "longitude": 10.949557,
                "latitude": 45.817127
            },
            "city": "Brentonico",
            "address_additional_information": "Brentonico"
        },
        {
            "name": "La Chiesa di Baselga",
            "GeoCoordinate": {
                "latitude": 46.415608,
                "longitude": 10.985737
            },
            "city": "Bresimo"
        },
        {
            "name": "Chiesa di San Valentino",
            "GeoCoordinate": {
                "longitude": 11.040309,
                "latitude": 46.394751
            },
            "city": "Cagn\u00f2",
            "StreetType": "piazza",
            "StreetName": "san valentino"
        },
        {
            "name": "Cappella della Madonna del Rosario di Pompei",
            "GeoCoordinate": {
                "longitude": 11.045358,
                "latitude": 46.391864
            },
            "city": "Cagn\u00f2",
            "StreetType": "Via",
            "StreetName": "Nazionale",
            "PostalCode": "38028"
        },
        {
            "name": "Chiesa parrocchiale di San Bartolomeo ",
            "GeoCoordinate": {
                "longitude": 10.94333,
                "latitude": 46.365324
            },
            "city": "Caldes",
            "StreetType": "Piazza",
            "StreetName": "San Bartolomeo"
        },
        {
            "name": "Chiesa di San Vigilio",
            "GeoCoordinate": {
                "longitude": 10.94089,
                "latitude": 46.36932
            },
            "city": "Caldes",
            "StreetType": "Via",
            "HouseNumber": "19",
            "StreetName": "Dei Tolameotti"
        },
        {
            "name": "Chiesa dei Santi Pietro e Paolo ",
            "GeoCoordinate": {
                "longitude": 10.984224,
                "latitude": 46.387805
            },
            "city": "Caldes",
            "StreetType": "strada",
            "HouseNumber": "42",
            "StreetName": "stale"
        },
        {
            "name": "Chiesa dell\u2019Annunciazione di Maria ",
            "GeoCoordinate": {
                "longitude": 10.976589,
                "latitude": 46.391552
            },
            "city": "Caldes",
            "address_additional_information": "bordiana, caldes"
        },
        {
            "name": "Chiesa della Madonna del Carmine (XVII sec.)",
            "GeoCoordinate": {
                "longitude": 10.971788,
                "latitude": 46.382191
            },
            "city": "Caldes",
            "address_additional_information": "tozzaga, caldes"
        },
        {
            "name": "Chiesa di S.Tommaso apostolo ",
            "GeoCoordinate": {
                "longitude": 10.9605,
                "latitude": 46.37643
            },
            "city": "Caldes",
            "StreetType": "via",
            "HouseNumber": "18",
            "StreetName": "michele comini"
        },
        {
            "name": "Chiesa di S. Giacomo (XVI sec.)",
            "GeoCoordinate": {
                "longitude": 10.962446,
                "latitude": 46.38006
            },
            "city": "Caldes",
            "address_additional_information": "san giacomo, caldes"
        },
        {
            "name": "Chiesa di San Lorenzo",
            "GeoCoordinate": {
                "longitude": 11.09421,
                "latitude": 45.93473
            },
            "city": "Calliano",
            "StreetType": "Via",
            "StreetName": "Valentini",
            "HouseNumber": "15",
            "PostalCode": "38060"
        },
        {
            "name": "Chiesa ed Eremo di San Pancrazio",
            "GeoCoordinate": {
                "longitude": 11.020698,
                "latitude": 46.261332
            },
            "city": "Campodenno",
            "PostalCode": "38010"
        },
        {
            "name": "Chiesa di Sant'Egidio a Quetta",
            "GeoCoordinate": {
                "longitude": 11.048083,
                "latitude": 46.26012
            },
            "city": "Campodenno",
            "PostalCode": "38010"
        },
        {
            "name": "Chiesa di San Giovanni Battista a Termon",
            "GeoCoordinate": {
                "longitude": 11.035638,
                "latitude": 46.268942
            },
            "city": "Campodenno",
            "PostalCode": "38010"
        },
        {
            "name": "Chiesa di San Maurizio a Campodenno",
            "GeoCoordinate": {
                "longitude": 11.037424,
                "latitude": 46.25683
            },
            "city": "Campodenno",
            "PostalCode": "38010"
        },
        {
            "name": "Chiesa di Santo Stefano a Dercolo",
            "GeoCoordinate": {
                "longitude": 11.048926,
                "latitude": 46.247842
            },
            "city": "Campodenno",
            "PostalCode": "38010"
        },
        {
            "name": "Chiesa dell'Immacolata a Lover",
            "GeoCoordinate": {
                "longitude": 11.026073,
                "latitude": 46.247534
            },
            "city": "Campodenno",
            "PostalCode": "38010"
        },
        {
            "name": "Chiesa di S. Michele Arcangelo a Maso Sant'Angelo",
            "GeoCoordinate": {
                "longitude": 11.057739,
                "latitude": 46.257197
            },
            "city": "Campodenno",
            "PostalCode": "38010"
        },
        {
            "name": "Chiesa parrocchiale",
            "GeoCoordinate": {
                "latitude": 0,
                "longitude": 0
            },
            "city": "Capriana"
        },
        {
            "name": "Chiesa di Carbonare",
            "GeoCoordinate": {
                "latitude": 0,
                "longitude": 0
            },
            "city": "Capriana"
        },
        {
            "name": "La chiesa di San Nicol\u00f2",
            "GeoCoordinate": {
                "latitude": 46.292136,
                "longitude": 11.440759
            },
            "city": "Carano"
        },
        {
            "name": "La chiesa di Aguai",
            "GeoCoordinate": {
                "latitude": 46.292136,
                "longitude": 11.440759
            },
            "city": "Carano"
        },
        {
            "name": "Chiesa di San Giorgio",
            "GeoCoordinate": {
                "longitude": 10.602074,
                "latitude": 45.914395
            },
            "city": "Castel Condino"
        },
        {
            "name": "La Cappella dei Morti",
            "GeoCoordinate": {
                "longitude": 10.602674,
                "latitude": 45.914455
            },
            "city": "Castel Condino"
        },
        {
            "name": "Chiesa di Sant\u2019Antonio Abate - Dovena",
            "GeoCoordinate": {
                "longitude": 11.129841,
                "latitude": 46.454883
            },
            "city": "Castelfondo",
            "address_additional_information": "Dovena - Castelfondo"
        },
        {
            "name": "Chiesa della Madonna del Rosario - Raina",
            "GeoCoordinate": {
                "longitude": 11.119578,
                "latitude": 46.45893
            },
            "city": "Castelfondo",
            "address_additional_information": "Raina - Castelfondo"
        },
        {
            "name": "Chiesa parrocchiale di san Nicol\u00f2 vescovo",
            "GeoCoordinate": {
                "longitude": 11.116506,
                "latitude": 46.453388
            },
            "city": "Castelfondo",
            "address_additional_information": "Castelfondo"
        },
        {
            "name": "Chiesa di Masi di Cavalese: S.S. Trinit\u00e0",
            "GeoCoordinate": {
                "longitude": 11.485761,
                "latitude": 46.28328
            },
            "city": "Cavalese",
            "PostalCode": "38033"
        },
        {
            "name": "Chiesa di San Vigilio e Convento del Padri Francescani",
            "GeoCoordinate": {
                "longitude": 11.457877,
                "latitude": 46.292118
            },
            "city": "Cavalese",
            "StreetType": "Via",
            "PostalCode": "38033"
        },
        {
            "name": "Chiesa di San Sebastiano e Fabiano e torre campanaria",
            "GeoCoordinate": {
                "longitude": 11.459577,
                "latitude": 46.291639
            },
            "city": "Cavalese",
            "StreetType": "Piazza",
            "StreetName": "Cesare Battisti"
        },
        {
            "name": "Chiesa della Madonna Addolorata",
            "GeoCoordinate": {
                "longitude": 11.461825,
                "latitude": 46.28638
            },
            "city": "Cavalese",
            "address_additional_information": "Chiesa dell&#039;Addolorata, Passeggiata Santa Maria della Lasta, Cavalese, Comunit&agrave; territoriale della Val di Fiemme, TN, Trentino-Alto Adige,"
        },
        {
            "name": "Chiesa parrocchiale San Lorenzo",
            "GeoCoordinate": {
                "longitude": 11.027494,
                "latitude": 46.183277
            },
            "city": "Cavedago",
            "address_additional_information": "San Lorenzo .- Cavedago"
        },
        {
            "name": "Chiesa San Tommaso - Cimitero",
            "GeoCoordinate": {
                "longitude": 11.021349,
                "latitude": 46.18609
            },
            "city": "Cavedago",
            "address_additional_information": "San Tommaso - Cavedago"
        },
        {
            "name": "Chiesa di San Pietro",
            "GeoCoordinate": {
                "longitude": 11.219112,
                "latitude": 46.175076
            },
            "city": "Cembralisignago",
            "StreetType": "Piazza",
            "StreetName": "San Pietro",
            "PostalCode": "38034"
        },
        {
            "name": "Chiesa di San Biagio",
            "GeoCoordinate": {
                "longitude": 11.186185,
                "latitude": 46.160706
            },
            "city": "Cembralisignago",
            "StreetType": "Piazza",
            "StreetName": "della Chiesa",
            "PostalCode": "38034"
        },
        {
            "name": "Chiesa di San Leonardo",
            "GeoCoordinate": {
                "longitude": 11.187633,
                "latitude": 46.147744
            },
            "city": "Cembralisignago",
            "StreetType": "Via",
            "StreetName": "Trento",
            "PostalCode": "38041"
        },
        {
            "name": "Chiesa di S. Maria Assunta",
            "GeoCoordinate": {
                "longitude": 11.035761,
                "latitude": 46.364566
            },
            "city": "Cles",
            "address_additional_information": "cles"
        },
        {
            "name": "Chiesa di S. Tommaso (Dres)",
            "GeoCoordinate": {
                "longitude": 11.033343,
                "latitude": 46.373179
            },
            "city": "Cles",
            "address_additional_information": "Dres, Cles"
        },
        {
            "name": "Chiesa dei Ss. Pietro e Paolo (Maiano)",
            "GeoCoordinate": {
                "longitude": 11.04285,
                "latitude": 46.361971
            },
            "city": "Cles"
        },
        {
            "name": "Chiesa di S. Lucia (Caltron)",
            "GeoCoordinate": {
                "longitude": 11.027808,
                "latitude": 46.372843
            },
            "city": "Cles"
        },
        {
            "name": "Chiesa di San Vigilio (Pez)",
            "GeoCoordinate": {
                "longitude": 11.036719,
                "latitude": 46.363498
            },
            "city": "Cles",
            "address_additional_information": "pez cles"
        },
        {
            "name": "Chiesa di San Felice",
            "GeoCoordinate": {
                "longitude": 10.130141,
                "latitude": 44.291519
            },
            "city": "Comano Terme",
            "address_additional_information": "Comano"
        },
        {
            "name": "Chiesa della Madonna di Loreto",
            "GeoCoordinate": {
                "longitude": 10.881153,
                "latitude": 46.332673
            },
            "city": "Dimaro Folgarida",
            "StreetType": "Via",
            "StreetName": "Brescia",
            "PostalCode": "38025"
        },
        {
            "name": "Chiesa di San Vigilio",
            "GeoCoordinate": {
                "longitude": 10.88574,
                "latitude": 46.33568
            },
            "city": "Dimaro Folgarida",
            "StreetType": "Via",
            "StreetName": "San Vigilio",
            "PostalCode": "38020"
        },
        {
            "name": "Chiesa di S. Lorenzo",
            "GeoCoordinate": {
                "longitude": 10.877151,
                "latitude": 46.326354
            },
            "city": "Dimaro Folgarida",
            "StreetType": "Via",
            "StreetName": "alla Chiesa",
            "HouseNumber": "8",
            "PostalCode": "38025"
        },
        {
            "name": "Chiesa di S. Giovanni battista a Carciato",
            "GeoCoordinate": {
                "longitude": 10.883557,
                "latitude": 46.324475
            },
            "city": "Dimaro Folgarida",
            "StreetType": "Piazza",
            "StreetName": "S. Giovanni",
            "PostalCode": "38025"
        },
        {
            "name": "Chiesa Santa Maria del Carmine",
            "GeoCoordinate": {
                "longitude": 10.945666,
                "latitude": 45.970821
            },
            "city": "Drena",
            "address_additional_information": "drena"
        },
        {
            "name": "Chiesa San Vigilio",
            "GeoCoordinate": {
                "longitude": 10.945666,
                "latitude": 45.970821
            },
            "city": "Drena",
            "address_additional_information": "drena"
        },
        {
            "name": "Chiesa di San Martino",
            "GeoCoordinate": {
                "longitude": 11.207213,
                "latitude": 46.117901
            },
            "city": "Fornace",
            "address_additional_information": "fornace"
        },
        {
            "name": "Chiesa di Sant'Antonio",
            "GeoCoordinate": {
                "longitude": 11.207213,
                "latitude": 46.117901
            },
            "city": "Fornace",
            "address_additional_information": "fornace"
        },
        {
            "name": "Chiesa di San Rocco",
            "GeoCoordinate": {
                "longitude": 11.207213,
                "latitude": 46.117901
            },
            "city": "Fornace",
            "address_additional_information": "fornace"
        },
        {
            "name": "Chiesa di Santo Stefano",
            "GeoCoordinate": {
                "longitude": 11.207213,
                "latitude": 46.117901
            },
            "city": "Fornace",
            "address_additional_information": "fornace"
        },
        {
            "name": "Chiesa cinquecentesca",
            "GeoCoordinate": {
                "latitude": 46.089663,
                "longitude": 11.297549
            },
            "city": "Frassilongo",
            "address_additional_information": "frassilongo"
        },
        {
            "name": "Chiesa di S. Osvaldo",
            "GeoCoordinate": {
                "longitude": 11.091127,
                "latitude": 46.004593
            },
            "city": "Garniga Terme",
            "address_additional_information": "loc. Sant Osvaldo"
        },
        {
            "name": "Chiesa del Sacro Cuore di Ges\u00f9",
            "GeoCoordinate": {
                "longitude": 11.08719,
                "latitude": 46.001553
            },
            "city": "Garniga Terme",
            "StreetType": "Piazza",
            "StreetName": "don Pietro Simion"
        },
        {
            "name": "Chiesa di Santa Maria Assunta",
            "GeoCoordinate": {
                "longitude": 11.154259,
                "latitude": 46.158093
            },
            "city": "Giovo",
            "address_additional_information": "Verla di Giovo"
        },
        {
            "name": "Chiesa di S. Floriano",
            "GeoCoordinate": {
                "longitude": 11.167909,
                "latitude": 46.172602
            },
            "city": "Giovo",
            "address_additional_information": "san Floriano Giovo"
        },
        {
            "name": "Chiesa di Sant'Antonio",
            "GeoCoordinate": {
                "longitude": 11.154259,
                "latitude": 46.158093
            },
            "city": "Giovo",
            "address_additional_information": "Verla di Giovo"
        },
        {
            "name": "Chiesa di San Giorgio",
            "GeoCoordinate": {
                "longitude": 11.152455,
                "latitude": 46.155879
            },
            "city": "Giovo",
            "address_additional_information": "Giovo"
        },
        {
            "name": "Chiesa parrocchiale del Redentore ",
            "GeoCoordinate": {
                "longitude": 11.301059,
                "latitude": 46.011974
            },
            "city": "Levico Terme"
        },
        {
            "name": "Chiesa di San Martino",
            "GeoCoordinate": {
                "latitude": 46.40311,
                "longitude": 11.01971
            },
            "city": "Livo",
            "address_additional_information": "livo tn"
        },
        {
            "name": "Chiesa Nativit\u00e0 di S. Maria",
            "GeoCoordinate": {
                "latitude": 46.398185,
                "longitude": 11.021841
            },
            "city": "Livo"
        },
        {
            "name": "Chiesa di S. Antonio a Preghena",
            "GeoCoordinate": {
                "latitude": 46.409468,
                "longitude": 11.013003
            },
            "city": "Livo",
            "address_additional_information": "preghena"
        },
        {
            "name": "Chiesa SS.Immacolata a Scanna",
            "GeoCoordinate": {
                "latitude": 46.396204,
                "longitude": 11.02574
            },
            "city": "Livo",
            "address_additional_information": "scanna livo"
        },
        {
            "name": "Cappella Madruzziana - Calavino",
            "GeoCoordinate": {
                "longitude": 10.985309,
                "latitude": 46.046857
            },
            "city": "Madruzzo",
            "address_additional_information": "Madruzzo, Trentino-Alto Adige, Italia"
        },
        {
            "name": "Cappella del rosario - Calavino",
            "GeoCoordinate": {
                "longitude": 10.985309,
                "latitude": 46.046846
            },
            "city": "Madruzzo",
            "address_additional_information": "Madruzzo, Trentino-Alto Adige, Italia"
        },
        {
            "name": "Chiesa Lauretana - Madruzzo",
            "GeoCoordinate": {
                "longitude": 10.986886,
                "latitude": 46.036524
            },
            "city": "Madruzzo",
            "PostalCode": "38076"
        },
        {
            "name": "Chiesa parrocchiale della Nativit\u00e0 - Pergolese",
            "GeoCoordinate": {
                "longitude": 10.959828,
                "latitude": 46.026595
            },
            "city": "Madruzzo",
            "PostalCode": "38076"
        },
        {
            "name": "Chiesa parrocchiale SS Pietro e Paolo - Lasino",
            "GeoCoordinate": {
                "longitude": 10.98253,
                "latitude": 46.026767
            },
            "city": "Madruzzo",
            "PostalCode": "38076"
        },
        {
            "name": "Cappella del Santo Crocifisso - Lasino",
            "GeoCoordinate": {
                "longitude": 10.98451,
                "latitude": 46.02743
            },
            "city": "Madruzzo",
            "PostalCode": "38076"
        },
        {
            "name": "Chiesa dei Santi Grato, Mauro e Giacomo - Calavino",
            "GeoCoordinate": {
                "longitude": 10.976865,
                "latitude": 46.047312
            },
            "city": "Madruzzo",
            "PostalCode": "38076"
        },
        {
            "name": "Chiesa della Madonna del Carmelo - Sarche",
            "GeoCoordinate": {
                "longitude": 10.953308,
                "latitude": 46.047677
            },
            "city": "Madruzzo",
            "PostalCode": "38076"
        },
        {
            "name": "Chiesa di SS. Trinit\u00e0 - Calavino",
            "GeoCoordinate": {
                "longitude": 10.984048,
                "latitude": 46.043203
            },
            "city": "Madruzzo",
            "PostalCode": "38076"
        },
        {
            "name": "Chiesa parrocchiale di San Floriano e Santa Maria - Calavino",
            "GeoCoordinate": {
                "longitude": 10.985293,
                "latitude": 46.046865
            },
            "city": "Madruzzo",
            "PostalCode": "38076"
        },
        {
            "name": "Chiesa di Santa Maddalena Penitente, abside",
            "GeoCoordinate": {
                "longitude": 11.699612,
                "latitude": 46.457308
            },
            "city": "Mazzin",
            "address_additional_information": "mazzin"
        },
        {
            "name": "Chiesa pievana di S. Maria Assunta",
            "GeoCoordinate": {
                "longitude": 11.119249,
                "latitude": 46.21679
            },
            "city": "Mezzocorona",
            "StreetType": "Piazza",
            "StreetName": "della Chiesa",
            "HouseNumber": "21"
        },
        {
            "name": "Chiesa di San Vigilio",
            "GeoCoordinate": {
                "longitude": 10.965146,
                "latitude": 46.141734
            },
            "city": "Molveno",
            "address_additional_information": "Molveno"
        },
        {
            "name": "Chiesa di San Borromeo",
            "GeoCoordinate": {
                "longitude": 10.965146,
                "latitude": 46.141734
            },
            "city": "Molveno",
            "address_additional_information": "Molveno"
        },
        {
            "name": "Chiesa di S. Tomaso",
            "GeoCoordinate": {
                "latitude": 46.303296,
                "longitude": 11.059458
            },
            "city": "Nanno"
        },
        {
            "name": "Chiesa di S. Fabiano e Sebastiano",
            "GeoCoordinate": {
                "latitude": 46.321107,
                "longitude": 11.033556
            },
            "city": "Nanno"
        },
        {
            "name": "Chiesa di S. Biagio",
            "GeoCoordinate": {
                "latitude": 46.316094,
                "longitude": 11.046502
            },
            "city": "Nanno"
        },
        {
            "name": "La Chiesa di S.Valentino di Noarna",
            "GeoCoordinate": {
                "latitude": 45.91491,
                "longitude": 11.022841
            },
            "city": "Nogaredo"
        },
        {
            "name": "Chiesa di San Giorgio a Peio paese",
            "GeoCoordinate": {
                "longitude": 10.673533,
                "latitude": 46.36278
            },
            "city": "Peio",
            "address_additional_information": "peio"
        },
        {
            "name": "Chiesa di Ss. Filippo e Giacomo a Cogolo ",
            "GeoCoordinate": {
                "longitude": 10.696544,
                "latitude": 46.347795
            },
            "city": "Peio",
            "address_additional_information": "cogolo"
        },
        {
            "name": "Chiesa di San Bartolomeo a Pegaia ",
            "GeoCoordinate": {
                "longitude": 10.689204,
                "latitude": 46.361967
            },
            "city": "Peio",
            "address_additional_information": "chiesetta di pegaia"
        },
        {
            "name": "Chiesa di San Matteo a Comasine ",
            "GeoCoordinate": {
                "longitude": 10.705443,
                "latitude": 46.328501
            },
            "city": "Peio",
            "address_additional_information": "comasine"
        },
        {
            "name": "Chiesa di San Agostino ",
            "GeoCoordinate": {
                "longitude": 10.717729,
                "latitude": 46.329462
            },
            "city": "Peio",
            "address_additional_information": "celentino"
        },
        {
            "name": "Chiesa di San Camillo a Peio Fonti ",
            "GeoCoordinate": {
                "longitude": 10.665073,
                "latitude": 46.35441
            },
            "city": "Peio"
        },
        {
            "name": "Chiesa cimiteriale di Sant'Antonio Abate",
            "GeoCoordinate": {
                "latitude": 46.087643,
                "longitude": 10.724535
            },
            "city": "Pelugo",
            "address_additional_information": "pelugo tn"
        },
        {
            "name": "Chiesa parrocchiale di San Zeno",
            "GeoCoordinate": {
                "latitude": 46.087643,
                "longitude": 10.724535
            },
            "city": "Pelugo",
            "address_additional_information": "pelugo tn"
        },
        {
            "name": "Chiesa Arcipretale",
            "GeoCoordinate": {
                "latitude": 0,
                "longitude": 0
            },
            "city": "Pieve Tesino"
        },
        {
            "name": "Chiesa e Colle di San Sebastiano",
            "GeoCoordinate": {
                "latitude": 0,
                "longitude": 0
            },
            "city": "Pieve Tesino"
        },
        {
            "name": "Chiesa di Sant'Antonio ",
            "GeoCoordinate": {
                "longitude": 10.76007,
                "latitude": 46.170223
            },
            "city": "Pinzolo",
            "address_additional_information": "pinzolo, Trentino-Alto Adige, Italia"
        },
        {
            "name": "Chiesa di San Lorenzo",
            "GeoCoordinate": {
                "longitude": 10.76547,
                "latitude": 46.159246
            },
            "city": "Pinzolo",
            "address_additional_information": "pinzolo, Trentino-Alto Adige, Italia"
        },
        {
            "name": "La Chiesa di San Vigilio",
            "GeoCoordinate": {
                "longitude": 10.764729,
                "latitude": 46.16486
            },
            "city": "Pinzolo",
            "address_additional_information": "pinzolo, Trentino-Alto Adige, Italia"
        },
        {
            "name": "Cappella di San Rocco",
            "GeoCoordinate": {
                "longitude": 10.719647,
                "latitude": 46.076104
            },
            "city": "Porte di Rendena",
            "StreetType": "Via",
            "StreetName": "Sarco",
            "PostalCode": "38094"
        },
        {
            "name": "Chiesa di San Lorenzo",
            "GeoCoordinate": {
                "longitude": 10.719379,
                "latitude": 46.07853
            },
            "city": "Porte di Rendena",
            "StreetType": "Via",
            "StreetName": "IV Novembre",
            "PostalCode": "38094"
        },
        {
            "name": "Chiesa Ss. Fabiano e Sebastiano a Verdesina",
            "GeoCoordinate": {
                "longitude": 10.712802,
                "latitude": 46.055752
            },
            "city": "Porte di Rendena",
            "PostalCode": "38094"
        },
        {
            "name": "Chiesa di Santa Maria Assunta a Javr\u00e8",
            "GeoCoordinate": {
                "longitude": 10.712233,
                "latitude": 46.067804
            },
            "city": "Porte di Rendena",
            "StreetType": "Via",
            "StreetName": "Nazionale",
            "HouseNumber": "173",
            "PostalCode": "38094"
        },
        {
            "name": "Chiesa parrocchiale di San Martino ",
            "GeoCoordinate": {
                "longitude": 10.712453,
                "latitude": 46.062701
            },
            "city": "Porte di Rendena",
            "StreetType": "Strada",
            "HouseNumber": "239",
            "StreetName": "Statale",
            "PostalCode": "38094"
        },
        {
            "name": "Chiesa di Santa Maria Ausiliatrice (Pozza)",
            "GeoCoordinate": {
                "longitude": 11.685717,
                "latitude": 46.430689
            },
            "city": "Pozza di Fassa",
            "address_additional_information": "Pozza di Fassa"
        },
        {
            "name": "Chiesa di San Lorenzo (Pera)",
            "GeoCoordinate": {
                "longitude": 11.690519,
                "latitude": 46.435925
            },
            "city": "Pozza di Fassa",
            "address_additional_information": "Pera di Fassa"
        },
        {
            "name": "Chiesa della Madonna del Rosario (Pera)",
            "GeoCoordinate": {
                "longitude": 11.690519,
                "latitude": 46.435925
            },
            "city": "Pozza di Fassa",
            "address_additional_information": "Pera di Fassa"
        },
        {
            "name": "Chiesa del romitaggio di Santa Giustina ",
            "GeoCoordinate": {
                "longitude": 11.062925,
                "latitude": 46.339064
            },
            "city": "Predaia",
            "address_additional_information": "dermulo"
        },
        {
            "name": "Chiesa di San Marcello",
            "GeoCoordinate": {
                "longitude": 11.082546,
                "latitude": 46.28619
            },
            "city": "Predaia",
            "address_additional_information": "dardine"
        },
        {
            "name": "Chiesa di San Marco Evangelista ",
            "GeoCoordinate": {
                "longitude": 11.068172,
                "latitude": 46.294617
            },
            "city": "Predaia",
            "address_additional_information": "mollaro "
        },
        {
            "name": "Chiesa della nativit\u00e0 di Maria ",
            "GeoCoordinate": {
                "longitude": 11.074963,
                "latitude": 46.306328
            },
            "city": "Predaia",
            "address_additional_information": "segno, taio "
        },
        {
            "name": "Chiesa di S.Eusebio ",
            "GeoCoordinate": {
                "longitude": 8.945912,
                "latitude": 41.763403
            },
            "city": "Predaia",
            "address_additional_information": "torra, taio"
        },
        {
            "name": "Chiesa di San Rocco confessore ",
            "GeoCoordinate": {
                "longitude": 11.080733,
                "latitude": 46.296368
            },
            "city": "Predaia",
            "address_additional_information": "tuenetto "
        },
        {
            "name": "Chiesa di San Rocco ",
            "GeoCoordinate": {
                "longitude": 11.095507,
                "latitude": 46.321677
            },
            "city": "Predaia",
            "address_additional_information": "tres,tn "
        },
        {
            "name": "Chiesa di San Sigismondo ",
            "GeoCoordinate": {
                "longitude": 11.079864,
                "latitude": 46.307971
            },
            "city": "Predaia",
            "address_additional_information": "vion, tn "
        },
        {
            "name": "Chiesa di Sant'Agnese ",
            "GeoCoordinate": {
                "longitude": 11.095507,
                "latitude": 46.321677
            },
            "city": "Predaia",
            "address_additional_information": "tres,tn "
        },
        {
            "name": "Chiesa dei Santi Filippo e Giacomo ",
            "GeoCoordinate": {
                "longitude": 11.062925,
                "latitude": 46.339064
            },
            "city": "Predaia",
            "address_additional_information": "dermulo "
        },
        {
            "name": "Chiesa parrocchiale di Santa Giustina ",
            "GeoCoordinate": {
                "longitude": 11.062925,
                "latitude": 46.339064
            },
            "city": "Predaia",
            "address_additional_information": "dermulo"
        },
        {
            "name": "Chiesa di Santo Stefano",
            "GeoCoordinate": {
                "longitude": 11.058712,
                "latitude": 46.391689
            },
            "city": "Rev\u00f2",
            "address_additional_information": "rev&ograve;"
        },
        {
            "name": "Chiesa di San Michele",
            "GeoCoordinate": {
                "longitude": 10.843527,
                "latitude": 45.886723
            },
            "city": "Riva del Garda",
            "StreetType": "Viale",
            "PostalCode": "38066"
        },
        {
            "name": "Chiesa di Santo Stefano",
            "GeoCoordinate": {
                "longitude": 10.670564,
                "latitude": 45.984954
            },
            "city": "Roncone",
            "address_additional_information": "Roncone"
        },
        {
            "name": "Cappella di Sant'Anna",
            "GeoCoordinate": {
                "longitude": 11.170273,
                "latitude": 46.249839
            },
            "city": "Rover\u00e9 della Luna",
            "StreetType": "piazza"
        },
        {
            "name": "Chiesa parrocchiale di Santa Caterina d'Alessandria",
            "GeoCoordinate": {
                "longitude": 11.170273,
                "latitude": 46.249839
            },
            "city": "Rover\u00e9 della Luna",
            "StreetType": "piazza"
        },
        {
            "name": "Chiesa parrocchiale di San Giuseppe",
            "GeoCoordinate": {
                "latitude": 46.080224,
                "longitude": 11.522493
            },
            "city": "Samone",
            "address_additional_information": "samone tn"
        },
        {
            "name": "Chiesa di San Donato",
            "GeoCoordinate": {
                "latitude": 46.080224,
                "longitude": 11.522493
            },
            "city": "Samone",
            "address_additional_information": "samone tn"
        },
        {
            "name": "La chiesa antica di San Giorgio",
            "GeoCoordinate": {
                "longitude": 10.896903,
                "latitude": 46.072691
            },
            "city": "San Lorenzo Dorsino"
        },
        {
            "name": "Basilica dei SS. Martiri di Sanzeno",
            "GeoCoordinate": {
                "longitude": 11.074577,
                "latitude": 46.366191
            },
            "city": "Sanzeno",
            "address_additional_information": "sanzeno"
        },
        {
            "name": "Chiesa di S. Giorgio",
            "GeoCoordinate": {
                "latitude": 0,
                "longitude": 0
            },
            "city": "Sarnonico"
        },
        {
            "name": "Chiesa di S. Lorenzo",
            "GeoCoordinate": {
                "latitude": 0,
                "longitude": 0
            },
            "city": "Sarnonico"
        },
        {
            "name": "Chiesa di S.Maria",
            "GeoCoordinate": {
                "latitude": 0,
                "longitude": 0
            },
            "city": "Sarnonico"
        },
        {
            "name": "Antica chiesa di San Barnaba",
            "GeoCoordinate": {
                "longitude": 10.69187,
                "latitude": 46.000599
            },
            "city": "Sella Giudicarie",
            "StreetType": "Piazza",
            "StreetName": "Italia",
            "PostalCode": "38087"
        },
        {
            "name": "Antica Chiesa di Sant'Andrea",
            "GeoCoordinate": {
                "longitude": 10.70085,
                "latitude": 46.010506
            },
            "city": "Sella Giudicarie",
            "StreetType": "Strada",
            "HouseNumber": "237",
            "StreetName": "statale",
            "PostalCode": "38087"
        },
        {
            "name": "Nuova chiesa di Sant'Andrea",
            "GeoCoordinate": {
                "longitude": 10.6993,
                "latitude": 46.00847
            },
            "city": "Sella Giudicarie",
            "StreetType": "Strada",
            "HouseNumber": "237",
            "StreetName": "statale",
            "PostalCode": "38087"
        },
        {
            "name": "Chiesa di Santo Stefano",
            "GeoCoordinate": {
                "longitude": 10.671855,
                "latitude": 45.985296
            },
            "city": "Sella Giudicarie",
            "PostalCode": "38087"
        },
        {
            "name": "Chiesa di San Vigilio",
            "GeoCoordinate": {
                "latitude": 46.052676,
                "longitude": 10.853631
            },
            "city": "Stenico",
            "address_additional_information": "stenico"
        },
        {
            "name": "Chiesa di San Pietro e Paolo",
            "GeoCoordinate": {
                "latitude": 46.055562,
                "longitude": 10.883276
            },
            "city": "Stenico",
            "address_additional_information": "sclemo"
        },
        {
            "name": "Chiesa di San Michele",
            "GeoCoordinate": {
                "latitude": 46.057277,
                "longitude": 10.871687
            },
            "city": "Stenico",
            "address_additional_information": "seo stenico"
        },
        {
            "name": "Chiesa di Ss. Margherita e Lucia",
            "GeoCoordinate": {
                "latitude": 46.04806,
                "longitude": 10.873502
            },
            "city": "Stenico",
            "address_additional_information": "premione stenico"
        },
        {
            "name": "Chiesa della Santa Trinit\u00e0",
            "GeoCoordinate": {
                "latitude": 46.04755,
                "longitude": 10.888232
            },
            "city": "Stenico",
            "address_additional_information": "villa banale"
        },
        {
            "name": "Cappella Bozzoni",
            "GeoCoordinate": {
                "latitude": 0,
                "longitude": 0
            },
            "city": "Tenno"
        },
        {
            "name": "Chiesa dei SS. Pietro e Paolo",
            "GeoCoordinate": {
                "longitude": 11.151917,
                "latitude": 45.878522
            },
            "city": "Terragnolo",
            "StreetType": "Piazza",
            "StreetName": ""
        },
        {
            "name": "Chiesa dell'Immacolata Concezione",
            "GeoCoordinate": {
                "longitude": 11.184651,
                "latitude": 45.866256
            },
            "city": "Terragnolo",
            "address_additional_information": "Zoreri - Terragnolo"
        },
        {
            "name": "Chiesa della Madonna del Buonconsiglio",
            "GeoCoordinate": {
                "longitude": 11.131098,
                "latitude": 45.884915
            },
            "city": "Terragnolo",
            "address_additional_information": "Scottini - Terragnolo"
        },
        {
            "name": "Chiesa della Madonna di Caravaggio",
            "GeoCoordinate": {
                "longitude": 11.168922,
                "latitude": 45.865686
            },
            "city": "Terragnolo",
            "address_additional_information": "Geroli - Terragnolo"
        },
        {
            "name": "Chiesa dei SS. Nicol\u00f2 e Colombano",
            "GeoCoordinate": {
                "longitude": 11.097892,
                "latitude": 45.871171
            },
            "city": "Terragnolo",
            "address_additional_information": "S. Nicol&ograve; - Terragnolo"
        },
        {
            "name": "Chiesa della Madonna del Carmine",
            "GeoCoordinate": {
                "longitude": 11.128909,
                "latitude": 45.877409
            },
            "city": "Terragnolo",
            "address_additional_information": "Valduga - Terragnolo"
        },
        {
            "name": "Chiesa di S. Antonio",
            "GeoCoordinate": {
                "longitude": 11.106465,
                "latitude": 45.878366
            },
            "city": "Terragnolo",
            "address_additional_information": "Perini, Comunit&agrave; della Vallagarina, TN, Trentino-Alto Adige, Italia"
        },
        {
            "name": "Chiesa di S. Maria Maddalena",
            "GeoCoordinate": {
                "longitude": 11.162758,
                "latitude": 45.876277
            },
            "city": "Terragnolo",
            "address_additional_information": "Camperi - Terragnolo"
        },
        {
            "name": "Chiesa di S. Eliseo",
            "GeoCoordinate": {
                "longitude": 11.512338,
                "latitude": 46.288869
            },
            "city": "Tesero",
            "PostalCode": "38038"
        },
        {
            "name": "Chiesa di San Leonardo",
            "GeoCoordinate": {
                "longitude": 11.508809,
                "latitude": 46.291918
            },
            "city": "Tesero",
            "StreetType": "Via",
            "StreetName": "S. Leonardo",
            "PostalCode": "38038"
        },
        {
            "name": "Chiesa SS. Trinit\u00e0 - Ricovero",
            "GeoCoordinate": {
                "longitude": 11.510032,
                "latitude": 46.289115
            },
            "city": "Tesero",
            "StreetType": "Via",
            "StreetName": "Giovanelli",
            "PostalCode": "38038"
        },
        {
            "name": "Cappella della Palanca",
            "GeoCoordinate": {
                "longitude": 11.508071,
                "latitude": 46.291994
            },
            "city": "Tesero",
            "StreetType": "Via",
            "StreetName": "Stava",
            "PostalCode": "38038"
        },
        {
            "name": "Chiesa della Madonna delle Grazie",
            "GeoCoordinate": {
                "longitude": 11.517945,
                "latitude": 46.282165
            },
            "city": "Tesero",
            "StreetType": "Via",
            "StreetName": ""
        },
        {
            "name": "Chiesa dei Santi Fabiano e Sebastiano",
            "GeoCoordinate": {
                "latitude": 0,
                "longitude": 0
            },
            "city": "Ton"
        },
        {
            "name": "Chiesa di San Nicol\u00f2",
            "GeoCoordinate": {
                "latitude": 0,
                "longitude": 0
            },
            "city": "Ton"
        },
        {
            "name": "Chiesa di San Vigilio",
            "GeoCoordinate": {
                "latitude": 0,
                "longitude": 0
            },
            "city": "Ton"
        },
        {
            "name": "Chiesa di Santa Maria Assunta",
            "GeoCoordinate": {
                "latitude": 0,
                "longitude": 0
            },
            "city": "Ton"
        },
        {
            "name": "Chiesa parrocchiale",
            "GeoCoordinate": {
                "longitude": 11.451462,
                "latitude": 46.074745
            },
            "city": "Torcegno",
            "address_additional_information": "torcegno"
        },
        {
            "name": "Cappella Maria Ausiliatrice",
            "GeoCoordinate": {
                "longitude": 11.451462,
                "latitude": 46.074745
            },
            "city": "Torcegno",
            "address_additional_information": "torcegno"
        },
        {
            "name": "Cappella del cimitero",
            "GeoCoordinate": {
                "longitude": 11.451462,
                "latitude": 46.074745
            },
            "city": "Torcegno",
            "address_additional_information": "torcegno"
        },
        {
            "name": "Cappella San Rocco",
            "GeoCoordinate": {
                "longitude": 11.451462,
                "latitude": 46.074745
            },
            "city": "Torcegno",
            "address_additional_information": "torcegno"
        },
        {
            "name": "Garage Parcheggio Duomo - P5",
            "GeoCoordinate": {
                "longitude": 11.115204,
                "latitude": 46.066895
            },
            "city": "Trento"
        },
        {
            "name": "Giardino Valsorda Chiesa",
            "GeoCoordinate": {
                "longitude": 11.155897,
                "latitude": 46.007671
            },
            "city": "Trento"
        },
        {
            "name": "Chiesa paleocristiana sul Doss Trento",
            "GeoCoordinate": {
                "longitude": 11.112092,
                "latitude": 46.072457
            },
            "city": "Trento"
        },
        {
            "name": "Chiesa dei Santi Pietro e Paolo ",
            "GeoCoordinate": {
                "longitude": 11.133812,
                "latitude": 46.132445
            },
            "city": "Trento"
        },
        {
            "name": "Chiesa di San Marco",
            "GeoCoordinate": {
                "longitude": 11.125733,
                "latitude": 46.069904
            },
            "city": "Trento"
        },
        {
            "name": "Chiesa di San Francesco Saverio",
            "GeoCoordinate": {
                "longitude": 11.121038,
                "latitude": 46.06981
            },
            "city": "Trento"
        },
        {
            "name": "Chiesa di Santa Trinit\u00e0",
            "GeoCoordinate": {
                "longitude": 11.124859,
                "latitude": 46.066505
            },
            "city": "Trento"
        },
        {
            "name": "Chiesa di S. Apollinare",
            "GeoCoordinate": {
                "longitude": 11.114627,
                "latitude": 46.070711
            },
            "city": "Trento"
        },
        {
            "name": "Piazza Duomo",
            "GeoCoordinate": {
                "longitude": 11.121251,
                "latitude": 46.067403
            },
            "city": "Trento"
        },
        {
            "name": "La basilica paleocristiana di San Vigilio",
            "GeoCoordinate": {
                "longitude": 11.12176,
                "latitude": 46.066986
            },
            "city": "Trento"
        },
        {
            "name": "Basilica di Santa Maria Maggiore",
            "GeoCoordinate": {
                "longitude": 11.119221,
                "latitude": 46.068642
            },
            "city": "Trento"
        },
        {
            "name": "Chiesa del battesimo di Chiara",
            "GeoCoordinate": {
                "longitude": 11.119666,
                "latitude": 46.068526
            },
            "city": "Trento"
        },
        {
            "name": "Chiesa dell\u2019adorazione",
            "GeoCoordinate": {
                "longitude": 11.123738,
                "latitude": 46.062359
            },
            "city": "Trento"
        },
        {
            "name": "Chiesa dei Cappuccini",
            "GeoCoordinate": {
                "longitude": 11.128721,
                "latitude": 46.073059
            },
            "city": "Trento"
        },
        {
            "name": "Ambulatorio piazza Duomo 11  - Trento",
            "GeoCoordinate": {
                "longitude": 11.121052,
                "latitude": 46.06713
            },
            "city": "Trento"
        },
        {
            "name": "Chiesa di San Pietro",
            "GeoCoordinate": {
                "longitude": 11.124686,
                "latitude": 46.069356
            },
            "city": "Trento"
        },
        {
            "name": "Palazzo Bortolazzi-Cappella del Simonino",
            "GeoCoordinate": {
                "longitude": 11.123759,
                "latitude": 46.068638
            },
            "city": "Trento"
        },
        {
            "name": "DAE di piazza Duomo",
            "GeoCoordinate": {
                "longitude": 11.12134,
                "latitude": 46.067745
            },
            "city": "Trento"
        },
        {
            "name": "Chiesa parrocchiale di San Faustino",
            "GeoCoordinate": {
                "latitude": 0,
                "longitude": 0
            },
            "city": "Treville"
        },
        {
            "name": "Chiesa di San Bartolomeo ",
            "GeoCoordinate": {
                "longitude": 10.620186,
                "latitude": 45.946519
            },
            "city": "Valdaone"
        },
        {
            "name": "Chiesa di San Bartolomeo",
            "GeoCoordinate": {
                "longitude": 10.990105,
                "latitude": 46.079899
            },
            "city": "Vallelaghi",
            "StreetType": "Via",
            "StreetName": "S. Bartolomeo",
            "PostalCode": "38070"
        },
        {
            "name": "Chiesa di San Lorenzo a Ciago",
            "GeoCoordinate": {
                "longitude": 11.006649,
                "latitude": 46.089841
            },
            "city": "Vallelaghi",
            "StreetType": "Via",
            "StreetName": "al Belvedere",
            "PostalCode": "38070"
        },
        {
            "name": "Chiesa di San Pantaleone",
            "GeoCoordinate": {
                "longitude": 11.048303,
                "latitude": 46.089863
            },
            "city": "Vallelaghi"
        },
        {
            "name": "Chiesa parrocchiale di San Nicol\u00f2",
            "GeoCoordinate": {
                "longitude": 10.943424,
                "latitude": 46.063833
            },
            "city": "Vallelaghi",
            "PostalCode": "38070"
        },
        {
            "name": "Chiesa parrocchiale di Santa Massenza",
            "GeoCoordinate": {
                "longitude": 10.991998,
                "latitude": 46.059165
            },
            "city": "Vallelaghi"
        },
        {
            "name": "Chiesa parrocchiale di Sant'Andrea",
            "GeoCoordinate": {
                "longitude": 11.04524,
                "latitude": 46.097582
            },
            "city": "Vallelaghi",
            "StreetType": "Via",
            "HouseNumber": "12",
            "StreetName": "Roma",
            "PostalCode": "38070"
        },
        {
            "name": "Chiesa parrocchiale Santi Vigilio e Valentino",
            "GeoCoordinate": {
                "longitude": 11.00085,
                "latitude": 46.078656
            },
            "city": "Vallelaghi",
            "StreetType": "Piazza",
            "PostalCode": "38070",
            "StreetName": "S. Valentino"
        },
        {
            "name": "Chiesa parrocchiale dei Santi Filippo e Giacomo",
            "GeoCoordinate": {
                "longitude": 10.990325,
                "latitude": 46.06192
            },
            "city": "Vallelaghi",
            "StreetType": "Via",
            "HouseNumber": "11",
            "StreetName": "Montagnola",
            "PostalCode": "38070"
        },
        {
            "name": "Chiesa di Santa Maria della Pace",
            "GeoCoordinate": {
                "longitude": 10.988399,
                "latitude": 46.06154
            },
            "city": "Vallelaghi",
            "StreetType": "Via",
            "HouseNumber": "75",
            "StreetName": "Montagnola",
            "PostalCode": "38070"
        },
        {
            "name": "Chiesa di Santa Maria Maddalena",
            "GeoCoordinate": {
                "longitude": 10.962682,
                "latitude": 46.068437
            },
            "city": "Vallelaghi",
            "PostalCode": "38070"
        },
        {
            "name": "Chiesa, campanile e campane ",
            "GeoCoordinate": {
                "longitude": 11.457909,
                "latitude": 46.305309
            },
            "city": "Varena",
            "address_additional_information": "varena tn"
        },
        {
            "name": "Chiesa di San Bartolomeo",
            "GeoCoordinate": {
                "latitude": 46.04478,
                "longitude": 11.27637
            },
            "city": "Vignola Falesina"
        },
        {
            "name": "Chiesa di S. Biagio",
            "GeoCoordinate": {
                "longitude": 11.04906,
                "latitude": 46.314628
            },
            "city": "Ville d'Anaunia",
            "StreetType": "Piazza",
            "PostalCode": "38010",
            "StreetName": "San Biagio"
        },
        {
            "name": "Chiesa di S. Fabiano e Sebastiano",
            "GeoCoordinate": {
                "longitude": 11.039586,
                "latitude": 46.318939
            },
            "city": "Ville d'Anaunia",
            "StreetType": "Strada",
            "HouseNumber": "10",
            "StreetName": "Provinciale",
            "PostalCode": "38010"
        },
        {
            "name": "Chiesa di S. Tommaso",
            "GeoCoordinate": {
                "longitude": 11.060362,
                "latitude": 46.302359
            },
            "city": "Ville d'Anaunia",
            "StreetType": "Via",
            "PostalCode": "38010",
            "StreetName": "di San Tommaso"
        },
        {
            "name": "Chiesa di Santa Emerenziana",
            "GeoCoordinate": {
                "longitude": 11.009567,
                "latitude": 46.326224
            },
            "city": "Ville d'Anaunia",
            "StreetType": "Strada",
            "HouseNumber": "14",
            "StreetName": "Provinciale",
            "PostalCode": "38019"
        },
        {
            "name": "Chiesa Parrocchiale",
            "GeoCoordinate": {
                "latitude": 0,
                "longitude": 0
            },
            "city": "Volano"
        },
        {
            "name": "Chiesa di San Rocco",
            "GeoCoordinate": {
                "latitude": 0,
                "longitude": 0
            },
            "city": "Volano"
        },
        {
            "name": "Chiesa dei Santi Filippo e Giacomo ",
            "GeoCoordinate": {
                "longitude": 11.096472,
                "latitude": 46.151606
            },
            "city": "Zambana",
            "StreetType": "piazza"
        },
        {
            "name": "Chiesa dell'Inviolata",
            "GeoCoordinate": {
                "longitude": 10.84266,
                "latitude": 45.888517
            }
        },
        {
            "name": "Chiesa di S. Marco - Rovereto",
            "GeoCoordinate": {
                "longitude": 11.045294,
                "latitude": 45.888708
            }
        },
        {
            "name": "Chiesa di S. Maria Assunta - Villa Lagarina",
            "GeoCoordinate": {
                "longitude": 11.036778,
                "latitude": 45.921435
            }
        },
        {
            "name": "Romeno, chiesa di S. Antonio",
            "GeoCoordinate": {
                "longitude": 11.10713,
                "latitude": 46.38631
            }
        },
        {
            "name": "Sanzeno, basilica dei Santi Martiri",
            "GeoCoordinate": {
                "longitude": 11.063926,
                "latitude": 46.371107
            }
        },
        {
            "name": "Basilica dei SS. Martiri di Sanzeno",
            "GeoCoordinate": {
                "longitude": 11.063926,
                "latitude": 46.371107
            }
        },
        {
            "name": "Chiesa di S. Antonio Abate",
            "GeoCoordinate": {
                "longitude": 10.644115,
                "latitude": 46.111147
            }
        },
        {
            "name": "Chiesa di S. Stefano",
            "GeoCoordinate": {
                "longitude": 10.746781,
                "latitude": 46.17215
            }
        },
        {
            "name": "Chiesa di S. Vigilio - Pinzolo",
            "GeoCoordinate": {
                "longitude": 10.765332,
                "latitude": 46.161256
            }
        },
        {
            "name": "Pelugo, la chiesa",
            "GeoCoordinate": {
                "longitude": 10.644115,
                "latitude": 46.111147
            }
        },
        {
            "name": "Chiesa di S. Lorenzo",
            "GeoCoordinate": {
                "longitude": 10.872259,
                "latitude": 46.012492
            }
        },
        {
            "name": "Massimeno, chiesa di S.Giovanni",
            "GeoCoordinate": {
                "longitude": 10.773043,
                "latitude": 46.140417
            }
        },
        {
            "name": "Pelugo, chiesa di S. Antonio",
            "GeoCoordinate": {
                "longitude": 10.730037,
                "latitude": 46.092307
            }
        },
        {
            "name": "Chiesa di S. Vigilio e Convento dei Francescani",
            "GeoCoordinate": {
                "longitude": 11.460566,
                "latitude": 46.291202
            }
        },
        {
            "name": "Chiesa di S. Maria Assunta - Cavalese",
            "GeoCoordinate": {
                "longitude": 11.460566,
                "latitude": 46.291202
            }
        },
        {
            "name": "Chiesa di S. Biagio",
            "GeoCoordinate": {
                "longitude": 11.331713,
                "latitude": 46.001019
            }
        },
        {
            "name": "Chiesa di S. Valentino",
            "GeoCoordinate": {
                "longitude": 11.276874,
                "latitude": 45.987211
            }
        },
        {
            "name": "Chiesa di S. Ermete",
            "GeoCoordinate": {
                "longitude": 11.244401,
                "latitude": 46.00328
            }
        }
    ]
}