{"records": [{"id": 2037, "geometry": {"type": "Point"}, "name": "Centro Diurno per Anziani", "address": "Piazza Degasperi 6 38041 Albiano", "GeoCoordinate": [11.194938, 46.143827], "city": "Albiano"}, {"id": 3225, "name": "Anziani", "address": {"latitude": 0, "longitude": 0, "address": ""}, "city": "Borgo Chiese"}, {"id": 2027, "geometry": {"type": "Point"}, "name": "Centro Anziani", "address": "Viale Stazione, 2 - Caldonazzo", "GeoCoordinate": [11.262162, 45.991744], "city": "Caldonazzo"}, {"id": 957082, "geometry": {"type": "Point"}, "name": "Centro servizi anziani \"Contrada Larga\" -  via Belenzani", "GeoCoordinate": [11.121536, 46.067971], "city": "Trento"}, {"id": 957090, "geometry": {"type": "Point"}, "name": "Centro diurno e centro servizi anziani \"Il Girasole\" - Clarina", "GeoCoordinate": [11.124525, 46.053503], "city": "Trento"}, {"id": 931901, "geometry": {"type": "Point"}, "name": "Centro diurno e centro servizi anziani \"Sempreverde\" - Mattarello", "GeoCoordinate": [11.128143, 46.005492], "city": "Trento"}, {"id": 931904, "geometry": {"type": "Point"}, "name": "Centro diurno anziani Povo", "GeoCoordinate": [11.159524, 46.06583], "city": "Trento"}, {"id": 931909, "geometry": {"type": "Point"}, "name": "Centro diurno e centro servizi anziani Povo", "GeoCoordinate": [11.159524, 46.06583], "city": "Trento"}, {"id": 931911, "geometry": {"type": "Point"}, "name": "Centro diurno e centro servizi anziani \"Filo Fil\u00f2\" -  Ravina", "GeoCoordinate": [11.107446, 46.038407], "city": "Trento"}, {"id": 933751, "geometry": {"type": "Point"}, "name": "Centro diurno e centro servizi per anziani Gardolo", "GeoCoordinate": [11.110889, 46.109412], "city": "Trento"}]}