{"records": [{"GeoShape": {"type": "Point", "GeoCoordinate": {"longitude": 11.101784621099084, "latitude": 46.08133717696771}}, "HouseNumber": "3", "address": "LOC. LA VELA", "city": "TRENTO", "name": "SCUOLA PRIMARIA S. VIGILIO - VELA", "SchoolType": "elementary"}, {"GeoShape": {"type": "Point", "GeoCoordinate": {"longitude": 11.145992607899611, "latitude": 46.04874985708001}}, "HouseNumber": "7", "address": "P.ZZA MONS. G.P. NICOLINI-VILLAZZANO", "city": "TRENTO-VILLAZZANO", "name": "SCUOLA PRIMARIA G.A. TOMASI - VILLAZZANO", "SchoolType": "elementary"}, {"GeoShape": {"type": "Point", "GeoCoordinate": {"longitude": 11.128675230502047, "latitude": 46.00597570730354}}, "HouseNumber": "11", "address": "VIA G. POLI-MATTARELLO", "city": "TRENTO-MATTARELLO", "name": "SCUOLA PRIMARIA MATTARELLO", "SchoolType": "elementary"}, {"GeoShape": {"type": "Point", "GeoCoordinate": {"longitude": 11.10530925032744, "latitude": 46.01931884989}}, "HouseNumber": "6", "address": "VIA AI COMUNI-ROMAGNANO", "city": "TRENTO-ROMAGNANO", "name": "SCUOLA PRIMARIA ROMAGNANO", "SchoolType": "elementary"}, {"GeoShape": {"type": "Point", "GeoCoordinate": {"longitude": 11.154319094415394, "latitude": 46.064528213450956}}, "HouseNumber": "6", "address": "VIA DEI RIVI-POVO", "city": "TRENTO-POVO", "name": "SCUOLA PRIMARIA U. MOGGIOLI - POVO", "SchoolType": "elementary"}, {"GeoShape": {"type": "Point", "GeoCoordinate": {"longitude": 11.145253963676527, "latitude": 46.07217277580028}}, "HouseNumber": "27", "address": "VIA ALLE CAMPANELLE-COGNOLA", "city": "TRENTO-COGNOLA", "name": "SCUOLA PRIMARIA CASA SERENA - COGNOLA", "SchoolType": "elementary"}, {"GeoShape": {"type": "Point", "GeoCoordinate": {"longitude": 11.139814589706715, "latitude": 46.074092873092724}}, "HouseNumber": "169", "address": "VIA S. VITO-COGNOLA", "city": "TRENTO-COGNOLA", "name": "SCUOLA PRIMARIA R. BELENZANI - S. VITO", "SchoolType": "elementary"}, {"GeoShape": {"type": "Point", "GeoCoordinate": {"longitude": 11.129461730384236, "latitude": 46.055919922384284}}, "HouseNumber": "2", "address": "VIA A. FOGAZZARO", "city": "TRENTO", "name": "SCUOLA PRIMARIA A. NICOLODI - TRENTO", "SchoolType": "elementary"}, {"GeoShape": {"type": "Point", "GeoCoordinate": {"longitude": 11.1267039958901, "latitude": 46.052075359044586}}, "HouseNumber": "13", "address": "VIA L. EINAUDI", "city": "TRENTO", "name": "SCUOLA PRIMARIA CLARINA -TRENTO", "SchoolType": "elementary"}, {"GeoShape": {"type": "Point", "GeoCoordinate": {"longitude": 11.12085325976845, "latitude": 46.053423124607974}}, "HouseNumber": "103", "address": "VIA S. PIO X", "city": "TRENTO", "name": "SCUOLA PRIMARIA D. SAVIO - TRENTO", "SchoolType": "elementary"}, {"GeoShape": {"type": "Point", "GeoCoordinate": {"longitude": 11.13404232164838, "latitude": 46.03972623553722}}, "HouseNumber": "91", "address": "PIAZZALE EUROPA", "city": "TRENTO", "name": "SCUOLA PRIMARIA MADONNA BIANCA - TRENTO", "SchoolType": "elementary"}, {"GeoShape": {"type": "Point", "GeoCoordinate": {"longitude": 11.10826686887593, "latitude": 46.03795632399838}}, "HouseNumber": "5", "address": "VIA DELLE MASERE-RAVINA", "city": "TRENTO-RAVINA", "name": "SCUOLA PRIMARIA RAVINA", "SchoolType": "elementary"}, {"GeoShape": {"type": "Point", "GeoCoordinate": {"longitude": 11.125341462519795, "latitude": 46.07221763674278}}, "HouseNumber": "13", "address": "PIAZZA R. SANZIO", "city": "TRENTO", "name": "SCUOLA PRIMARIA R. SANZIO - TRENTO", "SchoolType": "elementary"}, {"GeoShape": {"type": "Point", "GeoCoordinate": {"longitude": 11.120412922004794, "latitude": 46.07730484903178}}, "HouseNumber": "3", "address": "VIA A. STOPPANI", "city": "TRENTO", "name": "SCUOLA PRIMARIA S. BELLESINI - TRENTO", "SchoolType": "elementary"}, {"GeoShape": {"type": "Point", "GeoCoordinate": {"longitude": 11.120236615293399, "latitude": 46.0653368430111}}, "HouseNumber": "4", "address": "VIA G.B. BORSIERI", "city": "TRENTO", "name": "SCUOLA PRIMARIA PARITARIA MARIA SS. BAMBINA - TRENTO", "SchoolType": "elementary"}, {"GeoShape": {"type": "Point", "GeoCoordinate": {"longitude": 11.128582759359613, "latitude": 46.07039502976239}}, "HouseNumber": "5", "address": "VIA DELLA SALUGA", "city": "TRENTO", "name": "SCUOLA PRIMARIA PARITARIA SACRA FAMIGLIA - TRENTO", "SchoolType": "elementary"}, {"GeoShape": {"type": "Point", "GeoCoordinate": {"longitude": 11.120295259053572, "latitude": 46.08822093359245}}, "HouseNumber": "22", "address": "VIA DEI SOLTERI", "city": "TRENTO", "name": "SCUOLA PRIMARIA A. GORFER - SOLTERI", "SchoolType": "elementary"}, {"GeoShape": {"type": "Point", "GeoCoordinate": {"longitude": 11.117012795912217, "latitude": 46.082256956226836}}, "HouseNumber": "79", "address": "VIA LAVISOTTO", "city": "TRENTO", "name": "SCUOLA PRIMARIA A. SCHMID - CRISTO RE", "SchoolType": "elementary"}, {"GeoShape": {"type": "Point", "GeoCoordinate": {"longitude": 11.096871131761478, "latitude": 46.06409474948869}}, "HouseNumber": "1", "address": "VIA DELLA TORESELA-SARDAGNA", "city": "TRENTO-SARDAGNA", "name": "SCUOLA PRIMARIA A. DEGASPERI - SARDAGNA", "SchoolType": "elementary"}, {"GeoShape": {"type": "Point", "GeoCoordinate": {"longitude": 11.110480571229829, "latitude": 46.13488859608467}}, "city": "LAVIS", "name": "SCUOLA PRIMARIA G. GRAZIOLI -  LAVIS", "SchoolType": "elementary"}, {"GeoShape": {"type": "Point", "GeoCoordinate": {"longitude": 11.11531989302976, "latitude": 46.12472350595207}}, "HouseNumber": "40", "address": "VIA DELLE TRE CROCI-MEANO", "city": "TRENTO-MEANO", "name": "SCUOLA PRIMARIA E. DE CARLI - MEANO", "SchoolType": "elementary"}, {"GeoShape": {"type": "Point", "GeoCoordinate": {"longitude": 11.135736312105104, "latitude": 46.133851739508714}}, "HouseNumber": "21", "address": "VIA ALLE OSELERE-VIGO MEANO", "city": "TRENTO-MEANO-VIGO MEANO", "name": "SCUOLA PRIMARIA I. CALVINO - VIGO MEANO", "SchoolType": "elementary"}, {"GeoShape": {"type": "Point", "GeoCoordinate": {"longitude": 11.065751175165262, "latitude": 46.08944385261005}}, "HouseNumber": "7", "address": "VIA DI COLTURA-CADINE", "city": "TRENTO-CADINE", "name": "SCUOLA PRIMARIA G.A. SLOP VON CADENBERG - CADINE", "SchoolType": "elementary"}, {"GeoShape": {"type": "Point", "GeoCoordinate": {"longitude": 11.111148122406462, "latitude": 46.10517800081422}}, "HouseNumber": "42/1", "address": "VIA IV NOVEMBRE-GARDOLO", "city": "TRENTO-GARDOLO", "name": "SCUOLA PRIMARIA F.LLI PIGARELLI - GARDOLO", "SchoolType": "elementary"}, {"GeoShape": {"type": "Point", "GeoCoordinate": {"longitude": 11.110528233090445, "latitude": 46.10971851154845}}, "HouseNumber": "5/B", "address": "VIA SANT'ANNA-GARDOLO", "city": "TRENTO-GARDOLO", "name": "SCUOLA PRIMARIA S. ANNA - GARDOLO", "SchoolType": "elementary"}, {"GeoShape": {"type": "Point", "GeoCoordinate": {"longitude": 11.1198000782461, "latitude": 46.067665116998704}}, "HouseNumber": "4", "address": "PIAZZA SANTA T. VERZERI", "city": "TRENTO", "name": "SCUOLA PRIMARIA SACRO CUORE", "SchoolType": "elementary"}, {"GeoShape": {"type": "Point", "GeoCoordinate": {"longitude": 11.138711997701915, "latitude": 46.040711357533574}}, "HouseNumber": "86", "address": "VIA E. CONCI", "city": "TRENTO", "name": "ASSOCIAZIONE PEDAGOGICA STEINERIANA", "SchoolType": "elementary"}, {"GeoShape": {"type": "Point", "GeoCoordinate": {"longitude": 11.121622928061393, "latitude": 46.061445458400975}}, "HouseNumber": "23", "address": "VIA C. ENDRICI", "city": "TRENTO", "name": "SCUOLA PRIMARIA ARCIVESCOVILE", "SchoolType": "elementary"}, {"GeoShape": {"type": "Point", "GeoCoordinate": {"longitude": 11.110329803788908, "latitude": 46.13524105123429}}, "city": "LAVIS", "name": "SCUOLA PRIMARIA C. CLEMENTI - LAVIS", "SchoolType": "elementary"}, {"GeoShape": {"type": "Point", "GeoCoordinate": {"longitude": 11.060388805381168, "latitude": 46.073558490379426}}, "HouseNumber": "1", "address": "VIA CAINELLI", "city": "TRENTO-SOPRAMONTE", "name": "SCUOLA PRIMARIA S. PERTINI - SOPRAMONTE", "SchoolType": "elementary"}, {"GeoShape": {"type": "Point", "GeoCoordinate": {"longitude": 11.131654196881456, "latitude": 46.09023248633862}}, "HouseNumber": "1", "address": "PIAZZA G. MENGHIN-MARTIGNANO", "city": "TRENTO-MARTIGNANO", "name": "SCUOLA PRIMARIA R. ZANDONAI - MARTIGNANO", "SchoolType": "elementary"}, {"GeoShape": {"type": "Point", "GeoCoordinate": {"longitude": 11.143376865386557, "latitude": 46.07520386423552}}, "HouseNumber": "2/1", "address": "VIA PONTE ALTO-COGNOLA", "city": "TRENTO-COGNOLA", "name": "SCUOLA PRIMARIA E. BERNARDI - COGNOLA", "SchoolType": "elementary"}, {"GeoShape": {"type": "Point", "GeoCoordinate": {"longitude": 11.11942118098673, "latitude": 46.05569239892536}}, "HouseNumber": "4", "address": "VIA R. ZANDONAI", "city": "TRENTO", "name": "SCUOLA PRIMARIA G.B. DE GASPARI - TRENTO", "SchoolType": "elementary"}, {"GeoShape": {"type": "Point", "GeoCoordinate": {"longitude": 11.12548441691497, "latitude": 46.06466435880798}}, "HouseNumber": "8", "address": "VIA SAN GIOVANNI BOSCO ", "city": "TRENTO", "name": "SCUOLA PRIMARIA F. CRISPI - TRENTO ", "SchoolType": "elementary"}, {"GeoShape": {"type": "Point", "GeoCoordinate": {"longitude": 11.146308612943347, "latitude": 46.04781161521967}}, "HouseNumber": "1", "address": "SALITA DEI MOLINI", "city": "VILLAZZANO", "name": "SCUOLA INFANZIA  VILLAZZANO - SEZ. DISTACCATA", "SchoolType": "nursery"}, {"GeoShape": {"type": "Point", "GeoCoordinate": {"longitude": 11.119861178754446, "latitude": 46.03908023162736}}, "HouseNumber": "11", "address": "VIA DEL PONTE", "city": "RAVINA", "name": "CAMPO NOMADI RAVINA", "SchoolType": "nursery"}, {"GeoShape": {"type": "Point", "GeoCoordinate": {"longitude": 11.110329803788908, "latitude": 46.13524105123429}}, "name": "SCUOLA INFANZIA MADDALENA DI CANOSSA - LAVIS", "SchoolType": "nursery"}, {"GeoShape": {"type": "Point", "GeoCoordinate": {"longitude": 11.13242223440593, "latitude": 46.055465499448346}}, "HouseNumber": "84", "address": "VIA GOCCIADORO", "city": "TRENTO", "name": "SCUOLA INFANZIA CROSINA SARTORI", "SchoolType": "nursery"}, {"GeoShape": {"type": "Point", "GeoCoordinate": {"longitude": 11.131185901404653, "latitude": 46.064569890657914}}, "HouseNumber": "6", "address": "VIA B. GIOVANELLI", "city": "TRENTO", "name": "SCUOLA INFANZIA GIANNI RODARI", "SchoolType": "nursery"}, {"GeoShape": {"type": "Point", "GeoCoordinate": {"longitude": 11.13962758638512, "latitude": 46.0412452260027}}, "HouseNumber": "10", "address": "VIA E. CONCI", "city": "TRENTO", "name": "SCUOLA INFANZIA VILLAZZANO TRE - L'OFFICINA DEGLI GNOMI", "SchoolType": "nursery"}, {"GeoShape": {"type": "Point", "GeoCoordinate": {"longitude": 11.107508708850558, "latitude": 46.03863831586688}}, "HouseNumber": "8", "address": "VIA PER BELVEDERE", "city": "RAVINA", "name": "SCUOLA INFANZIA RAVINA - GIROTONDO", "SchoolType": "nursery"}, {"GeoShape": {"type": "Point", "GeoCoordinate": {"longitude": 11.122382327867205, "latitude": 46.06525135528726}}, "HouseNumber": "10", "address": "VIA AL TORRIONE", "city": "TRENTO", "name": "SCUOLA INFANZIA TORRIONE", "SchoolType": "nursery"}, {"GeoShape": {"type": "Point", "GeoCoordinate": {"longitude": 11.105381958527023, "latitude": 46.01638367245853}}, "HouseNumber": "2", "address": "VIA DELLE PREDE", "city": "ROMAGNANO", "name": "SCUOLA INFANZIA ROMAGNANO - GLI GNOMI DEL BOSCO", "SchoolType": "nursery"}, {"GeoShape": {"type": "Point", "GeoCoordinate": {"longitude": 11.114277368343465, "latitude": 46.07151286730557}}, "HouseNumber": "86", "address": "VIA DOS TRENTO", "city": "TRENTO", "name": "SCUOLA INFANZIA PIEDICASTELLO", "SchoolType": "nursery"}, {"GeoShape": {"type": "Point", "GeoCoordinate": {"longitude": 11.117681980459826, "latitude": 46.058853869638675}}, "HouseNumber": "56", "address": "VIA G. GIUSTI", "city": "TRENTO", "name": "SCUOLA INFANZIA SAN GIUSEPPE - MASO GINOCCHIO", "SchoolType": "nursery"}, {"GeoShape": {"type": "Point", "GeoCoordinate": {"longitude": 11.097608348636212, "latitude": 46.06366664151142}}, "HouseNumber": "8", "address": "VIA CADUTI DI SARDAGNA", "city": "SARDAGNA", "name": "SCUOLA INFANZIA SARDAGNA", "SchoolType": "nursery"}, {"GeoShape": {"type": "Point", "GeoCoordinate": {"longitude": 11.1180611830596, "latitude": 46.08151408091981}}, "HouseNumber": "3", "address": "VIA L. SENESI", "city": "TRENTO", "name": "SCUOLA INFANZIA CRISTO RE - IL PICCOLO PRINCIPE", "SchoolType": "nursery"}, {"GeoShape": {"type": "Point", "GeoCoordinate": {"longitude": 11.102791660502495, "latitude": 46.10073727693588}}, "HouseNumber": "8", "address": "VIA DELL'ASILO", "city": "GARDOLO", "name": "SCUOLA INFANZIA MARGIT LEVINSON - GARDOLO", "SchoolType": "nursery"}, {"GeoShape": {"type": "Point", "GeoCoordinate": {"longitude": 11.108817509866615, "latitude": 46.104550289736935}}, "HouseNumber": "9/1", "address": "VIA PALUDI", "city": "GARDOLO", "name": "SCUOLA INFANZIA BIANCANEVE", "SchoolType": "nursery"}, {"GeoShape": {"type": "Point", "GeoCoordinate": {"longitude": 11.131963112726407, "latitude": 46.089648189804116}}, "HouseNumber": "4", "address": "VIA ALLA FORMIGHETA", "city": "MARTIGNANO", "name": "SCUOLA INFANZIA MARTIGNANO - ARCOBALENO", "SchoolType": "nursery"}, {"GeoShape": {"type": "Point", "GeoCoordinate": {"longitude": 11.11858243526121, "latitude": 46.10070532448165}}, "HouseNumber": "14", "address": "VIA DI MELTA", "city": "GARDOLO", "name": "SCUOLA INFANZIA MELTA - IL GIRASOLE", "SchoolType": "nursery"}, {"GeoShape": {"type": "Point", "GeoCoordinate": {"longitude": 11.130688444378894, "latitude": 46.06038052826617}}, "HouseNumber": "2", "address": "VIA ADAMELLO", "city": "TRENTO", "name": "SCUOLA INFANZIA S. ANTONIO", "SchoolType": "nursery"}, {"GeoShape": {"type": "Point", "GeoCoordinate": {"longitude": 11.126640590178043, "latitude": 46.06892975809731}}, "HouseNumber": "4", "address": "VIA FRANCESCO FERRUCCIO", "city": "TRENTO", "name": "SCUOLA INFANZIA A. TAMBOSI", "SchoolType": "nursery"}, {"GeoShape": {"type": "Point", "GeoCoordinate": {"longitude": 11.1174399426315, "latitude": 46.06955071717479}}, "HouseNumber": "1", "address": "VIA T. GAR", "city": "TRENTO", "name": "SCUOLA INFANZIA G.B. ZANELLA", "SchoolType": "nursery"}, {"GeoShape": {"type": "Point", "GeoCoordinate": {"longitude": 11.116686176852625, "latitude": 46.078155465457804}}, "HouseNumber": "6", "address": "VIA G. BRESADOLA", "city": "TRENTO", "name": "SCUOLA INFANZIA CRISTO RE", "SchoolType": "nursery"}, {"GeoShape": {"type": "Point", "GeoCoordinate": {"longitude": 11.109759529310239, "latitude": 46.109991540620555}}, "HouseNumber": "9", "address": "VIA S.ANNA", "city": "GARDOLO", "name": "SCUOLA INFANZIA DI GARDOLO E GHIAIE - GARDOLO", "SchoolType": "nursery"}, {"GeoShape": {"type": "Point", "GeoCoordinate": {"longitude": 11.09297530609182, "latitude": 46.120772595390974}}, "HouseNumber": "69", "address": "VIA DEL LOGHET", "city": "GARDOLO", "name": "SCUOLA INFANZIA DI GARDOLO E GHIAIE - GHIAIE", "SchoolType": "nursery"}, {"GeoShape": {"type": "Point", "GeoCoordinate": {"longitude": 11.129898478589604, "latitude": 46.08893968700557}}, "HouseNumber": "3", "address": "VIA SABBIONARE", "city": "MARTIGNANO", "name": "SCUOLA INFANZIA  DON L. SERAFINI - MARTIGNANO", "SchoolType": "nursery"}, {"GeoShape": {"type": "Point", "GeoCoordinate": {"longitude": 11.151940350913794, "latitude": 46.0646307445333}}, "HouseNumber": "1", "address": "VIA PANTE'", "city": "POVO", "name": "SCUOLA INFANZIA POVO", "SchoolType": "nursery"}, {"GeoShape": {"type": "Point", "GeoCoordinate": {"longitude": 11.060809269164755, "latitude": 46.073691065090834}}, "HouseNumber": "11", "address": "VIA DI VINCIA", "city": "SOPRAMONTE", "name": "SCUOLA INFANZIA SOPRAMONTE", "SchoolType": "nursery"}, {"GeoShape": {"type": "Point", "GeoCoordinate": {"longitude": 11.125074402479408, "latitude": 46.05882906624329}}, "HouseNumber": "2", "address": "VIA ASILO PEDROTTI", "city": "TRENTO", "name": "SCUOLA INFANZIA P. PEDROTTI", "SchoolType": "nursery"}, {"GeoShape": {"type": "Point", "GeoCoordinate": {"longitude": 11.11980070382253, "latitude": 46.06761037781285}}, "HouseNumber": "4", "address": "PIAZZA SANTA T. VERZERI", "city": "TRENTO", "name": "SCUOLA INFANZIA SACRO CUORE", "SchoolType": "nursery"}, {"GeoShape": {"type": "Point", "GeoCoordinate": {"longitude": 11.126853648960145, "latitude": 46.067071728996176}}, "HouseNumber": "2", "address": "L.GO PORTA NUOVA", "city": "TRENTO", "name": "SCUOLA INFANZIA CANOSSIANE VIRGINIA DE PANIZZA", "SchoolType": "nursery"}, {"GeoShape": {"type": "Point", "GeoCoordinate": {"longitude": 11.132060267092356, "latitude": 46.051773125380876}}, "HouseNumber": "9/1", "address": "V.LE DEI TIGLI", "city": "TRENTO", "name": "SCUOLA INFANZIA SAN BARTOLOMEO", "SchoolType": "nursery"}, {"GeoShape": {"type": "Point", "GeoCoordinate": {"longitude": 11.134888291723215, "latitude": 46.13239420648987}}, "HouseNumber": "3", "address": "VIA D.MADONNA DEI PRATI", "city": "VIGO MEANO", "name": "SCUOLA INFANZIA DI VIGO CORTESANO", "SchoolType": "nursery"}, {"GeoShape": {"type": "Point", "GeoCoordinate": {"longitude": 11.138275886878198, "latitude": 46.070710583589076}}, "HouseNumber": "95", "address": "LOC. S.DONA'", "city": "COGNOLA", "name": "SCUOLA INFANZIA B. KOFLER - S. DONA'", "SchoolType": "nursery"}, {"GeoShape": {"type": "Point", "GeoCoordinate": {"longitude": 11.143324409795806, "latitude": 46.07606563385168}}, "HouseNumber": "10", "address": "VIA B. KOFLER", "city": "COGNOLA", "name": "SCUOLA INFANZIA B. KOFLER - COGNOLA", "SchoolType": "nursery"}, {"GeoShape": {"type": "Point", "GeoCoordinate": {"longitude": 11.14711458372548, "latitude": 46.0497630381273}}, "HouseNumber": "15", "address": "VIA U. GIORDANO", "city": "VILLAZZANO", "name": "SCUOLA INFANZIA VILLAZZANO", "SchoolType": "nursery"}, {"GeoShape": {"type": "Point", "GeoCoordinate": {"longitude": 11.161601583198346, "latitude": 46.06776133322674}}, "HouseNumber": "48", "address": "VIA DELLA RESISTENZA", "city": "POVO", "name": "SCUOLA INFANZIA DI POVO - MARIACHIARA CONOTTER", "SchoolType": "nursery"}, {"GeoShape": {"type": "Point", "GeoCoordinate": {"longitude": 11.126373920308298, "latitude": 46.053323686976256}}, "HouseNumber": "11", "address": "VIA A. GRAMSCI", "city": "TRENTO", "name": "SCUOLA INFANZIA PICCOLO MONDO - CLARINA", "SchoolType": "nursery"}, {"GeoShape": {"type": "Point", "GeoCoordinate": {"longitude": 11.134940962186793, "latitude": 46.040365394506225}}, "HouseNumber": "3", "address": "VIA A. BETTINI", "city": "TRENTO", "name": "SCUOLA INFANZIA MADONNA BIANCA - L'ALBERO DEL SOLE", "SchoolType": "nursery"}, {"GeoShape": {"type": "Point", "GeoCoordinate": {"longitude": 11.130585458796158, "latitude": 46.006249856766665}}, "HouseNumber": "1/A", "address": "VIA DELLA TORRE FRANCA", "city": "MATTARELLO", "name": "SCUOLA INFANZIA MATTARELLO - IL CASTELLO", "SchoolType": "nursery"}, {"GeoShape": {"type": "Point", "GeoCoordinate": {"longitude": 11.065425888918544, "latitude": 46.089235961933625}}, "HouseNumber": "3", "address": "VIA DI COLTURA", "city": "CADINE", "name": "SCUOLA INFANZIA DI CADINE - IL MELOGRANO", "SchoolType": "nursery"}, {"GeoShape": {"type": "Point", "GeoCoordinate": {"longitude": 11.126330932952435, "latitude": 46.074727418170085}}, "HouseNumber": "16", "address": "VIA DELLA PREDARA", "city": "TRENTO", "name": "SCUOLA INFANZIA SAN MARTINO", "SchoolType": "nursery"}, {"GeoShape": {"type": "Point", "GeoCoordinate": {"longitude": 11.115534770356367, "latitude": 46.12485235950554}}, "HouseNumber": "38", "address": "VIA DELLE SUGARINE", "city": "MEANO", "name": "SCUOLA INFANZIA MEANO - M.R.GIO.BATTA PARTELLONI", "SchoolType": "nursery"}, {"GeoShape": {"type": "Point", "GeoCoordinate": {"longitude": 11.121024420864225, "latitude": 46.0877907850902}}, "HouseNumber": "24", "address": "VIA DEI SOLTERI", "city": "TRENTO", "name": "SCUOLA INFANZIA SOLTERI - IL QUADRIFOGLIO", "SchoolType": "nursery"}, {"GeoShape": {"type": "Point", "GeoCoordinate": {"longitude": 11.157721899558238, "latitude": 46.08511434411512}}, "HouseNumber": "2", "address": "LOC. VILLAMONTAGNA", "city": "COGNOLA", "name": "SCUOLA INFANZIA CARLI - VILLAMONTAGNA", "SchoolType": "nursery"}, {"GeoShape": {"type": "Point", "GeoCoordinate": {"longitude": 11.123561181217731, "latitude": 46.05249565312678}}, "HouseNumber": "66", "address": "VIA L. EINAUDI", "city": "TRENTO", "name": "SCUOLA INFANZIA LA CLARINA", "SchoolType": "nursery"}, {"GeoShape": {"type": "Point", "GeoCoordinate": {"longitude": 11.132987037224355, "latitude": 46.050112276267626}}, "HouseNumber": "26", "address": "VIALE DEGLI OLMI", "city": "TRENTO", "name": "SCUOLA SECONDARIA DI PRIMO GRADO D'ARTE A. VITTORIA - TRENTO", "SchoolType": "middle"}, {"GeoShape": {"type": "Point", "GeoCoordinate": {"longitude": 11.110329803788908, "latitude": 46.13524105123429}}, "name": "SCUOLA SECONDARIA DI PRIMO GRADO A. STAINER - LAVIS", "SchoolType": "middle"}, {"GeoShape": {"type": "Point", "GeoCoordinate": {"longitude": 11.13073322310189, "latitude": 46.00648641271681}}, "HouseNumber": "1", "address": "VIA DELLA TORRE FRANCA", "city": "MATTARELLO", "name": "SCUOLA SECONDARIA DI PRIMO GRADO FOGAZZARO - MATTARELLO", "SchoolType": "middle"}, {"GeoShape": {"type": "Point", "GeoCoordinate": {"longitude": 11.150748046112284, "latitude": 46.05343210537442}}, "HouseNumber": "24", "address": "VIA ZNOJMO - POVO", "city": "TRENTO-POVO", "name": "SCUOLA SECONDARIA DI PRIMO GRADO G.PASCOLI - TRENTO", "SchoolType": "middle"}, {"GeoShape": {"type": "Point", "GeoCoordinate": {"longitude": 11.143753880840462, "latitude": 46.074716524600916}}, "HouseNumber": "2/1", "address": "VIA PONTE ALTO-COGNOLA", "city": "TRENTO-COGNOLA", "name": "SCUOLA SECONDARIA DI PRIMO GRADO ARGENTARIO - COGNOLA", "SchoolType": "middle"}, {"GeoShape": {"type": "Point", "GeoCoordinate": {"longitude": 11.124724651417276, "latitude": 46.05909614366666}}, "HouseNumber": "61", "address": "VIA VITTORIO VENETO", "city": "TRENTO", "name": "SCUOLA SECONDARIA DI PRIMO GRADO F.LLI BRONZETTI E G. SEGANTINI - TRENTO", "SchoolType": "middle"}, {"GeoShape": {"type": "Point", "GeoCoordinate": {"longitude": 11.13266487699897, "latitude": 46.048839881552105}}, "HouseNumber": "22", "address": "VIALE DEGLI OLMI", "city": "TRENTO", "name": "SCUOLA SECONDARIA DI PRIMO GRADO O. WINKLER - TRENTO", "SchoolType": "middle"}, {"GeoShape": {"type": "Point", "GeoCoordinate": {"longitude": 11.12548441691497, "latitude": 46.06466435880798}}, "HouseNumber": "8", "address": "VIA SAN GIOVANNI BOSCO ", "city": "TRENTO", "name": "SCUOLA SECONDARIA DI PRIMO GRADO F. BONPORTI - TRENTO", "SchoolType": "middle"}, {"GeoShape": {"type": "Point", "GeoCoordinate": {"longitude": 11.121801702695453, "latitude": 46.06532692170293}}, "HouseNumber": "2", "address": "VIA AL TORRIONE", "city": "TRENTO", "name": "SCUOLA SECONDARIA DI PRIMO GRADO G. BRESADOLA - TRENTO", "SchoolType": "middle"}, {"GeoShape": {"type": "Point", "GeoCoordinate": {"longitude": 11.117658136033972, "latitude": 46.07269737415909}}, "HouseNumber": "50", "address": "C.SO M. BUONARROTI", "city": "TRENTO", "name": "SCUOLA SECONDARIA DI PRIMO GRADO A. MANZONI - TRENTO", "SchoolType": "middle"}, {"GeoShape": {"type": "Point", "GeoCoordinate": {"longitude": 11.11303853028066, "latitude": 46.10390391680275}}, "HouseNumber": "35/1", "address": "VIA IV NOVEMBRE-GARDOLO", "city": "TRENTO-GARDOLO", "name": "SCUOLA SECONDARIA DI PRIMO GRADO S. PEDROLLI - GARDOLO", "SchoolType": "middle"}, {"GeoShape": {"type": "Point", "GeoCoordinate": {"longitude": 11.119800466963829, "latitude": 46.06756327707646}}, "HouseNumber": "4", "address": "PIAZZA SANTA T. VERZERI", "city": "TRENTO", "name": "SCUOLA SECONDARIA DI PRIMO GRADO SACRO CUORE - TRENTO", "SchoolType": "middle"}, {"GeoShape": {"type": "Point", "GeoCoordinate": {"longitude": 11.127344573643054, "latitude": 46.06500415627272}}, "HouseNumber": "22", "address": "VIA F. BARBACOVI", "city": "TRENTO", "name": "SCUOLA SECONDARIA DI PRIMO GRADO ISTITUTO SALESIANO - TRENTO", "SchoolType": "middle"}, {"GeoShape": {"type": "Point", "GeoCoordinate": {"longitude": 11.121621677080633, "latitude": 46.061412813301274}}, "HouseNumber": "23", "address": "VIA C. ENDRICI", "city": "TRENTO", "name": "SCUOLA SECONDARIA DI PRIMO GRADO ARCIVESCOVILE - TRENTO", "SchoolType": "middle"}, {"GeoShape": {"type": "Point", "GeoCoordinate": {"longitude": 11.138711997701915, "latitude": 46.040711357533574}}, "HouseNumber": "86", "address": "VIA E. CONCI", "city": "TRENTO", "name": "ASSOCIAZIONE PEDAGOGICA STEINERIANA - TRENTO", "SchoolType": "middle"}, {"name": "Andrea Pozzo - Trento", "address": "Via Barbacovi, 1", "study paths": "Lt Studenti  Attivita' Sportive (codice IE40),Ltg  - Indirizzo Costruzioni (codice IE41),Ltg  - Indirizzo Progettazione (codice IE42),Corso Tecnico Indirizzo Cantiere (codice IE44),Geometri (prog. Sirio) (codice TL04),", "SchoolType": "high"}, {"name": "Antonio Rosmini - Trento", "address": "Via B.malfatti, 2", "study paths": "Scienze Sociali (codice IA44),Quinquennio Autonom. Linguistico (codice IA51),Socio Psicopedag.(brocca-musica) (codice IE10),Socio Psicopedag Brocca Tedesco (codice IE55),Sociopsicoped Musica e Tedesco (codice IE59),Socio Psicopedag. (pr. \"brocca\") (codice ISFP),", "SchoolType": "high"}, {"name": "Antonio Tambosi - Trento", "address": "Via Brigata Acqui, 19", "SchoolType": "high"}, {"name": "Bonporti - Trento", "address": "Via  S.maria Maddalena 16", "SchoolType": "high"}, {"name": "Collegio Arcivescovile Celestino Endrici", "address": "Via Celestino Endrici, 23", "SchoolType": "high"}, {"name": "Collegio Arcivescovile Celestino Endrici", "address": "Via Celestino Endrici, 23", "SchoolType": "high"}, {"name": "Collegio Arcivescovile Celestino Endrici", "address": "Via Celestino Endrici, 23", "SchoolType": "high"}, {"name": "Delle Arti - Trento", "address": "Via Zambra, 3", "study paths": "Pitt.visual Art-virtual Design-m (codice IC83),Pitt.&visual Art-virt.design-mul (codice ID31),Coreutico (codice ID67),Design Per L'industria (codice ISJJ),Pittura & Visual Art (codice ISJL),Arte dei Metalli e dell'oreficer (codice SD04),Disegnatori di Archit. Arredam. (codice SD19),Decorazione Pittorica (codice SD23),", "SchoolType": "high"}, {"name": "Galileo Galilei - Trento", "address": "Viale N.bolognini, 88", "study paths": "Scientifico (codice PS00),", "SchoolType": "high"}, {"name": "Giovanni Prati - Trento", "address": "Via Santissima Trinit\u00c3\u00a0, 38", "study paths": "Classico (codice PC00),", "SchoolType": "high"}, {"name": "Istituto Sacro Cuore", "address": "P.zza Santa Teresa Verzeri, 4", "SchoolType": "high"}, {"name": "Istituto Sacro Cuore", "address": "Piazza Santa Teresa Verzeri, 4", "SchoolType": "high"}, {"name": "Leonardo Da Vinci - Trento", "address": "Via Giusti, 1/1", "study paths": "Linguistico P.pil.   \"da Vinci\" (codice IX89),Scientifico (codice PS00),", "SchoolType": "high"}, {"name": "Michelangelo Buonarroti - Trento", "address": "Via Brigata Acqui, 13", "study paths": "Scient.tecnol.\"brocca\" Iti (codice IA39),Chimico (codice TF25),Progetto \"edilizia\" - edilizia (codice TF47),Elettrot. ed Autom. (codice TF51),Meccanica (codice TF52),Meccanica (prog. Sirio) (codice TF68),", "SchoolType": "high"}, {"name": "Serale Antonio Tambosi - Trento", "address": "Via Brigata Acqui, 19", "SchoolType": "high"}]}