{
	"records": [
		{
			"name": "Parco - Vigne campo sportivo via Fossa",
			"GeoCoordinate": {
				"longitude": 10.865451,
				"latitude": 45.919647
			},
			"city": "Arco",
			"StreetType": "via"
		},
		{
			"name": "Centro Sportivo Intercomunale",
			"GeoCoordinate": {
				"longitude": 11.088114,
				"latitude": 45.930886
			},
			"city": "Besenello"
		},
		{
			"name": "Centro Sportivo Fiane",
			"GeoCoordinate": {
				"longitude": 10.696392,
				"latitude": 45.999943
			},
			"city": "Bondo"
		},
		{
			"name": "Centro Sportivo \"Santa Caterina\" - Campi di calcio",
			"GeoCoordinate": {
				"longitude": 11.003151,
				"latitude": 45.757366
			},
			"city": "Brentonico",
			"StreetType": "Via",
			"StreetName": "Santa Caterina"
		},
		{
			"name": "Impianto Sportivo \"Al Zengio\"",
			"GeoCoordinate": {
				"longitude": 10.949557,
				"latitude": 45.817127
			},
			"city": "Brentonico",
			"address_additional_information": "Localit&agrave; Zengio - Brentonico"
		},
		{
			"name": "Campo sportivo",
			"GeoCoordinate": {
				"longitude": 11.107007,
				"latitude": 46.43105
			},
			"city": "Brez",
			"address_additional_information": "Brez"
		},
		{
			"name": "Palazzetto Comunale",
			"GeoCoordinate": {
				"longitude": 11.260839,
				"latitude": 45.992757
			},
			"city": "Caldonazzo",
			"StreetType": "via",
			"StreetName": "Marconi",
			"HouseNumber": "9"
		},
		{
			"name": "Campo sportivo Villa",
			"GeoCoordinate": {
				"longitude": 11.1167,
				"latitude": 46.453685
			},
			"city": "Castelfondo",
			"StreetType": "via",
			"StreetName": "forcola"
		},
		{
			"name": "Campo Sportivo PlanPal\u00f9",
			"GeoCoordinate": {
				"longitude": 11.080965,
				"latitude": 11.080965
			},
			"city": "Cloz"
		},
		{
			"name": "Campo sportivo di Masen",
			"GeoCoordinate": {
				"longitude": 11.16748,
				"latitude": 46.17886
			},
			"city": "Giovo",
			"address_additional_information": "Masen Giovo"
		},
		{
			"name": "Palazzetto dello sport di Pal\u00f9",
			"GeoCoordinate": {
				"longitude": 11.1425,
				"latitude": 46.159444
			},
			"city": "Giovo",
			"address_additional_information": " Pal&ugrave; di Giovo"
		},
		{
			"name": "Centro sportivo (Palestra / Piscina)",
			"GeoCoordinate": {
				"longitude": 11.297213,
				"latitude": 46.012257
			},
			"city": "Levico Terme"
		},
		{
			"name": "Palazzetto dello Sport",
			"GeoCoordinate": {
				"longitude": 10.965146,
				"latitude": 46.141734
			},
			"city": "Molveno",
			"address_additional_information": "Molveno"
		},
		{
			"name": "Campo sportivo Predazzo",
			"GeoCoordinate": {
				"longitude": -86.580447,
				"latitude": 35.517491
			},
			"city": "Predazzo",
			"address_additional_information": "loc. Fontanelle &ndash; Predazzo (Tn)"
		},
		{
			"name": "Palazzetto dello sport Predazzo",
			"GeoCoordinate": {
				"longitude": 11.597544,
				"latitude": 46.312041
			},
			"city": "Predazzo",
			"StreetType": "via",
			"StreetName": "Minghetti &ndash"
		},
		{
			"name": "Campo sportivo",
			"GeoCoordinate": {
				"longitude": 11.029426,
				"latitude": 46.436486
			},
			"city": "Rumo",
			"address_additional_information": "rumo"
		},
		{
			"name": "Centro Sportivo \"Mario Formolo\"",
			"GeoCoordinate": {
				"longitude": 11.030604,
				"latitude": 46.237649
			},
			"city": "Sporminore",
			"address_additional_information": "centro sportivo Sporminore"
		},
		{
			"name": "Centro sportivo comunale sito in via Ponte Alto a Cognola",
			"GeoCoordinate": {
				"longitude": 11.148843,
				"latitude": 46.073064
			},
			"city": "Trento"
		},
		{
			"name": "Giardino centro sportivo Valnigra",
			"GeoCoordinate": {
				"longitude": 11.143919,
				"latitude": 46.051027
			},
			"city": "Trento"
		},
		{
			"name": "Centro Sportivo Trento Nord - Piscine Comunali",
			"GeoCoordinate": {
				"longitude": 11.114881,
				"latitude": 46.105628
			},
			"city": "Trento"
		},
		{
			"name": "Centro Sportivo Trento Nord - Palazzetto",
			"GeoCoordinate": {
				"longitude": 11.114881,
				"latitude": 46.105628
			},
			"city": "Trento"
		},
		{
			"name": "Impianto Sportivo G. Manazzon (ex Fogazzaro) - Piscine",
			"GeoCoordinate": {
				"longitude": 11.13038,
				"latitude": 46.055986
			},
			"city": "Trento"
		},
		{
			"name": "Impianto Sportivo G. Manazzon - Palestre",
			"GeoCoordinate": {
				"longitude": 11.130358,
				"latitude": 46.055977
			},
			"city": "Trento"
		},
		{
			"name": "Impianto Sportivo Ito del Favero (Madonna Bianca) - Piscine",
			"GeoCoordinate": {
				"longitude": 11.134551,
				"latitude": 46.040833
			},
			"city": "Trento"
		},
		{
			"name": "Impianto Sportivo Ito del Favero (Madonna Bianca) - Palestre",
			"GeoCoordinate": {
				"longitude": 11.134551,
				"latitude": 46.040833
			},
			"city": "Trento"
		},
		{
			"name": "BLM Group Arena - Palazzetto",
			"GeoCoordinate": {
				"longitude": 11.122945,
				"latitude": 46.040854
			},
			"city": "Trento"
		},
		{
			"name": "Area comunale Sopramonte campo sportivo",
			"GeoCoordinate": {
				"longitude": 11.053298,
				"latitude": 46.06997
			},
			"city": "Trento"
		},
		{
			"name": "Centro sportivo \"Don Onorio Spada\"",
			"GeoCoordinate": {
				"longitude": 11.14428,
				"latitude": 46.05005
			},
			"city": "Trento"
		},
		{
			"name": "Palestra artificiale Centro sportivo Le Busatte",
			"GeoCoordinate": {
				"longitude": 10.890844,
				"latitude": 45.8778
			}
		},
		{
			"name": "Centro Sportivo Andalo",
			"GeoCoordinate": {
				"longitude": 11.004732,
				"latitude": 46.17047
			}
		},
		{
			"name": "Palazzetto polifunzionale dello sport di Molveno",
			"GeoCoordinate": {
				"longitude": 10.965146,
				"latitude": 46.141734
			},
			"city": "Molveno",
			"address_additional_information": "loc. Ischia Molveno"
		},
		{
			"name": "Palazzetto dello sport di Rovereto",
			"GeoCoordinate": {
				"longitude": 11.041733,
				"latitude": 45.89544
			}
		},
		{
			"name": "Centro Sportivo Pinzolo",
			"GeoCoordinate": {
				"longitude": 10.765027,
				"latitude": 46.15977
			}
		},
		{
			"name": "Palazzetto dello sport Predazzo",
			"GeoCoordinate": {
				"longitude": 11.63492,
				"latitude": 46.318723
			}
		},
		{
			"name": "Centro sportivo Stava",
			"GeoCoordinate": {
				"longitude": 11.507587,
				"latitude": 46.288883
			}
		},
		{
			"name": "Centro Sportivo Polivalente Levico",
			"GeoCoordinate": {
				"longitude": 11.331713,
				"latitude": 46.001019
			}
		},
		{
			"name": "Palazzetto di Caldonazzo",
			"GeoCoordinate": {
				"longitude": 11.276874,
				"latitude": 45.987211
			}
		}
	]
}