{"records": [{"id": 1902, "name": "Cinema teatro comunale", "address": {"latitude": 0, "longitude": 0, "address": ""}, "city": "Capriana"}, {"id": 2097, "geometry": {"type": "Point"}, "name": "Teatro Cinema Oratorio Monsignor Caproni", "address": "via Monsignor Domenico Caproni 38056 Levico Terme", "GeoCoordinate": [11.302365, 46.013424], "city": "Levico Terme"}, {"id": 2972, "geometry": {"type": "Point"}, "name": "Teatro", "GeoCoordinate": [11.541307, 46.286293], "city": "Panchi\u00e0"}, {"id": 1186947, "geometry": {"type": "Point"}, "name": "Teatro di Ravina", "GeoCoordinate": [11.107827, 46.038438], "city": "Trento"}, {"id": 1186905, "geometry": {"type": "Point"}, "name": "Teatro di Meano", "GeoCoordinate": [11.116313, 46.126831], "city": "Trento"}, {"id": 1186913, "geometry": {"type": "Point"}, "name": "Teatro di Villazzano", "GeoCoordinate": [11.147218, 46.049352], "city": "Trento"}, {"id": 1187558, "geometry": {"type": "Point"}, "name": "Teatro San Marco", "GeoCoordinate": [11.12873, 46.063764], "city": "Trento"}, {"id": 1193423, "geometry": {"type": "Point"}, "name": "Teatro auditorium Santa Chiara", "GeoCoordinate": [11.124993, 46.062865], "city": "Trento"}, {"id": 1193429, "geometry": {"type": "Point"}, "name": "Teatro Cuminetti", "GeoCoordinate": [11.12488, 46.063628], "city": "Trento"}, {"id": 1193440, "geometry": {"type": "Point"}, "name": "Teatro Sanb\u00e0polis", "GeoCoordinate": [11.133029, 46.046377], "city": "Trento"}, {"id": 1193449, "geometry": {"type": "Point"}, "name": "Teatro Portland", "GeoCoordinate": [11.111794, 46.07013], "city": "Trento"}, {"id": 1896, "geometry": {"type": "Point"}, "name": "Teatro Valle dei Laghi", "address": "via Stoppan Vezzano", "GeoCoordinate": [10.997282, 46.073413], "city": "Vallelaghi"}, {"id": 49313, "geometry": {"type": "Point"}, "name": "Cinema Teatro di Cavalese", "address": "Via Roma, 9 cavalese", "GeoCoordinate": [11.463753, 46.288926]}, {"id": 49314, "geometry": {"type": "Point"}, "name": "Cinema Teatro \"Al Parco\" di Cavalese ", "address": "via delle piace, cavalese", "GeoCoordinate": [11.460566, 46.291202]}, {"id": 49315, "geometry": {"type": "Point"}, "name": "Cinema Teatro di Tesero", "address": "Via Noval, 5 tesero", "GeoCoordinate": [11.507966, 46.289569]}, {"id": 49316, "geometry": {"type": "Point"}, "name": "Cinema Teatro di Predazzo ", "address": "Via C. Battisti, 28 predazzo", "GeoCoordinate": [11.60084, 46.31334]}, {"id": 49317, "geometry": {"type": "Point"}, "name": "Auditorium \"Casa della Giovent\u00f9\" di Predazzo", "address": "Via del Ricovero predazzo", "GeoCoordinate": [11.60277, 46.310989]}, {"id": 49318, "geometry": {"type": "Point"}, "name": "Teatro comunale di Valfloriana", "address": "fraz. Casatta valfloriana", "GeoCoordinate": [11.324865, 46.240088]}, {"id": 49319, "geometry": {"type": "Point"}, "name": "Teatro comunale di Capriana ", "address": "Via Miravalli, capriana", "GeoCoordinate": [11.339867, 46.261113]}, {"id": 49320, "geometry": {"type": "Point"}, "name": "Teatro \"Centro Polifunzionale\" di Castello di Fiemme", "address": "Via Latemar, castello di fiemme", "GeoCoordinate": [11.437188, 46.283262]}, {"id": 49321, "geometry": {"type": "Point"}, "name": "Teatro Parrocchiale di Panchi\u00e0", "address": "Piazza Chiesa, panchi&agrave;", "GeoCoordinate": [11.541669, 46.285999]}]}