{"type":"FeatureCollection","features":[{"id":1742,"geometry":{"type":"Point","coordinates":[11.062925,46.339064]},"type":"Feature","properties":{"id":1742,"name":"Chiesa del romitaggio di Santa Giustina ","class_identifier":"luogo","mainNodeId":"1162","geo":"dermulo"}},{"id":1743,"geometry":{"type":"Point","coordinates":[11.082546,46.28619]},"type":"Feature","properties":{"id":1743,"name":"Chiesa di San Marcello","class_identifier":"luogo","mainNodeId":"1166","geo":"dardine"}},{"id":1747,"geometry":{"type":"Point","coordinates":[11.068172,46.294617]},"type":"Feature","properties":{"id":1747,"name":"Chiesa di San Marco Evangelista ","class_identifier":"luogo","mainNodeId":"1167","geo":"mollaro "}},{"id":1748,"geometry":{"type":"Point","coordinates":[11.074963,46.306328]},"type":"Feature","properties":{"id":1748,"name":"Chiesa della nativit\u00e0 di Maria ","class_identifier":"luogo","mainNodeId":"1168","geo":"segno, taio "}},{"id":1749,"geometry":{"type":"Point","coordinates":[8.945912,41.763403]},"type":"Feature","properties":{"id":1749,"name":"Chiesa di S.Eusebio ","class_identifier":"luogo","mainNodeId":"1169","geo":"torra, taio"}},{"id":1750,"geometry":{"type":"Point","coordinates":[11.080733,46.296368]},"type":"Feature","properties":{"id":1750,"name":"Chiesa di San Rocco confessore ","class_identifier":"luogo","mainNodeId":"1170","geo":"tuenetto "}},{"id":1752,"geometry":{"type":"Point","coordinates":[11.078885,46.276852]},"type":"Feature","properties":{"id":1752,"name":"Mas del Mont","class_identifier":"luogo","mainNodeId":"1173","geo":"toss, tn "}},{"id":1757,"geometry":{"type":"Point","coordinates":[11.095507,46.321677]},"type":"Feature","properties":{"id":1757,"name":"Area sosta camper (Batuda)","class_identifier":"luogo","mainNodeId":"1177","geo":"TRES,TN "}},{"id":1758,"geometry":{"type":"Point","coordinates":[11.098261,46.326027]},"type":"Feature","properties":{"id":1758,"name":"Bacino - Lago di Tres ","class_identifier":"luogo","mainNodeId":"1178"}},{"id":1759,"geometry":{"type":"Point","coordinates":[11.095507,46.321677]},"type":"Feature","properties":{"id":1759,"name":"Chiesa di San Rocco ","class_identifier":"luogo","mainNodeId":"1179","geo":"tres,tn "}},{"id":1760,"geometry":{"type":"Point","coordinates":[11.079864,46.307971]},"type":"Feature","properties":{"id":1760,"name":"Chiesa di San Sigismondo ","class_identifier":"luogo","mainNodeId":"1180","geo":"vion, tn "}},{"id":1761,"geometry":{"type":"Point","coordinates":[11.095507,46.321677]},"type":"Feature","properties":{"id":1761,"name":"Chiesa di Sant'Agnese ","class_identifier":"luogo","mainNodeId":"1181","geo":"tres,tn "}},{"id":1762,"geometry":{"type":"Point","coordinates":[11.165905,46.319702]},"type":"Feature","properties":{"id":1762,"name":"Malga Rodeza e Corno di Tres","class_identifier":"luogo","mainNodeId":"1182"}},{"id":1763,"geometry":{"type":"Point","coordinates":[11.095507,46.321677]},"type":"Feature","properties":{"id":1763,"name":"Percorsi d'Anaunia ","class_identifier":"luogo","mainNodeId":"1183","geo":"tres, tn "}},{"id":1764,"geometry":{"type":"Point","coordinates":[11.095507,46.321677]},"type":"Feature","properties":{"id":1764,"name":"Pra del Lac ","class_identifier":"luogo","mainNodeId":"1184","geo":"tres, tn "}},{"id":1740,"geometry":{"type":"Point","coordinates":[11.062925,46.339064]},"type":"Feature","properties":{"id":1740,"name":"Chiesa dei Santi Filippo e Giacomo ","class_identifier":"luogo","mainNodeId":"1160","geo":"dermulo "}},{"id":1741,"geometry":{"type":"Point","coordinates":[11.062925,46.339064]},"type":"Feature","properties":{"id":1741,"name":"Chiesa parrocchiale di Santa Giustina ","class_identifier":"luogo","mainNodeId":"1161","geo":"dermulo"}}],"query":{"string":"classes 'luogo'","eZFindQuery":{"_query":null,"SearchContentClassID":[359],"Filter":["subattr_geo___coordinates____gpt:[-90,-90 TO 90,90]"],"SearchLimit":500,"SearchOffset":0,"Limitation":null,"AsObjects":false,"FieldsToReturn":["as_opendatastorage_bst"]},"responseHeader":{"status":0,"QTime":2,"params":{"qt":"ezpublish","hl":"false","indent":"on","fl":"meta_guid_ms meta_installation_id_ms meta_main_url_alias_ms meta_installation_url_ms meta_id_si meta_main_node_id_si meta_language_code_ms meta_name_t score meta_published_dt meta_path_string_ms meta_main_path_string_ms meta_is_invisible_b [elevated]  as_opendatastorage_bst","hl.requireFieldMatch":"true","start":"0","hl.fragsize":"200","sort":"score desc","fq":["((meta_installation_id_ms:8d0a80e64339726676d7929978daa2cf AND (( ( meta_contentclass_id_si:188 OR meta_contentclass_id_si:208 OR meta_contentclass_id_si:215 OR meta_contentclass_id_si:219 OR meta_contentclass_id_si:225 OR meta_contentclass_id_si:241 OR meta_contentclass_id_si:291 ) AND ( meta_section_id_si:3 )) OR ( ( meta_section_id_si:10 ) AND ( meta_object_states_si:3 OR meta_object_states_si:4 OR meta_object_states_si:6 )) OR ( ( meta_section_id_si:1 )) OR ( ( meta_contentclass_id_si:304 )) OR ( ( meta_path_si:512)) OR ( ( meta_owner_id_si:10 ) AND ( meta_owner_group_id_si:44 )) OR ( ( meta_contentclass_id_si:439 ) AND ( meta_section_id_si:12 ) AND ( meta_object_states_si:17 ) AND ( meta_object_states_si:19 OR meta_object_states_si:21 )) OR ( ( meta_contentclass_id_si:1 OR meta_contentclass_id_si:436 OR meta_contentclass_id_si:440 ) AND ( meta_section_id_si:12 )) OR ( ( meta_contentclass_id_si:442 ) AND ( meta_section_id_si:14 ) AND ( meta_object_states_si:19 OR meta_object_states_si:21 )) OR ( ( meta_contentclass_id_si:441 OR meta_contentclass_id_si:443 OR meta_contentclass_id_si:445 OR meta_contentclass_id_si:446 ) AND ( meta_section_id_si:14 ))))  ) AND meta_is_invisible_b:false","meta_contentclass_id_si:359","meta_language_code_ms:ita-IT","subattr_geo___coordinates____gpt:[-90,-90 TO 90,90]"],"rows":"500","version":"2.2","hl.simple.pre":"<b>","bq":"meta_installation_id_ms:8d0a80e64339726676d7929978daa2cf^1.5 meta_language_code_ms:ita-IT^1.2","hl.snippets":"1","q":"","forceElevation":"false","enableElevation":"false","hl.simple.post":"<\/b>","qf":"attr_abstract_t attr_descrizione_t attr_email_t attr_geo_t attr_indirizzo_t attr_tags_lk attr_telefono_t attr_title_t subattr_geo___coordinates____gpt subattr_geo___geohash____gh submeta_comune___name____t submeta_galleria___name____t submeta_tipo_luogo___name____t meta_name_t meta_owner_name_t","clustering":"false","hl.fl":"attr_abstract_t attr_descrizione_t attr_email_t attr_geo_t attr_indirizzo_t attr_tags_lk attr_telefono_t attr_title_t subattr_geo___coordinates____gpt subattr_geo___geohash____gh submeta_comune___name____t submeta_galleria___name____t submeta_tipo_luogo___name____t","wt":"php"}}},"nextPageQuery":null,"totalCount":17,"facets":[]}