{"type":"FeatureCollection","features":[{"id":8394,"geometry":{"type":"Point","coordinates":[11.186751,46.383333]},"type":"Feature","properties":{"id":8394,"name":"Amblar, Malga Roen","class_identifier":"luogo","mainNodeId":"200698"}},{"id":8410,"geometry":{"type":"Point","coordinates":[10.930968,46.427738]},"type":"Feature","properties":{"id":8410,"name":"Sci alpinismo in val Bresimo","class_identifier":"luogo","mainNodeId":"200699"}},{"id":8419,"geometry":{"type":"Point","coordinates":[10.984913,46.247846]},"type":"Feature","properties":{"id":8419,"name":"Campodenno, Castel Belasi","class_identifier":"luogo","mainNodeId":"200702"}},{"id":8442,"geometry":{"type":"Point","coordinates":[11.084705,46.416488]},"type":"Feature","properties":{"id":8442,"name":"Cloz, panorama","class_identifier":"luogo","mainNodeId":"200705"}},{"id":8450,"geometry":{"type":"Point","coordinates":[11.102523,46.406199]},"type":"Feature","properties":{"id":8450,"name":"Dambel, panorama","class_identifier":"luogo","mainNodeId":"200708"}},{"id":8527,"geometry":{"type":"Point","coordinates":[11.10713,46.38631]},"type":"Feature","properties":{"id":8527,"name":"Romeno, chiesa di S. Antonio","class_identifier":"luogo","mainNodeId":"200718"}},{"id":8532,"geometry":{"type":"Point","coordinates":[11.147291,46.420648]},"type":"Feature","properties":{"id":8532,"name":"Ronzone, scorcio","class_identifier":"luogo","mainNodeId":"200719"}},{"id":8535,"geometry":{"type":"Point","coordinates":[11.029426,46.436486]},"type":"Feature","properties":{"id":8535,"name":"Rumo, panorama","class_identifier":"luogo","mainNodeId":"200720"}},{"id":8540,"geometry":{"type":"Point","coordinates":[11.063926,46.371107]},"type":"Feature","properties":{"id":8540,"name":"Sanzeno, basilica dei Santi Martiri","class_identifier":"luogo","mainNodeId":"200721"}},{"id":8541,"geometry":{"type":"Point","coordinates":[11.141469,46.418647]},"type":"Feature","properties":{"id":8541,"name":"Sarnonico, panorama","class_identifier":"luogo","mainNodeId":"200722"}},{"id":8573,"geometry":{"type":"Point","coordinates":[11.02272,46.32644]},"type":"Feature","properties":{"id":8573,"name":"Tuenno, panorama","class_identifier":"luogo","mainNodeId":"200730"}},{"id":10994,"geometry":{"type":"Point","coordinates":[11.201892,46.418597]},"type":"Feature","properties":{"id":10994,"name":"Ruffr\u00e8, panorama","class_identifier":"luogo","mainNodeId":"200732"}},{"id":11006,"geometry":{"type":"Point","coordinates":[11.201892,46.418597]},"type":"Feature","properties":{"id":11006,"name":"Impianti a Passo Mendola","class_identifier":"luogo","mainNodeId":"219248"}},{"id":11400,"geometry":{"type":"Point","coordinates":[11.102523,46.406199]},"type":"Feature","properties":{"id":11400,"name":"Parco Fluviale Novella","class_identifier":"luogo","mainNodeId":"209185"}},{"id":11430,"geometry":{"type":"Point","coordinates":[10.984913,46.247846]},"type":"Feature","properties":{"id":11430,"name":"Casa del Parco - Lago rosso","class_identifier":"luogo","mainNodeId":"287761"}},{"id":11510,"geometry":{"type":"Point","coordinates":[11.02272,46.32644]},"type":"Feature","properties":{"id":11510,"name":"Lago di Tovel","class_identifier":"luogo","mainNodeId":"209104"}},{"id":11511,"geometry":{"type":"Point","coordinates":[11.035505,46.364508]},"type":"Feature","properties":{"id":11511,"name":"Lago di S. Giustina","class_identifier":"luogo","mainNodeId":"222659"}},{"id":11538,"geometry":{"type":"Point","coordinates":[11.02272,46.32644]},"type":"Feature","properties":{"id":11538,"name":"Val Nana","class_identifier":"luogo","mainNodeId":"209106"}},{"id":11693,"geometry":{"type":"Point","coordinates":[11.02272,46.32644]},"type":"Feature","properties":{"id":11693,"name":"Brenta Nord","class_identifier":"luogo","mainNodeId":"201339"}},{"id":13670,"geometry":{"type":"Point","coordinates":[11.029426,46.436486]},"type":"Feature","properties":{"id":13670,"name":"Maddalene","class_identifier":"luogo","mainNodeId":"201341"}},{"id":15392,"geometry":{"type":"Point","coordinates":[11.202006,46.406126]},"type":"Feature","properties":{"id":15392,"name":"Cavareno","class_identifier":"luogo","mainNodeId":"201342"}},{"id":15441,"geometry":{"type":"Point","coordinates":[11.048146,46.274682]},"type":"Feature","properties":{"id":15441,"name":"Pista ciclabile Val di Non","class_identifier":"luogo","mainNodeId":"201343"}},{"id":15632,"geometry":{"type":"Point","coordinates":[11.063926,46.371107]},"type":"Feature","properties":{"id":15632,"name":"Passeggiata panoramica da Sanzeno a San Romedio","class_identifier":"luogo","mainNodeId":"201345"}},{"id":15650,"geometry":{"type":"Point","coordinates":[11.10713,46.38631]},"type":"Feature","properties":{"id":15650,"name":"Santi Bartolomeo e Tommaso di Romeno","class_identifier":"luogo","mainNodeId":"201348"}},{"id":15653,"geometry":{"type":"Point","coordinates":[11.063926,46.371107]},"type":"Feature","properties":{"id":15653,"name":"Casa de' Gentili","class_identifier":"luogo","mainNodeId":"201350"}},{"id":15656,"geometry":{"type":"Point","coordinates":[11.147291,46.420648]},"type":"Feature","properties":{"id":15656,"name":"Il Giardino della Rosa a Ronzone","class_identifier":"luogo","mainNodeId":"209479"}},{"id":7720,"geometry":{"type":"Point","coordinates":[11.063926,46.371107]},"type":"Feature","properties":{"id":7720,"name":"Borgo di Casez","class_identifier":"luogo","mainNodeId":"200688"}},{"id":7722,"geometry":{"type":"Point","coordinates":[11.035505,46.364508]},"type":"Feature","properties":{"id":7722,"name":"Castel Cles","class_identifier":"luogo","mainNodeId":"200689"}},{"id":7748,"geometry":{"type":"Point","coordinates":[11.063926,46.371107]},"type":"Feature","properties":{"id":7748,"name":"Santuario di S. Romedio","class_identifier":"luogo","mainNodeId":"200690"}},{"id":7752,"geometry":{"type":"Point","coordinates":[11.063926,46.371107]},"type":"Feature","properties":{"id":7752,"name":"Basilica dei SS. Martiri di Sanzeno","class_identifier":"luogo","mainNodeId":"200691"}},{"id":8332,"geometry":{"type":"Point","coordinates":[11.02272,46.32644]},"type":"Feature","properties":{"id":8332,"name":"Partenza e arrivo a Tuenno un giro attorno al Monte Peller","class_identifier":"luogo","mainNodeId":"200695"}},{"id":8373,"geometry":{"type":"Point","coordinates":[11.186751,46.383333]},"type":"Feature","properties":{"id":8373,"name":"Sul Roen, balconata naturale fra Val di Non e Val d'Adige","class_identifier":"luogo","mainNodeId":"200696"}},{"id":19615,"geometry":{"type":"Point","coordinates":[11.063926,46.371107]},"type":"Feature","properties":{"id":19615,"name":"San Romedio MTB","class_identifier":"luogo","mainNodeId":"201351"}},{"id":19621,"geometry":{"type":"Point","coordinates":[11.186751,46.383333]},"type":"Feature","properties":{"id":19621,"name":"Giro del Monte Roen","class_identifier":"luogo","mainNodeId":"201352"}},{"id":19655,"geometry":{"type":"Point","coordinates":[10.930968,46.427738]},"type":"Feature","properties":{"id":19655,"name":"Monte Pin da Bresimo","class_identifier":"luogo","mainNodeId":"201353"}},{"id":19989,"geometry":{"type":"Point","coordinates":[11.035505,46.364508]},"type":"Feature","properties":{"id":19989,"name":"Giro del Monte Ometto - Mandelspitz","class_identifier":"luogo","mainNodeId":"201354"}},{"id":20110,"geometry":{"type":"Point","coordinates":[11.029426,46.436486]},"type":"Feature","properties":{"id":20110,"name":"Cima St\u00fcbele","class_identifier":"luogo","mainNodeId":"201355"}},{"id":20113,"geometry":{"type":"Point","coordinates":[11.035505,46.364508]},"type":"Feature","properties":{"id":20113,"name":"Monte Peller","class_identifier":"luogo","mainNodeId":"201356"}},{"id":20345,"geometry":{"type":"Point","coordinates":[11.201892,46.418597]},"type":"Feature","properties":{"id":20345,"name":"Monte Sch\u00f6negg","class_identifier":"luogo","mainNodeId":"201360"}}],"query":{"string":"classes 'luogo'","eZFindQuery":{"_query":null,"SearchContentClassID":[209],"Filter":["subattr_geo___coordinates____gpt:[-90,-90 TO 90,90]"],"SearchLimit":500,"SearchOffset":0,"Limitation":null,"AsObjects":false,"FieldsToReturn":["as_opendatastorage_bst"]},"responseHeader":{"status":0,"QTime":0,"params":{"qt":"ezpublish","hl":"false","indent":"on","fl":"meta_guid_ms meta_installation_id_ms meta_main_url_alias_ms meta_installation_url_ms meta_id_si meta_main_node_id_si meta_language_code_ms meta_name_t score meta_published_dt meta_path_string_ms meta_main_path_string_ms meta_is_invisible_b [elevated]  as_opendatastorage_bst","hl.requireFieldMatch":"true","start":"0","hl.fragsize":"200","sort":"score desc","fq":["((meta_installation_id_ms:53dc7420c2bb10bab7f1a84ac54f9361 AND (( ( meta_section_id_si:36 ) AND ( meta_object_states_si:10 OR meta_object_states_si:8 OR meta_object_states_si:9 )) OR ( ( meta_contentclass_id_si:206 OR meta_contentclass_id_si:212 OR meta_contentclass_id_si:48 OR meta_contentclass_id_si:52 OR meta_contentclass_id_si:72 OR meta_contentclass_id_si:75 OR meta_contentclass_id_si:77 OR meta_contentclass_id_si:79 OR meta_contentclass_id_si:80 OR meta_contentclass_id_si:82 OR meta_contentclass_id_si:83 OR meta_contentclass_id_si:89 ) AND ( meta_section_id_si:3 )) OR ( ( meta_section_id_si:24 OR meta_section_id_si:25 ) AND ( meta_path_si:287902 OR meta_path_si:410684)) OR ( ( meta_section_id_si:24 OR meta_section_id_si:25 ) AND ( meta_path_si:407501 OR meta_path_si:407343)) OR ( ( meta_contentclass_id_si:129 )) OR ( ( meta_section_id_si:1 OR meta_section_id_si:10 OR meta_section_id_si:11 OR meta_section_id_si:12 OR meta_section_id_si:13 OR meta_section_id_si:14 OR meta_section_id_si:15 OR meta_section_id_si:16 OR meta_section_id_si:17 OR meta_section_id_si:18 OR meta_section_id_si:19 OR meta_section_id_si:20 OR meta_section_id_si:22 OR meta_section_id_si:23 OR meta_section_id_si:26 OR meta_section_id_si:27 OR meta_section_id_si:28 OR meta_section_id_si:30 OR meta_section_id_si:32 OR meta_section_id_si:7 OR meta_section_id_si:8 OR meta_section_id_si:9 )) OR ( ( meta_section_id_si:24 OR meta_section_id_si:25 ) AND ( meta_path_si:296059)) OR ( ( meta_section_id_si:24 ) AND ( meta_path_si:407743)) OR ( ( meta_contentclass_id_si:167 )) OR ( ( meta_section_id_si:24 OR meta_section_id_si:25 ) AND ( meta_path_si:407343)) OR ( ( meta_contentclass_id_si:276 ) AND ( meta_section_id_si:105 ) AND ( meta_object_states_si:16 ) AND ( meta_object_states_si:18 OR meta_object_states_si:20 )) OR ( ( meta_contentclass_id_si:1 OR meta_contentclass_id_si:274 OR meta_contentclass_id_si:279 ) AND ( meta_section_id_si:105 )) OR ( ( meta_contentclass_id_si:282 ) AND ( meta_section_id_si:106 ) AND ( meta_object_states_si:18 OR meta_object_states_si:20 )) OR ( ( meta_contentclass_id_si:280 OR meta_contentclass_id_si:283 OR meta_contentclass_id_si:285 OR meta_contentclass_id_si:286 ) AND ( meta_section_id_si:106 ))))  ) AND meta_is_invisible_b:false","meta_contentclass_id_si:209","meta_language_code_ms:ita-IT","subattr_geo___coordinates____gpt:[-90,-90 TO 90,90]"],"rows":"500","version":"2.2","hl.simple.pre":"<b>","bq":"meta_installation_id_ms:53dc7420c2bb10bab7f1a84ac54f9361^1.5 meta_language_code_ms:ita-IT^1.2","hl.snippets":"1","q":"","forceElevation":"false","enableElevation":"false","hl.simple.post":"<\/b>","qf":"attr_abstract_t attr_geo_t attr_tags_lk attr_title_t subattr_geo___coordinates____gpt subattr_geo___geohash____gh submeta_comune___name____t submeta_tipo_luogo___name____t meta_name_t meta_owner_name_t","clustering":"false","hl.fl":"attr_abstract_t attr_geo_t attr_tags_lk attr_title_t subattr_geo___coordinates____gpt subattr_geo___geohash____gh submeta_comune___name____t submeta_tipo_luogo___name____t","wt":"php"}}},"nextPageQuery":null,"totalCount":39,"facets":[]}