{"type":"FeatureCollection","features":[{"id":1807,"geometry":{"type":"Point","coordinates":[10.89287,46.034748]},"type":"Feature","properties":{"id":1807,"name":"Antica fonte delle Terme di Comano","class_identifier":"luogo","mainNodeId":"1208","geo":"Terme di Comano"}},{"id":1809,"geometry":{"type":"Point","coordinates":[10.868919,46.013249]},"type":"Feature","properties":{"id":1809,"name":"Pieve di San Lorenzo (Vigo Lomaso)","class_identifier":"luogo","mainNodeId":"1209","geo":"Vigo Lomaso "}},{"id":1812,"geometry":{"type":"Point","coordinates":[10.89287,46.034748]},"type":"Feature","properties":{"id":1812,"name":"Forra del Limar\u00f2","class_identifier":"luogo","mainNodeId":"1212","geo":"Terme di Comano"}},{"id":1816,"geometry":{"type":"Point","coordinates":[10.869358,46.013479]},"type":"Feature","properties":{"id":1816,"name":"Val Lomasona","class_identifier":"luogo","mainNodeId":"1217","geo":"Lomaso"}},{"id":1818,"geometry":{"type":"Point","coordinates":[10.95614,46.12596]},"type":"Feature","properties":{"id":1818,"name":"Val d'Algone","class_identifier":"luogo","mainNodeId":"1218"}},{"id":1819,"geometry":{"type":"Point","coordinates":[10.130141,44.291519]},"type":"Feature","properties":{"id":1819,"name":"Chiesa di San Felice","class_identifier":"luogo","mainNodeId":"1219","geo":"Comano"}},{"id":1820,"geometry":{"type":"Point","coordinates":[10.866591,46.023111]},"type":"Feature","properties":{"id":1820,"name":"Casa Mattei (Campo Lomaso)","class_identifier":"luogo","mainNodeId":"1220","geo":"Campo Lomaso"}},{"id":1821,"geometry":{"type":"Point","coordinates":[10.861648,46.011236]},"type":"Feature","properties":{"id":1821,"name":"Casa paterna di Giovanni Prati (Dasindo)","class_identifier":"luogo","mainNodeId":"1221","geo":"Dasindo"}},{"id":1822,"geometry":{"type":"Point","coordinates":[10.828437,46.022547]},"type":"Feature","properties":{"id":1822,"name":"Santa Croce","class_identifier":"luogo","mainNodeId":"1222"}},{"id":1823,"geometry":{"type":"Point","coordinates":[10.88367,46.041393]},"type":"Feature","properties":{"id":1823,"name":"Monumento alla Santa croce","class_identifier":"luogo","mainNodeId":"1223","geo":"comano terme"}},{"id":1824,"geometry":{"type":"Point","coordinates":[10.868553,46.036179]},"type":"Feature","properties":{"id":1824,"name":"Ponte delle tre arche","class_identifier":"luogo","mainNodeId":"1224","geo":"Ponte Arche"}},{"id":1825,"geometry":{"type":"Point","coordinates":[10.88367,46.041393]},"type":"Feature","properties":{"id":1825,"name":"Monte Casale","class_identifier":"luogo","mainNodeId":"1225","geo":"Comano Terme"}},{"id":1826,"geometry":{"type":"Point","coordinates":[10.84047,46.033748]},"type":"Feature","properties":{"id":1826,"name":"Castel Restor (Vergonzo)","class_identifier":"luogo","mainNodeId":"1226","geo":"Vergonzo"}},{"id":1827,"geometry":{"type":"Point","coordinates":[10.868919,46.013249]},"type":"Feature","properties":{"id":1827,"name":"Sito archeologico di San Martino","class_identifier":"luogo","mainNodeId":"1227","geo":"Vigo Lomaso"}},{"id":1859,"geometry":{"type":"Point","coordinates":[10.864519,46.032649]},"type":"Feature","properties":{"id":1859,"name":"CRM","class_identifier":"luogo","mainNodeId":"1258","geo":"Cares"}},{"id":1861,"geometry":{"type":"Point","coordinates":[10.84763,46.032586]},"type":"Feature","properties":{"id":1861,"name":"Bi\u00e8","class_identifier":"luogo","mainNodeId":"1260"}},{"id":1862,"geometry":{"type":"Point","coordinates":[10.848481,46.022738]},"type":"Feature","properties":{"id":1862,"name":"Bono","class_identifier":"luogo","mainNodeId":"1261","geo":"Bono - Terme di Comano"}},{"id":1863,"geometry":{"type":"Point","coordinates":[10.866591,46.023111]},"type":"Feature","properties":{"id":1863,"name":"Campo Lomaso","class_identifier":"luogo","mainNodeId":"1262","geo":"Campo Lomaso - Comano Terme"}},{"id":1864,"geometry":{"type":"Point","coordinates":[10.864519,46.032649]},"type":"Feature","properties":{"id":1864,"name":"Cares","class_identifier":"luogo","mainNodeId":"1263","geo":"Cares - Comano Terme"}},{"id":1865,"geometry":{"type":"Point","coordinates":[10.846249,46.042837]},"type":"Feature","properties":{"id":1865,"name":"Cill\u00e0","class_identifier":"luogo","mainNodeId":"1264","geo":"Cill&agrave; - Comano Terme"}},{"id":1866,"geometry":{"type":"Point","coordinates":[10.89287,46.034748]},"type":"Feature","properties":{"id":1866,"name":"Comano","class_identifier":"luogo","mainNodeId":"1265","geo":"Comano  tn"}},{"id":1867,"geometry":{"type":"Point","coordinates":[10.850624,46.030817]},"type":"Feature","properties":{"id":1867,"name":"Comighello","class_identifier":"luogo","mainNodeId":"1266","geo":"Cominghello - Comano Terme"}},{"id":1868,"geometry":{"type":"Point","coordinates":[10.861648,46.011236]},"type":"Feature","properties":{"id":1868,"name":"Dasindo","class_identifier":"luogo","mainNodeId":"1267","geo":"Dasindo - Comano Terme"}},{"id":2109,"geometry":{"type":"Point","coordinates":[10.838619,46.030912]},"type":"Feature","properties":{"id":2109,"name":"Duvredo","class_identifier":"luogo","mainNodeId":"1508","geo":"Duvredo - Comano Terme"}},{"id":2110,"geometry":{"type":"Point","coordinates":[10.883158,46.02886]},"type":"Feature","properties":{"id":2110,"name":"Godenzo","class_identifier":"luogo","mainNodeId":"1509","geo":"Godenzo - Comano Terme"}},{"id":2111,"geometry":{"type":"Point","coordinates":[10.884594,46.01325]},"type":"Feature","properties":{"id":2111,"name":"Lundo","class_identifier":"luogo","mainNodeId":"1510","geo":"Lundo - Comano Terme"}},{"id":2112,"geometry":{"type":"Point","coordinates":[10.881074,46.028951]},"type":"Feature","properties":{"id":2112,"name":"Poia","class_identifier":"luogo","mainNodeId":"1511","geo":"Poia - Comano Terme"}},{"id":2113,"geometry":{"type":"Point","coordinates":[10.868553,46.036179]},"type":"Feature","properties":{"id":2113,"name":"Ponte Arche","class_identifier":"luogo","mainNodeId":"1512","geo":"Ponte Arche - Comano Terme"}},{"id":2114,"geometry":{"type":"Point","coordinates":[10.838535,46.026703]},"type":"Feature","properties":{"id":2114,"name":"Santa Croce","class_identifier":"luogo","mainNodeId":"1513","geo":"Santa Croce - Comano Terme"}},{"id":2115,"geometry":{"type":"Point","coordinates":[10.846148,46.032602]},"type":"Feature","properties":{"id":2115,"name":"Sesto","class_identifier":"luogo","mainNodeId":"1514","geo":"Sesto - Comano Terme"}},{"id":2116,"geometry":{"type":"Point","coordinates":[10.88367,46.041393]},"type":"Feature","properties":{"id":2116,"name":"Val Algone","class_identifier":"luogo","mainNodeId":"1515","geo":"Comano Terme"}},{"id":2117,"geometry":{"type":"Point","coordinates":[10.84047,46.033748]},"type":"Feature","properties":{"id":2117,"name":"Vergonzo","class_identifier":"luogo","mainNodeId":"1516","geo":"Vergonzo "}},{"id":2118,"geometry":{"type":"Point","coordinates":[10.868919,46.013249]},"type":"Feature","properties":{"id":2118,"name":"Vigo Lomaso","class_identifier":"luogo","mainNodeId":"1517","geo":"Vigo Lomaso"}},{"id":2119,"geometry":{"type":"Point","coordinates":[10.842375,46.028745]},"type":"Feature","properties":{"id":2119,"name":"Villa","class_identifier":"luogo","mainNodeId":"1518","geo":"Villa - Comano Terme"}},{"id":2121,"geometry":{"type":"Point","coordinates":[10.872552,46.035271]},"type":"Feature","properties":{"id":2121,"name":"Farmacia","class_identifier":"luogo","mainNodeId":"1520","geo":"Via Cesare Battisti, 45 38077 Comano Terme"}},{"id":2158,"geometry":{"type":"Point","coordinates":[10.725916,46.034983]},"type":"Feature","properties":{"id":2158,"name":"Corpo di polizia locale delle Giudicarie","class_identifier":"luogo","mainNodeId":"1559","geo":"Piazza Cesare Battisti 1 38079 Tione di Trento"}}],"query":{"string":"classes 'luogo'","eZFindQuery":{"_query":null,"SearchContentClassID":[359],"Filter":["subattr_geo___coordinates____gpt:[-90,-90 TO 90,90]"],"SearchLimit":500,"SearchOffset":0,"Limitation":null,"AsObjects":false,"FieldsToReturn":["as_opendatastorage_bst"]},"responseHeader":{"status":0,"QTime":1,"params":{"qt":"ezpublish","hl":"false","indent":"on","fl":"meta_guid_ms meta_installation_id_ms meta_main_url_alias_ms meta_installation_url_ms meta_id_si meta_main_node_id_si meta_language_code_ms meta_name_t score meta_published_dt meta_path_string_ms meta_main_path_string_ms meta_is_invisible_b [elevated]  as_opendatastorage_bst","hl.requireFieldMatch":"true","start":"0","hl.fragsize":"200","sort":"score desc","fq":["((meta_installation_id_ms:7ae1275249d2756870d59f48b2872f6f AND (( ( meta_section_id_si:1 )) OR ( ( meta_path_si:512)) OR ( ( meta_contentclass_id_si:304 )) OR ( ( meta_contentclass_id_si:188 OR meta_contentclass_id_si:208 OR meta_contentclass_id_si:211 OR meta_contentclass_id_si:213 OR meta_contentclass_id_si:215 OR meta_contentclass_id_si:217 OR meta_contentclass_id_si:219 OR meta_contentclass_id_si:225 OR meta_contentclass_id_si:241 ) AND ( meta_section_id_si:3 )) OR ( ( meta_section_id_si:10 ) AND ( meta_object_states_si:3 OR meta_object_states_si:4 OR meta_object_states_si:6 )) OR ( ( meta_owner_id_si:10 ) AND ( meta_owner_group_id_si:44 ))))  ) AND meta_is_invisible_b:false","meta_contentclass_id_si:359","meta_language_code_ms:ita-IT","subattr_geo___coordinates____gpt:[-90,-90 TO 90,90]"],"rows":"500","version":"2.2","hl.simple.pre":"<b>","bq":"meta_installation_id_ms:7ae1275249d2756870d59f48b2872f6f^1.5 meta_language_code_ms:ita-IT^1.2","hl.snippets":"1","q":"","forceElevation":"false","enableElevation":"false","hl.simple.post":"<\/b>","qf":"attr_abstract_t attr_descrizione_t attr_email_t attr_geo_t attr_indirizzo_t attr_tags_lk attr_telefono_t attr_title_t subattr_geo___coordinates____gpt subattr_geo___geohash____gh submeta_comune___name____t submeta_galleria___name____t submeta_tipo_luogo___name____t meta_name_t meta_owner_name_t","clustering":"false","hl.fl":"attr_abstract_t attr_descrizione_t attr_email_t attr_geo_t attr_indirizzo_t attr_tags_lk attr_telefono_t attr_title_t subattr_geo___coordinates____gpt subattr_geo___geohash____gh submeta_comune___name____t submeta_galleria___name____t submeta_tipo_luogo___name____t","wt":"php"}}},"nextPageQuery":null,"totalCount":36,"facets":[]}