{"type":"FeatureCollection","features":[{"id":1894,"geometry":{"type":"Point","coordinates":[11.055784,46.099935]},"type":"Feature","properties":{"id":1894,"name":"Lago di Terlago","class_identifier":"luogo","mainNodeId":"1192"}},{"id":5019,"geometry":{"type":"Point","coordinates":[10.994895,46.077858]},"type":"Feature","properties":{"id":5019,"name":"Capitello della Madonnina","class_identifier":"luogo","mainNodeId":"4221","geo":"Fraveggio, Vezzano, 38070, Vallelaghi"}},{"id":5020,"geometry":{"type":"Point","coordinates":[11.044334,46.09979]},"type":"Feature","properties":{"id":5020,"name":"Castel Terlago","class_identifier":"luogo","mainNodeId":"4222","geo":"Via al Castel 38070 Terlago, Vallelaghi"}},{"id":5021,"geometry":{"type":"Point","coordinates":[10.990105,46.079899]},"type":"Feature","properties":{"id":5021,"name":"Chiesa di San Bartolomeo","class_identifier":"luogo","mainNodeId":"4223","geo":"Via S. Bartolomeo, Fraveggio 38070 Vezzano, Vallelaghi"}},{"id":5022,"geometry":{"type":"Point","coordinates":[11.006649,46.089841]},"type":"Feature","properties":{"id":5022,"name":"Chiesa di San Lorenzo a Ciago","class_identifier":"luogo","mainNodeId":"4224","geo":"Via al Belvedere, Ciago 38070 Vezzano, Vallelaghi"}},{"id":5023,"geometry":{"type":"Point","coordinates":[11.048303,46.089863]},"type":"Feature","properties":{"id":5023,"name":"Chiesa di San Pantaleone","class_identifier":"luogo","mainNodeId":"4225"}},{"id":5024,"geometry":{"type":"Point","coordinates":[10.943424,46.063833]},"type":"Feature","properties":{"id":5024,"name":"Chiesa parrocchiale di San Nicol\u00f2","class_identifier":"luogo","mainNodeId":"4226","geo":"Ranzo 38070 Vezzano, Vallelaghi"}},{"id":5026,"geometry":{"type":"Point","coordinates":[10.991998,46.059165]},"type":"Feature","properties":{"id":5026,"name":"Chiesa parrocchiale di Santa Massenza","class_identifier":"luogo","mainNodeId":"4227"}},{"id":5027,"geometry":{"type":"Point","coordinates":[11.04524,46.097582]},"type":"Feature","properties":{"id":5027,"name":"Chiesa parrocchiale di Sant'Andrea","class_identifier":"luogo","mainNodeId":"4228","geo":"Via Roma 12 38070 Terlago, Vallelaghi"}},{"id":5029,"geometry":{"type":"Point","coordinates":[11.00085,46.078656]},"type":"Feature","properties":{"id":5029,"name":"Chiesa parrocchiale Santi Vigilio e Valentino","class_identifier":"luogo","mainNodeId":"4230","geo":"Piazza S. Valentino 38070 Vezzano, Vallelaghi"}},{"id":5031,"geometry":{"type":"Point","coordinates":[10.990325,46.06192]},"type":"Feature","properties":{"id":5031,"name":"Chiesa parrocchiale dei Santi Filippo e Giacomo","class_identifier":"luogo","mainNodeId":"4231","geo":"Via Montagnola 11 38070 Padergnone, Vallelaghi"}},{"id":5033,"geometry":{"type":"Point","coordinates":[10.988399,46.06154]},"type":"Feature","properties":{"id":5033,"name":"Chiesa di Santa Maria della Pace","class_identifier":"luogo","mainNodeId":"4232","geo":"Via Montagnola 75 38070 Padergnone, Vezzano"}},{"id":5038,"geometry":{"type":"Point","coordinates":[10.962682,46.068437]},"type":"Feature","properties":{"id":5038,"name":"Chiesa di Santa Maria Maddalena","class_identifier":"luogo","mainNodeId":"4238","geo":"Margone 38070 Vezzano, Vallelaghi"}},{"id":5039,"geometry":{"type":"Point","coordinates":[10.993243,46.084327]},"type":"Feature","properties":{"id":5039,"name":"Chiesetta di Sant'Antonio a Lon","class_identifier":"luogo","mainNodeId":"4239","geo":"Via alla Chiesa 38070 Vezzano, Vallelaghi"}},{"id":5040,"geometry":{"type":"Point","coordinates":[10.984182,46.066561]},"type":"Feature","properties":{"id":5040,"name":"Lago di Santa Massenza","class_identifier":"luogo","mainNodeId":"4240","geo":"Santa Massenza 38070 Vezzano, Vallelaghi"}},{"id":5041,"geometry":{"type":"Point","coordinates":[10.997311,46.07215]},"type":"Feature","properties":{"id":5041,"name":"Sentiero geologico Antonio Stoppani","class_identifier":"luogo","mainNodeId":"4241","geo":"Strada Provinciale 84 38070 Vezzano, Vallelaghi"}},{"id":1891,"geometry":{"type":"Point","coordinates":[11.044902,46.095537]},"type":"Feature","properties":{"id":1891,"name":"Scuola dell'infanzia di Terlago","class_identifier":"luogo","mainNodeId":"4840","geo":"terlago, Trentino-Alto Adige, 38070, Italia"}},{"id":1896,"geometry":{"type":"Point","coordinates":[10.997282,46.073413]},"type":"Feature","properties":{"id":1896,"name":"Teatro Valle dei Laghi","class_identifier":"luogo","mainNodeId":"1194","geo":"via Stoppan Vezzano"}},{"id":1887,"geometry":{"type":"Point","coordinates":[10.999119,46.077922]},"type":"Feature","properties":{"id":1887,"name":"Ambulatorio pediatra di base","class_identifier":"luogo","mainNodeId":"1186","geo":"Via Roma, Vallelaghi, Comunit&amp;agrave; della Valle dei Laghi, TN, Trentino-Alto Adige, 38076, Italia"}}],"query":{"string":"classes 'luogo'","eZFindQuery":{"_query":null,"SearchContentClassID":[359],"Filter":["subattr_geo___coordinates____gpt:[-90,-90 TO 90,90]"],"SearchLimit":500,"SearchOffset":0,"Limitation":null,"AsObjects":false,"FieldsToReturn":["as_opendatastorage_bst"]},"responseHeader":{"status":0,"QTime":0,"params":{"qt":"ezpublish","hl":"false","indent":"on","fl":"meta_guid_ms meta_installation_id_ms meta_main_url_alias_ms meta_installation_url_ms meta_id_si meta_main_node_id_si meta_language_code_ms meta_name_t score meta_published_dt meta_path_string_ms meta_main_path_string_ms meta_is_invisible_b [elevated]  as_opendatastorage_bst","hl.requireFieldMatch":"true","start":"0","hl.fragsize":"200","sort":"score desc","fq":["((meta_installation_id_ms:fbdf20215d71ea9b4d5aa63f7bbeeab4 AND (( ( meta_contentclass_id_si:188 OR meta_contentclass_id_si:208 OR meta_contentclass_id_si:211 OR meta_contentclass_id_si:213 OR meta_contentclass_id_si:215 OR meta_contentclass_id_si:217 OR meta_contentclass_id_si:219 OR meta_contentclass_id_si:225 OR meta_contentclass_id_si:241 ) AND ( meta_section_id_si:3 )) OR ( ( meta_section_id_si:10 ) AND ( meta_object_states_si:3 OR meta_object_states_si:4 OR meta_object_states_si:6 )) OR ( ( meta_section_id_si:1 )) OR ( ( meta_section_id_si:12 )) OR ( ( meta_contentclass_id_si:304 )) OR ( ( meta_section_id_si:12 )) OR ( ( meta_contentclass_id_si:273 ) AND ( meta_object_states_si:15 )) OR ( ( meta_contentclass_id_si:192 OR meta_contentclass_id_si:215 )) OR ( ( meta_contentclass_id_si:186 OR meta_contentclass_id_si:223 ) AND ( meta_section_id_si:15 ) AND ( meta_object_states_si:11 OR meta_object_states_si:8 )) OR ( ( meta_contentclass_id_si:496 ) AND ( meta_section_id_si:15 ) AND ( meta_object_states_si:13 )) OR ( ( meta_contentclass_id_si:293 OR meta_contentclass_id_si:495 ) AND ( meta_section_id_si:15 )) OR ( ( meta_contentclass_id_si:273 OR meta_contentclass_id_si:274 OR meta_contentclass_id_si:498 )) OR ( ( meta_main_node_id_si:9545 OR meta_main_node_id_si:9567))))  ) AND meta_is_invisible_b:false","meta_contentclass_id_si:359","meta_language_code_ms:ita-IT","subattr_geo___coordinates____gpt:[-90,-90 TO 90,90]"],"rows":"500","version":"2.2","hl.simple.pre":"<b>","bq":"meta_installation_id_ms:fbdf20215d71ea9b4d5aa63f7bbeeab4^1.5 meta_language_code_ms:ita-IT^1.2","hl.snippets":"1","q":"","forceElevation":"false","enableElevation":"false","hl.simple.post":"<\/b>","qf":"attr_abstract_t attr_descrizione_t attr_email_t attr_geo_t attr_indirizzo_t attr_tags_lk attr_telefono_t attr_title_t subattr_geo___coordinates____gpt subattr_geo___geohash____gh submeta_comune___name____t submeta_galleria___name____t submeta_tipo_luogo___name____t meta_name_t meta_owner_name_t","clustering":"false","hl.fl":"attr_abstract_t attr_descrizione_t attr_email_t attr_geo_t attr_indirizzo_t attr_tags_lk attr_telefono_t attr_title_t subattr_geo___coordinates____gpt subattr_geo___geohash____gh submeta_comune___name____t submeta_galleria___name____t submeta_tipo_luogo___name____t","wt":"php"}}},"nextPageQuery":null,"totalCount":19,"facets":[]}