{"type":"FeatureCollection","features":[{"id":2092,"geometry":{"type":"Point","coordinates":[11.297213,46.012257]},"type":"Feature","properties":{"id":2092,"name":"Centro sportivo (Palestra \/ Piscina)","class_identifier":"luogo","mainNodeId":"1500"}},{"id":2095,"geometry":{"type":"Point","coordinates":[11.289611,46.010399]},"type":"Feature","properties":{"id":2095,"name":"Palazzo dei Congressi Palalevico","class_identifier":"luogo","mainNodeId":"1501","geo":"Viale Lido, 4  38056 Levico Terme TN "}},{"id":2097,"geometry":{"type":"Point","coordinates":[11.302365,46.013424]},"type":"Feature","properties":{"id":2097,"name":"Teatro Cinema Oratorio Monsignor Caproni","class_identifier":"luogo","mainNodeId":"1503","geo":"via Monsignor Domenico Caproni 38056 Levico Terme"}},{"id":2098,"geometry":{"type":"Point","coordinates":[11.351409,45.963292]},"type":"Feature","properties":{"id":2098,"name":"Vezzena Camp","class_identifier":"luogo","mainNodeId":"1504","geo":"Levico vezzena"}},{"id":4232,"geometry":{"type":"Point","coordinates":[11.296618,46.014229]},"type":"Feature","properties":{"id":4232,"name":"Azienda per il Turismo Valsugana Lagorai \u2013 Terme \u2013 Laghi","class_identifier":"luogo","mainNodeId":"3625","geo":"Viale Vittorio Emanuele III,3 levico terme"}},{"id":4234,"geometry":{"type":"Point","coordinates":[11.296538,46.01439]},"type":"Feature","properties":{"id":4234,"name":"Le Terme a Levico","class_identifier":"luogo","mainNodeId":"3627","geo":"Viale Vittorio Emanuele, 10 - 38056 Levico Terme"}},{"id":1993,"geometry":{"type":"Point","coordinates":[11.301059,46.011974]},"type":"Feature","properties":{"id":1993,"name":"Chiesa parrocchiale del Redentore ","class_identifier":"luogo","mainNodeId":"1401"}},{"id":1994,"geometry":{"type":"Point","coordinates":[11.287047,46.017004]},"type":"Feature","properties":{"id":1994,"name":"Chiesetta di San Biagio","class_identifier":"luogo","mainNodeId":"1402"}},{"id":1995,"geometry":{"type":"Point","coordinates":[11.308834,46.00916]},"type":"Feature","properties":{"id":1995,"name":"Chiesetta della Madonna del P\u00e8zo","class_identifier":"luogo","mainNodeId":"1403"}},{"id":1996,"geometry":{"type":"Point","coordinates":[11.302726,46.009776]},"type":"Feature","properties":{"id":1996,"name":"Chiesetta di San Valentino","class_identifier":"luogo","mainNodeId":"1404"}},{"id":1998,"geometry":{"type":"Point","coordinates":[11.301898,46.013043]},"type":"Feature","properties":{"id":1998,"name":"Torre del Belvedere (localmente \u201cLa tores\u00e8la\u201d)","class_identifier":"luogo","mainNodeId":"1405"}},{"id":1999,"geometry":{"type":"Point","coordinates":[11.301753,46.010738]},"type":"Feature","properties":{"id":1999,"name":"La Fontana di Piazza Venezia","class_identifier":"luogo","mainNodeId":"1406","geo":"Levico Terme piazza Venezia"}},{"id":2000,"geometry":{"type":"Point","coordinates":[11.299867,46.012167]},"type":"Feature","properties":{"id":2000,"name":"Le Case dipinte di Via Dante","class_identifier":"luogo","mainNodeId":"1407"}},{"id":2001,"geometry":{"type":"Point","coordinates":[11.316422,46.008029]},"type":"Feature","properties":{"id":2001,"name":"Il Cimitero di guerra","class_identifier":"luogo","mainNodeId":"1408","geo":"Malga Busa Verle, Levico Terme, Comunit&agrave; Alta Valsugana e Bersntol, TN, Trentino-Alto Adige, 38056, Italia"}},{"id":2002,"geometry":{"type":"Point","coordinates":[11.281028,46.021001]},"type":"Feature","properties":{"id":2002,"name":"Forte delle Benne (m 649)","class_identifier":"luogo","mainNodeId":"1409"}},{"id":2003,"geometry":{"type":"Point","coordinates":[11.29776,46.013024]},"type":"Feature","properties":{"id":2003,"name":"Forti austriaci della Grande Guerra","class_identifier":"luogo","mainNodeId":"1410","geo":"Levico Terme"}},{"id":2004,"geometry":{"type":"Point","coordinates":[11.305577,46.009765]},"type":"Feature","properties":{"id":2004,"name":"Parco delle Terme","class_identifier":"luogo","mainNodeId":"1411","geo":"Parco Levico Terme"}},{"id":2005,"geometry":{"type":"Point","coordinates":[11.305879,46.01237]},"type":"Feature","properties":{"id":2005,"name":"Grand Hotel Imperial","class_identifier":"luogo","mainNodeId":"1412"}},{"id":2006,"geometry":{"type":"Point","coordinates":[11.296928,46.014072]},"type":"Feature","properties":{"id":2006,"name":"Palazzo delle Terme","class_identifier":"luogo","mainNodeId":"1413"}},{"id":2007,"geometry":{"type":"Point","coordinates":[11.325724,46.01881]},"type":"Feature","properties":{"id":2007,"name":"Rovine del Castello di Selva","class_identifier":"luogo","mainNodeId":"1414"}},{"id":2008,"geometry":{"type":"Point","coordinates":[11.305416,46.009748]},"type":"Feature","properties":{"id":2008,"name":"Tomba romana","class_identifier":"luogo","mainNodeId":"1415"}},{"id":2009,"geometry":{"type":"Point","coordinates":[11.304621,46.009728]},"type":"Feature","properties":{"id":2009,"name":"Il Giardino della memoria","class_identifier":"luogo","mainNodeId":"1416"}},{"id":2014,"geometry":{"type":"Point","coordinates":[11.277143,46.01491]},"type":"Feature","properties":{"id":2014,"name":"Il Lago","class_identifier":"luogo","mainNodeId":"1421","geo":"lago di Levico"}},{"id":2015,"geometry":{"type":"Point","coordinates":[11.307525,46.041732]},"type":"Feature","properties":{"id":2015,"name":"Vetriolo - Panarotta","class_identifier":"luogo","mainNodeId":"1422","geo":"Vetriolo Levico"}},{"id":2016,"geometry":{"type":"Point","coordinates":[11.326143,46.022662]},"type":"Feature","properties":{"id":2016,"name":"Selva","class_identifier":"luogo","mainNodeId":"1423","geo":"Selva Levico"}},{"id":2017,"geometry":{"type":"Point","coordinates":[11.356679,46.019576]},"type":"Feature","properties":{"id":2017,"name":"Campiello","class_identifier":"luogo","mainNodeId":"1424","geo":"Campiello Levico"}},{"id":2018,"geometry":{"type":"Point","coordinates":[11.33737,46.005726]},"type":"Feature","properties":{"id":2018,"name":"Barco","class_identifier":"luogo","mainNodeId":"1425","geo":"Barco Levico"}},{"id":2019,"geometry":{"type":"Point","coordinates":[11.316183,45.991121]},"type":"Feature","properties":{"id":2019,"name":"Santa Giuliana","class_identifier":"luogo","mainNodeId":"1426","geo":"Santa Giuliana Levico"}},{"id":2020,"geometry":{"type":"Point","coordinates":[11.351409,45.963292]},"type":"Feature","properties":{"id":2020,"name":"Altopiano di Vezzena","class_identifier":"luogo","mainNodeId":"1427","geo":"Vezzena Levico"}},{"id":2561,"geometry":{"type":"Point","coordinates":[11.299944,46.012107]},"type":"Feature","properties":{"id":2561,"name":"Farmacia De Prez","class_identifier":"luogo","mainNodeId":"1963","geo":"Via Dante, 31 38056 Levico Terme"}},{"id":2562,"geometry":{"type":"Point","coordinates":[11.30217,46.01132]},"type":"Feature","properties":{"id":2562,"name":"Farmacia Romanese","class_identifier":"luogo","mainNodeId":"1964","geo":"Via Regia 12 - 38056 Levico Terme (TN)"}},{"id":2563,"geometry":{"type":"Point","coordinates":[11.30611,46.01517]},"type":"Feature","properties":{"id":2563,"name":"Istituto Comprensivo di Levico Terme","class_identifier":"luogo","mainNodeId":"1965","geo":"Via Della Pace 5 - 38056 Levico Terme (TN)"}},{"id":2564,"geometry":{"type":"Point","coordinates":[11.336125,46.004767]},"type":"Feature","properties":{"id":2564,"name":"Scuola materna di Barco","class_identifier":"luogo","mainNodeId":"1966","geo":"Via V. Di S. Taddeo 8 - 38056 Levico Terme (TN)"}},{"id":2565,"geometry":{"type":"Point","coordinates":[11.302678,46.012991]},"type":"Feature","properties":{"id":2565,"name":"Opera Armida Barelli","class_identifier":"luogo","mainNodeId":"1967","geo":"Viale Roma 61 - 38056 Levico Terme (TN)"}},{"id":2819,"geometry":{"type":"Point","coordinates":[11.30568,46.00946]},"type":"Feature","properties":{"id":2819,"name":"Asilo Nido \"Al Parco\"","class_identifier":"luogo","mainNodeId":"2207"}},{"id":2820,"geometry":{"type":"Point","coordinates":[11.304974,46.013527]},"type":"Feature","properties":{"id":2820,"name":"Istituto di formazione professionale alberghiero","class_identifier":"luogo","mainNodeId":"2208"}},{"id":1981,"geometry":{"type":"Point","coordinates":[11.303251,46.010602]},"type":"Feature","properties":{"id":1981,"name":"AMNU","class_identifier":"luogo","mainNodeId":"1391","geo":"Via Marconi, 6 38056 Levico Terme (TN)"}},{"id":6528,"geometry":{"type":"Point","coordinates":[11.11237,46.066647]},"type":"Feature","properties":{"id":6528,"name":"Motorizzazione Civile della Provincia Autonoma di Trento","class_identifier":"luogo","mainNodeId":"5943","geo":"lungadige san nicolo, Trentino-Alto Adige, 38015, Italia"}},{"id":6545,"geometry":{"type":"Point","coordinates":[11.123719,46.062812]},"type":"Feature","properties":{"id":6545,"name":"Commissariato del Governo per la provincia di Trento","class_identifier":"luogo","mainNodeId":"5959","geo":"Corso III Novembre nr. 11 - 38122 Trento"}},{"id":33365,"geometry":{"type":"Point","coordinates":[11.292985,46.016726]},"type":"Feature","properties":{"id":33365,"name":"Istituto Superiore \"MARIE CURIE\" Sede di Levico","class_identifier":"luogo","mainNodeId":"30628"}}],"query":{"string":"classes 'luogo'","eZFindQuery":{"_query":null,"SearchContentClassID":[359],"Filter":["subattr_geo___coordinates____gpt:[-90,-90 TO 90,90]"],"SearchLimit":500,"SearchOffset":0,"Limitation":null,"AsObjects":false,"FieldsToReturn":["as_opendatastorage_bst"]},"responseHeader":{"status":0,"QTime":4,"params":{"qt":"ezpublish","hl":"false","indent":"on","fl":"meta_guid_ms meta_installation_id_ms meta_main_url_alias_ms meta_installation_url_ms meta_id_si meta_main_node_id_si meta_language_code_ms meta_name_t score meta_published_dt meta_path_string_ms meta_main_path_string_ms meta_is_invisible_b [elevated]  as_opendatastorage_bst","hl.requireFieldMatch":"true","start":"0","hl.fragsize":"200","sort":"score desc","fq":["((meta_installation_id_ms:996bd85cb54b5f7c1d79255a40c93957 AND (( ( meta_path_si:512)) OR ( ( meta_contentclass_id_si:188 OR meta_contentclass_id_si:208 OR meta_contentclass_id_si:211 OR meta_contentclass_id_si:213 OR meta_contentclass_id_si:215 OR meta_contentclass_id_si:217 OR meta_contentclass_id_si:219 OR meta_contentclass_id_si:225 OR meta_contentclass_id_si:241 ) AND ( meta_section_id_si:3 )) OR ( ( meta_contentclass_id_si:304 )) OR ( ( meta_section_id_si:1 ) AND ( meta_object_states_si:3 )) OR ( ( meta_section_id_si:1 ) AND ( meta_object_states_si:3 OR meta_object_states_si:4 OR meta_object_states_si:6 OR meta_object_states_si:7 ) AND ( meta_path_si:3597 OR meta_path_si:3610)) OR ( ( meta_owner_id_si:10 ) AND ( meta_owner_group_id_si:44 ))))  ) AND meta_is_invisible_b:false","meta_contentclass_id_si:359","meta_language_code_ms:ita-IT","subattr_geo___coordinates____gpt:[-90,-90 TO 90,90]"],"rows":"500","version":"2.2","hl.simple.pre":"<b>","bq":"meta_installation_id_ms:996bd85cb54b5f7c1d79255a40c93957^1.5 meta_language_code_ms:ita-IT^1.2","hl.snippets":"1","q":"","forceElevation":"false","enableElevation":"false","hl.simple.post":"<\/b>","qf":"attr_abstract_t attr_descrizione_t attr_email_t attr_geo_t attr_indirizzo_t attr_tags_lk attr_telefono_t attr_title_t subattr_geo___coordinates____gpt subattr_geo___geohash____gh submeta_comune___name____t submeta_galleria___name____t submeta_tipo_luogo___name____t meta_name_t meta_owner_name_t","clustering":"false","hl.fl":"attr_abstract_t attr_descrizione_t attr_email_t attr_geo_t attr_indirizzo_t attr_tags_lk attr_telefono_t attr_title_t subattr_geo___coordinates____gpt subattr_geo___geohash____gh submeta_comune___name____t submeta_galleria___name____t submeta_tipo_luogo___name____t","wt":"php"}}},"nextPageQuery":null,"totalCount":40,"facets":[]}