{"type":"FeatureCollection","features":[{"id":8480,"geometry":{"type":"Point","coordinates":[11.112493,46.140842]},"type":"Feature","properties":{"id":8480,"name":"Cantina la Vis - Lavis","class_identifier":"luogo","mainNodeId":"14854"}},{"id":12176,"geometry":{"type":"Point","coordinates":[11.129083,46.190201]},"type":"Feature","properties":{"id":12176,"name":"Museo degli Usi e Costumi della Gente Trentina","class_identifier":"luogo","mainNodeId":"15990","geo":"san michele all&#039;adige, via f mach"}},{"id":8491,"geometry":{"type":"Point","coordinates":[11.119918,46.215344]},"type":"Feature","properties":{"id":8491,"name":"Mezzocorona, Palazzo Firmian","class_identifier":"luogo","mainNodeId":"16452"}},{"id":8492,"geometry":{"type":"Point","coordinates":[11.088822,46.213511]},"type":"Feature","properties":{"id":8492,"name":"Mezzolombardo, panorama con la piana Rotaliana","class_identifier":"luogo","mainNodeId":"14855"}},{"id":8533,"geometry":{"type":"Point","coordinates":[11.168819,46.248709]},"type":"Feature","properties":{"id":8533,"name":"Valle dell'Adige, vigneti","class_identifier":"luogo","mainNodeId":"14856"}},{"id":8538,"geometry":{"type":"Point","coordinates":[11.133042,46.187865]},"type":"Feature","properties":{"id":8538,"name":"San Michele all'Adige","class_identifier":"luogo","mainNodeId":"16454"}},{"id":14254,"geometry":{"type":"Point","coordinates":[11.112493,46.140842]},"type":"Feature","properties":{"id":14254,"name":"Biblioteca comunale Lavis","class_identifier":"luogo","mainNodeId":"56401"}},{"id":14263,"geometry":{"type":"Point","coordinates":[11.119918,46.215344]},"type":"Feature","properties":{"id":14263,"name":"Biblioteca intercomunale di Mezzocorona","class_identifier":"luogo","mainNodeId":"56402"}},{"id":14264,"geometry":{"type":"Point","coordinates":[11.088822,46.213511]},"type":"Feature","properties":{"id":14264,"name":"Biblioteca intercomunale di Mezzolombardo","class_identifier":"luogo","mainNodeId":"56403"}},{"id":14290,"geometry":{"type":"Point","coordinates":[11.168819,46.248709]},"type":"Feature","properties":{"id":14290,"name":"Punto di lettura di Rover\u00e8 della Luna","class_identifier":"luogo","mainNodeId":"56405"}},{"id":14303,"geometry":{"type":"Point","coordinates":[11.133042,46.187865]},"type":"Feature","properties":{"id":14303,"name":"Biblioteca comunale San Michele all'Adige","class_identifier":"luogo","mainNodeId":"56406"}},{"id":14304,"geometry":{"type":"Point","coordinates":[11.133042,46.187865]},"type":"Feature","properties":{"id":14304,"name":"Biblioteca del Museo degli usi e costumi della gente trentina","class_identifier":"luogo","mainNodeId":"56407"}},{"id":14305,"geometry":{"type":"Point","coordinates":[11.129083,46.190201]},"type":"Feature","properties":{"id":14305,"name":"Biblioteca Fondazione Edmund Mach-Iasma","class_identifier":"luogo","mainNodeId":"56408","geo":"san michele all&#039;adige"}},{"id":14306,"geometry":{"type":"Point","coordinates":[11.133042,46.187865]},"type":"Feature","properties":{"id":14306,"name":"Biblioteca dell'Istituto per la valorizzazione del legno e delle specie arboree","class_identifier":"luogo","mainNodeId":"56409"}},{"id":13799,"geometry":{"type":"Point","coordinates":[11.112493,46.140842]},"type":"Feature","properties":{"id":13799,"name":"Lavis, vigneti","class_identifier":"luogo","mainNodeId":"24087"}}],"query":{"string":"classes 'luogo'","eZFindQuery":{"_query":null,"SearchContentClassID":[209],"Filter":["subattr_geo___coordinates____gpt:[-90,-90 TO 90,90]"],"SearchLimit":500,"SearchOffset":0,"Limitation":null,"AsObjects":false,"FieldsToReturn":["as_opendatastorage_bst"]},"responseHeader":{"status":0,"QTime":1,"params":{"qt":"ezpublish","hl":"false","indent":"on","fl":"meta_guid_ms meta_installation_id_ms meta_main_url_alias_ms meta_installation_url_ms meta_id_si meta_main_node_id_si meta_language_code_ms meta_name_t score meta_published_dt meta_path_string_ms meta_main_path_string_ms meta_is_invisible_b [elevated]  as_opendatastorage_bst","hl.requireFieldMatch":"true","start":"0","hl.fragsize":"200","sort":"score desc","fq":["((meta_installation_id_ms:53dc7420c2bb10bab7f1a84ac54f9361 AND (( ( meta_section_id_si:1 OR meta_section_id_si:10 OR meta_section_id_si:11 OR meta_section_id_si:12 OR meta_section_id_si:13 OR meta_section_id_si:14 OR meta_section_id_si:15 OR meta_section_id_si:16 OR meta_section_id_si:17 OR meta_section_id_si:18 OR meta_section_id_si:19 OR meta_section_id_si:20 OR meta_section_id_si:22 OR meta_section_id_si:23 OR meta_section_id_si:26 OR meta_section_id_si:27 OR meta_section_id_si:28 OR meta_section_id_si:30 OR meta_section_id_si:32 OR meta_section_id_si:7 OR meta_section_id_si:8 OR meta_section_id_si:9 )) OR ( ( meta_section_id_si:46 )) OR ( ( meta_section_id_si:3 )) OR ( ( meta_section_id_si:36 ) AND ( meta_object_states_si:10 OR meta_object_states_si:8 OR meta_object_states_si:9 )) OR ( ( meta_contentclass_id_si:167 )) OR ( ( meta_contentclass_id_si:129 )) OR ( ( meta_contentclass_id_si:206 OR meta_contentclass_id_si:212 OR meta_contentclass_id_si:48 OR meta_contentclass_id_si:52 OR meta_contentclass_id_si:72 OR meta_contentclass_id_si:75 OR meta_contentclass_id_si:77 OR meta_contentclass_id_si:79 OR meta_contentclass_id_si:80 OR meta_contentclass_id_si:82 OR meta_contentclass_id_si:83 OR meta_contentclass_id_si:89 ) AND ( meta_section_id_si:3 )) OR ( ( meta_section_id_si:24 OR meta_section_id_si:25 ) AND ( meta_path_si:407343)) OR ( ( meta_contentclass_id_si:276 ) AND ( meta_section_id_si:105 ) AND ( meta_object_states_si:16 ) AND ( meta_object_states_si:18 OR meta_object_states_si:20 )) OR ( ( meta_contentclass_id_si:1 OR meta_contentclass_id_si:274 OR meta_contentclass_id_si:279 ) AND ( meta_section_id_si:105 )) OR ( ( meta_contentclass_id_si:282 ) AND ( meta_section_id_si:106 ) AND ( meta_object_states_si:18 OR meta_object_states_si:20 )) OR ( ( meta_contentclass_id_si:280 OR meta_contentclass_id_si:283 OR meta_contentclass_id_si:285 OR meta_contentclass_id_si:286 ) AND ( meta_section_id_si:106 ))))  ) AND meta_is_invisible_b:false","meta_contentclass_id_si:209","meta_language_code_ms:ita-IT","subattr_geo___coordinates____gpt:[-90,-90 TO 90,90]"],"rows":"500","version":"2.2","hl.simple.pre":"<b>","bq":"meta_installation_id_ms:53dc7420c2bb10bab7f1a84ac54f9361^1.5 meta_language_code_ms:ita-IT^1.2","hl.snippets":"1","q":"","forceElevation":"false","enableElevation":"false","hl.simple.post":"<\/b>","qf":"attr_abstract_t attr_geo_t attr_tags_lk attr_title_t subattr_geo___coordinates____gpt subattr_geo___geohash____gh submeta_comune___name____t submeta_tipo_luogo___name____t meta_name_t meta_owner_name_t","clustering":"false","hl.fl":"attr_abstract_t attr_geo_t attr_tags_lk attr_title_t subattr_geo___coordinates____gpt subattr_geo___geohash____gh submeta_comune___name____t submeta_tipo_luogo___name____t","wt":"php"}}},"nextPageQuery":null,"totalCount":15,"facets":[]}