{"type":"FeatureCollection","features":[{"id":2047,"geometry":{"type":"Point","coordinates":[10.719647,46.076104]},"type":"Feature","properties":{"id":2047,"name":"Cappella di San Rocco","class_identifier":"luogo","mainNodeId":"1344","geo":"Via Sarco, Dar&egrave;, 38094, Porte di Rendena"}},{"id":2048,"geometry":{"type":"Point","coordinates":[10.715661,46.074898]},"type":"Feature","properties":{"id":2048,"name":"Parco Naturale Adamello Brenta","class_identifier":"luogo","mainNodeId":"1345","geo":"Dar&egrave;, 38094, Porte di Rendena"}},{"id":2049,"geometry":{"type":"Point","coordinates":[10.654223,46.080942]},"type":"Feature","properties":{"id":2049,"name":"Val San Valentino","class_identifier":"luogo","mainNodeId":"1346","geo":"Val San Valentino, Trentino-Alto Adige"}},{"id":2051,"geometry":{"type":"Point","coordinates":[10.720173,46.079618]},"type":"Feature","properties":{"id":2051,"name":"Fontana dai \"Baltram\"","class_identifier":"luogo","mainNodeId":"1348","geo":"Strada Statale 239, Vigo Rendena, 38094, Porte di Rendena"}},{"id":2052,"geometry":{"type":"Point","coordinates":[10.702298,46.068627]},"type":"Feature","properties":{"id":2052,"name":"Chiesetta di San Valentino","class_identifier":"luogo","mainNodeId":"1349","geo":"Via Beniamino Dorna, Vigo Rendena, 38094, Porte di Rendena"}},{"id":2053,"geometry":{"type":"Point","coordinates":[10.699653,46.069541]},"type":"Feature","properties":{"id":2053,"name":"Capitello della Madonna del Rosario","class_identifier":"luogo","mainNodeId":"1350","geo":"Via Beniamino Dorna, localit&agrave; Pascoli di Calvera, Vigo Rendena, 38094, Porte di Rendena"}},{"id":2054,"geometry":{"type":"Point","coordinates":[10.719379,46.07853]},"type":"Feature","properties":{"id":2054,"name":"Chiesa di San Lorenzo","class_identifier":"luogo","mainNodeId":"1351","geo":"Via IV Novembre, Vigo Rendena, 38094, Porte di Rendena"}},{"id":1894,"geometry":{"type":"Point","coordinates":[10.716141,46.076904]},"type":"Feature","properties":{"id":1894,"name":"Grotta di Lourdes","class_identifier":"luogo","mainNodeId":"1192","geo":"Via Beniamino Dorna, Vigo Rendena, 38094, Porte di Rendena"}},{"id":1896,"geometry":{"type":"Point","coordinates":[10.718558,46.075497]},"type":"Feature","properties":{"id":1896,"name":"Casa Cus","class_identifier":"luogo","mainNodeId":"1194","geo":"Localit&agrave; Dar&egrave;, Dar&egrave;, 38094, Porte di Rendena"}},{"id":3203,"geometry":{"type":"Point","coordinates":[10.718492,46.075147]},"type":"Feature","properties":{"id":3203,"name":"Fontana settecentesca di Piazza Roma","class_identifier":"luogo","mainNodeId":"2470","geo":"Piazza Roma, Dar&egrave;, 38094, Porte di Rendena"}},{"id":3204,"geometry":{"type":"Point","coordinates":[10.723225,46.080796]},"type":"Feature","properties":{"id":3204,"name":"Capitello delle quattro facce","class_identifier":"luogo","mainNodeId":"2471","geo":"Via Crosetta, Vigo Rendena, 38080, Porte di Rendena"}},{"id":3206,"geometry":{"type":"Point","coordinates":[10.711997,46.068039]},"type":"Feature","properties":{"id":3206,"name":"Casa Guste","class_identifier":"luogo","mainNodeId":"2473","geo":"Via Nazionale, 24, Fr. Javr&egrave;, 38094 Porte di Rendena"}},{"id":3207,"geometry":{"type":"Point","coordinates":[10.712802,46.055752]},"type":"Feature","properties":{"id":3207,"name":"Chiesa Ss. Fabiano e Sebastiano a Verdesina","class_identifier":"luogo","mainNodeId":"2474","geo":"Fr. Verdesina, 38094, Porte di Rendena"}},{"id":3208,"geometry":{"type":"Point","coordinates":[10.712233,46.067804]},"type":"Feature","properties":{"id":3208,"name":"Chiesa di Santa Maria Assunta a Javr\u00e8","class_identifier":"luogo","mainNodeId":"2475","geo":"Via Nazionale, 173, Javr&egrave;, 38094, Porte di Rendena"}},{"id":3210,"geometry":{"type":"Point","coordinates":[10.712453,46.062701]},"type":"Feature","properties":{"id":3210,"name":"Chiesa parrocchiale di San Martino ","class_identifier":"luogo","mainNodeId":"2477","geo":"Strada Statale 239, Villa Rendena, 38094, Porte di Rendena"}},{"id":3211,"geometry":{"type":"Point","coordinates":[10.708736,46.062527]},"type":"Feature","properties":{"id":3211,"name":"Chiesetta di Pafsang","class_identifier":"luogo","mainNodeId":"2478","geo":"Colle di Pafsang, Villa Rendena, 38094, Porte di Rendena"}},{"id":3212,"geometry":{"type":"Point","coordinates":[10.680213,46.060248]},"type":"Feature","properties":{"id":3212,"name":"Malga Rosa","class_identifier":"luogo","mainNodeId":"2479","geo":"Villa Rendena, 38094, Porte di Rendena"}},{"id":3213,"geometry":{"type":"Point","coordinates":[10.721385,46.079032]},"type":"Feature","properties":{"id":3213,"name":"Monumento Cross","class_identifier":"luogo","mainNodeId":"2480","geo":"Via Sarca, Vigo Rendena, 38094, Porte di Rendena"}},{"id":3215,"geometry":{"type":"Point","coordinates":[10.664592,46.079299]},"type":"Feature","properties":{"id":3215,"name":"Rifugio Gorck","class_identifier":"luogo","mainNodeId":"2482","geo":"Val San Valentino, 38094, Javr&eacute;, Villa Rendena, Porte di Rendena"}},{"id":3229,"geometry":{"type":"Point","coordinates":[10.719286,46.074974]},"type":"Feature","properties":{"id":3229,"name":" Area sosta camper","class_identifier":"luogo","mainNodeId":"2494","geo":"Via Trento, 117, 38094, Dar&egrave;, Porte di Rendena"}}],"query":{"string":"classes 'luogo'","eZFindQuery":{"_query":null,"SearchContentClassID":[359],"Filter":["subattr_geo___coordinates____gpt:[-90,-90 TO 90,90]"],"SearchLimit":500,"SearchOffset":0,"Limitation":null,"AsObjects":false,"FieldsToReturn":["as_opendatastorage_bst"]},"responseHeader":{"status":0,"QTime":1,"params":{"qt":"ezpublish","hl":"false","indent":"on","fl":"meta_guid_ms meta_installation_id_ms meta_main_url_alias_ms meta_installation_url_ms meta_id_si meta_main_node_id_si meta_language_code_ms meta_name_t score meta_published_dt meta_path_string_ms meta_main_path_string_ms meta_is_invisible_b [elevated]  as_opendatastorage_bst","hl.requireFieldMatch":"true","start":"0","hl.fragsize":"200","sort":"score desc","fq":["((meta_installation_id_ms:ea40544abccab8758ea125ecbdc8b0c5 AND (( ( meta_contentclass_id_si:304 )) OR ( ( meta_section_id_si:10 ) AND ( meta_object_states_si:3 OR meta_object_states_si:4 OR meta_object_states_si:6 )) OR ( ( meta_contentclass_id_si:188 OR meta_contentclass_id_si:208 OR meta_contentclass_id_si:211 OR meta_contentclass_id_si:213 OR meta_contentclass_id_si:215 OR meta_contentclass_id_si:217 OR meta_contentclass_id_si:219 OR meta_contentclass_id_si:225 OR meta_contentclass_id_si:241 ) AND ( meta_section_id_si:3 )) OR ( ( meta_section_id_si:1 )) OR ( ( meta_path_si:512))))  ) AND meta_is_invisible_b:false","meta_contentclass_id_si:359","meta_language_code_ms:ita-IT","subattr_geo___coordinates____gpt:[-90,-90 TO 90,90]"],"rows":"500","version":"2.2","hl.simple.pre":"<b>","bq":"meta_installation_id_ms:ea40544abccab8758ea125ecbdc8b0c5^1.5 meta_language_code_ms:ita-IT^1.2","hl.snippets":"1","q":"","forceElevation":"false","enableElevation":"false","hl.simple.post":"<\/b>","qf":"attr_abstract_t attr_descrizione_t attr_email_t attr_geo_t attr_indirizzo_t attr_tags_lk attr_telefono_t attr_title_t subattr_geo___coordinates____gpt subattr_geo___geohash____gh submeta_comune___name____t submeta_galleria___name____t submeta_tipo_luogo___name____t meta_name_t meta_owner_name_t","clustering":"false","hl.fl":"attr_abstract_t attr_descrizione_t attr_email_t attr_geo_t attr_indirizzo_t attr_tags_lk attr_telefono_t attr_title_t subattr_geo___coordinates____gpt subattr_geo___geohash____gh submeta_comune___name____t submeta_galleria___name____t submeta_tipo_luogo___name____t","wt":"php"}}},"nextPageQuery":null,"totalCount":20,"facets":[]}