{"type":"FeatureCollection","features":[{"id":108276,"geometry":{"type":"Point","coordinates":[10.843527,45.886723]},"type":"Feature","properties":{"id":108276,"name":"Chiesa di San Michele","class_identifier":"luogo","mainNodeId":"108167","geo":"San Michele, Viale Martiri XXVIII Giugno, Riva del Garda, Provincia autonoma di Trento, Trentino-Alto Adige, 38066, Italia"}},{"id":108278,"geometry":{"type":"Point","coordinates":[10.835888,45.884937]},"type":"Feature","properties":{"id":108278,"name":"Bastione","class_identifier":"luogo","mainNodeId":"108169"}},{"id":160650,"geometry":{"type":"Point","coordinates":[10.848624,45.897186]},"type":"Feature","properties":{"id":160650,"name":"Piazzale Mimosa","class_identifier":"luogo","mainNodeId":"154536"}},{"id":160665,"geometry":{"type":"Point","coordinates":[10.838627,45.883221]},"type":"Feature","properties":{"id":160665,"name":" Lungolago D'Annunzio (imbocco lungolago)","class_identifier":"luogo","mainNodeId":"154546"}},{"id":160670,"geometry":{"type":"Point","coordinates":[10.840945,45.884025]},"type":"Feature","properties":{"id":160670,"name":"Piazza Battisti (all'imbocco del lungolago Marinai d'Italia)","class_identifier":"luogo","mainNodeId":"154550"}},{"id":160671,"geometry":{"type":"Point","coordinates":[10.841642,45.884989]},"type":"Feature","properties":{"id":160671,"name":"Piazza Garibaldi (a sud della \"Sirenetta\")","class_identifier":"luogo","mainNodeId":"154551"}},{"id":160672,"geometry":{"type":"Point","coordinates":[10.84322,45.88412]},"type":"Feature","properties":{"id":160672,"name":"Giardini di Porta Orientale (a sud del canale della Rocca)","class_identifier":"luogo","mainNodeId":"154552"}},{"id":160673,"geometry":{"type":"Point","coordinates":[10.840825,45.885294]},"type":"Feature","properties":{"id":160673,"name":"Piazza Erbe","class_identifier":"luogo","mainNodeId":"154553"}},{"id":160674,"geometry":{"type":"Point","coordinates":[10.840777,45.886016]},"type":"Feature","properties":{"id":160674,"name":"Galleria San Giuseppe (dal lato di via Disciplini)","class_identifier":"luogo","mainNodeId":"154554"}},{"id":160675,"geometry":{"type":"Point","coordinates":[10.839869,45.886729]},"type":"Feature","properties":{"id":160675,"name":"Viale Dante (porta San Marco)","class_identifier":"luogo","mainNodeId":"154555"}},{"id":160676,"geometry":{"type":"Point","coordinates":[10.842141,45.886492]},"type":"Feature","properties":{"id":160676,"name":"Viale Dante (porta san Michele)","class_identifier":"luogo","mainNodeId":"154556","geo":"riva del garda viale dante"}},{"id":160677,"geometry":{"type":"Point","coordinates":[10.840911,45.886595]},"type":"Feature","properties":{"id":160677,"name":"Viale Dante (galleria san Giuseppe)","class_identifier":"luogo","mainNodeId":"154557"}},{"id":160678,"geometry":{"type":"Point","coordinates":[10.843573,45.885842]},"type":"Feature","properties":{"id":160678,"name":"Giardini Verdi","class_identifier":"luogo","mainNodeId":"154558"}},{"id":160679,"geometry":{"type":"Point","coordinates":[10.842349,45.887169]},"type":"Feature","properties":{"id":160679,"name":"Viale Roma (Terme romane)","class_identifier":"luogo","mainNodeId":"154559"}},{"id":160680,"geometry":{"type":"Point","coordinates":[10.845033,45.883209]},"type":"Feature","properties":{"id":160680,"name":"Inizio lungolago di Punta Lido","class_identifier":"luogo","mainNodeId":"154560"}},{"id":160681,"geometry":{"type":"Point","coordinates":[10.846366,45.881536]},"type":"Feature","properties":{"id":160681,"name":"Punta Lido","class_identifier":"luogo","mainNodeId":"154561"}},{"id":160707,"geometry":{"type":"Point","coordinates":[10.848986,45.881879]},"type":"Feature","properties":{"id":160707,"name":"Sabbioni (nei pressi di Villino Campi)","class_identifier":"luogo","mainNodeId":"154582"}},{"id":160708,"geometry":{"type":"Point","coordinates":[10.855604,45.878652]},"type":"Feature","properties":{"id":160708,"name":"Porto San Nicol\u00f2 (inizio lungolago dei Pini)","class_identifier":"luogo","mainNodeId":"154583"}},{"id":160643,"geometry":{"type":"Point","coordinates":[10.839146,45.884355]},"type":"Feature","properties":{"id":160643,"name":"Piazza Catena (spazio antistante attracco primi battelli)","class_identifier":"luogo","mainNodeId":"154526"}},{"id":160644,"geometry":{"type":"Point","coordinates":[10.839757,45.884702]},"type":"Feature","properties":{"id":160644,"name":"Piazza Tre Novembre (spazio antistante scultura \"Percorsi\")","class_identifier":"luogo","mainNodeId":"154525"}},{"id":160647,"geometry":{"type":"Point","coordinates":[10.841637,45.884434]},"type":"Feature","properties":{"id":160647,"name":"Piazza Battisti (a lato del ponte di accesso alla Rocca)","class_identifier":"luogo","mainNodeId":"154529"}}],"query":{"string":"classes 'luogo'","eZFindQuery":{"_query":null,"SearchContentClassID":[344],"Filter":["subattr_geo___coordinates____gpt:[-90,-90 TO 90,90]"],"SearchLimit":500,"SearchOffset":0,"Limitation":null,"AsObjects":false,"FieldsToReturn":["as_opendatastorage_bst"]},"responseHeader":{"status":0,"QTime":2,"params":{"qt":"ezpublish","hl":"false","indent":"on","fl":"meta_guid_ms meta_installation_id_ms meta_main_url_alias_ms meta_installation_url_ms meta_id_si meta_main_node_id_si meta_language_code_ms meta_name_t score meta_published_dt meta_path_string_ms meta_main_path_string_ms meta_is_invisible_b [elevated]  as_opendatastorage_bst","hl.requireFieldMatch":"true","start":"0","hl.fragsize":"200","sort":"score desc","fq":["((meta_installation_id_ms:e63de70d2419c3f612818dbf39f52bbd AND (( ( meta_section_id_si:1 OR meta_section_id_si:10 )) OR ( ( meta_path_si:512)) OR ( ( meta_contentclass_id_si:188 OR meta_contentclass_id_si:208 OR meta_contentclass_id_si:211 OR meta_contentclass_id_si:213 OR meta_contentclass_id_si:215 OR meta_contentclass_id_si:217 OR meta_contentclass_id_si:219 OR meta_contentclass_id_si:225 OR meta_contentclass_id_si:241 ) AND ( meta_section_id_si:3 )) OR ( ( meta_contentclass_id_si:304 )) OR ( ( meta_contentclass_id_si:379 OR meta_contentclass_id_si:381 OR meta_contentclass_id_si:383 OR meta_contentclass_id_si:387 ) AND ( meta_section_id_si:12 OR meta_section_id_si:13 )) OR ( ( meta_contentclass_id_si:380 ) AND ( meta_section_id_si:12 OR meta_section_id_si:13 ) AND ( meta_object_states_si:10 OR meta_object_states_si:8 )) OR ( ( meta_contentclass_id_si:378 ) AND ( meta_section_id_si:12 ) AND ( meta_object_states_si:6 ) AND ( meta_object_states_si:10 OR meta_object_states_si:8 )) OR ( ( meta_contentclass_id_si:1 OR meta_contentclass_id_si:375 OR meta_contentclass_id_si:384 ) AND ( meta_section_id_si:12 )) OR ( ( meta_contentclass_id_si:395 ) AND ( meta_section_id_si:13 ))))  ) AND meta_is_invisible_b:false","meta_contentclass_id_si:344","meta_language_code_ms:ita-IT","subattr_geo___coordinates____gpt:[-90,-90 TO 90,90]"],"rows":"500","version":"2.2","hl.simple.pre":"<b>","bq":"meta_installation_id_ms:e63de70d2419c3f612818dbf39f52bbd^1.5 meta_language_code_ms:ita-IT^1.2 meta_language_code_ms:eng-GB^1.0","hl.snippets":"1","q":"","forceElevation":"false","enableElevation":"false","hl.simple.post":"<\/b>","qf":"attr_abstract_t attr_descrizione_t attr_email_t attr_geo_t attr_indirizzo_t attr_tags_lk attr_telefono_t attr_title_t subattr_geo___coordinates____gpt subattr_geo___geohash____gh submeta_comune___name____t submeta_tipo_luogo___name____t meta_name_t meta_owner_name_t","clustering":"false","hl.fl":"attr_abstract_t attr_descrizione_t attr_email_t attr_geo_t attr_indirizzo_t attr_tags_lk attr_telefono_t attr_title_t subattr_geo___coordinates____gpt subattr_geo___geohash____gh submeta_comune___name____t submeta_tipo_luogo___name____t","wt":"php"}}},"nextPageQuery":null,"totalCount":21,"facets":[]}