{"records": [{"id": 2047, "geometry": {"type": "Point", "coordinates": [10.719647, 46.076104]}, "name": "Cappella di San Rocco", "geo": "Via Sarco, Dar&egrave;, 38094, Porte di Rendena"}, {"id": 2048, "geometry": {"type": "Point", "coordinates": [10.715661, 46.074898]}, "name": "Parco Naturale Adamello Brenta", "geo": "Dar&egrave;, 38094, Porte di Rendena"}, {"id": 2049, "geometry": {"type": "Point", "coordinates": [10.654223, 46.080942]}, "name": "Val San Valentino", "geo": "Val San Valentino, Trentino-Alto Adige"}, {"id": 2051, "geometry": {"type": "Point", "coordinates": [10.720173, 46.079618]}, "name": "Fontana dai \"Baltram\"", "geo": "Strada Statale 239, Vigo Rendena, 38094, Porte di Rendena"}, {"id": 2052, "geometry": {"type": "Point", "coordinates": [10.702298, 46.068627]}, "name": "Chiesetta di San Valentino", "geo": "Via Beniamino Dorna, Vigo Rendena, 38094, Porte di Rendena"}, {"id": 2053, "geometry": {"type": "Point", "coordinates": [10.699653, 46.069541]}, "name": "Capitello della Madonna del Rosario", "geo": "Via Beniamino Dorna, localit&agrave; Pascoli di Calvera, Vigo Rendena, 38094, Porte di Rendena"}, {"id": 2054, "geometry": {"type": "Point", "coordinates": [10.719379, 46.07853]}, "name": "Chiesa di San Lorenzo", "geo": "Via IV Novembre, Vigo Rendena, 38094, Porte di Rendena"}, {"id": 1894, "geometry": {"type": "Point", "coordinates": [10.716141, 46.076904]}, "name": "Grotta di Lourdes", "geo": "Via Beniamino Dorna, Vigo Rendena, 38094, Porte di Rendena"}, {"id": 1896, "geometry": {"type": "Point", "coordinates": [10.718558, 46.075497]}, "name": "Casa Cus", "geo": "Localit&agrave; Dar&egrave;, Dar&egrave;, 38094, Porte di Rendena"}, {"id": 3203, "geometry": {"type": "Point", "coordinates": [10.718492, 46.075147]}, "name": "Fontana settecentesca di Piazza Roma", "geo": "Piazza Roma, Dar&egrave;, 38094, Porte di Rendena"}, {"id": 3204, "geometry": {"type": "Point", "coordinates": [10.723225, 46.080796]}, "name": "Capitello delle quattro facce", "geo": "Via Crosetta, Vigo Rendena, 38080, Porte di Rendena"}, {"id": 3206, "geometry": {"type": "Point", "coordinates": [10.711997, 46.068039]}, "name": "Casa Guste", "geo": "Via Nazionale, 24, Fr. Javr&egrave;, 38094 Porte di Rendena"}, {"id": 3207, "geometry": {"type": "Point", "coordinates": [10.712802, 46.055752]}, "name": "Chiesa Ss. Fabiano e Sebastiano a Verdesina", "geo": "Fr. Verdesina, 38094, Porte di Rendena"}, {"id": 3208, "geometry": {"type": "Point", "coordinates": [10.712233, 46.067804]}, "name": "Chiesa di Santa Maria Assunta a Javr\u00e8", "geo": "Via Nazionale, 173, Javr&egrave;, 38094, Porte di Rendena"}, {"id": 3210, "geometry": {"type": "Point", "coordinates": [10.712453, 46.062701]}, "name": "Chiesa parrocchiale di San Martino ", "geo": "Strada Statale 239, Villa Rendena, 38094, Porte di Rendena"}, {"id": 3211, "geometry": {"type": "Point", "coordinates": [10.708736, 46.062527]}, "name": "Chiesetta di Pafsang", "geo": "Colle di Pafsang, Villa Rendena, 38094, Porte di Rendena"}, {"id": 3212, "geometry": {"type": "Point", "coordinates": [10.680213, 46.060248]}, "name": "Malga Rosa", "geo": "Villa Rendena, 38094, Porte di Rendena"}, {"id": 3213, "geometry": {"type": "Point", "coordinates": [10.721385, 46.079032]}, "name": "Monumento Cross", "geo": "Via Sarca, Vigo Rendena, 38094, Porte di Rendena"}, {"id": 3215, "geometry": {"type": "Point", "coordinates": [10.664592, 46.079299]}, "name": "Rifugio Gorck", "geo": "Val San Valentino, 38094, Javr&eacute;, Villa Rendena, Porte di Rendena"}, {"id": 3229, "geometry": {"type": "Point", "coordinates": [10.719286, 46.074974]}, "name": " Area sosta camper", "geo": "Via Trento, 117, 38094, Dar&egrave;, Porte di Rendena"}]}