{"records": [{"id": 2685, "geometry": {"type": "Point", "coordinates": [11.485761, 46.28328]}, "name": "Chiesa di Masi di Cavalese: S.S. Trinit\u00e0", "geo": "Tesero, Comunit&agrave; territoriale della Val di Fiemme, TN, Trentino-Alto Adige, 38033, Italia"}, {"id": 2686, "geometry": {"type": "Point", "coordinates": [11.461868, 46.287599]}, "name": "Il Banco della Res\u00f2n", "geo": "Banco dela Reson, Passeggiata Santa Maria della Lasta, Cavalese, Comunit&agrave; territoriale della Val di Fiemme, TN, Trentino-Alto Adige, 38033, Ita"}, {"id": 1753, "geometry": {"type": "Point", "coordinates": [11.458966, 46.291299]}, "name": "Centro d'Arte Contemporanea", "geo": "Giardinetto, Via Scario, Cavalese, Comunit&agrave; territoriale della Val di Fiemme, TN, Trentino-Alto Adige, 38033, Italia"}, {"id": 2134, "geometry": {"type": "Point", "coordinates": [11.45572, 46.281727]}, "name": "Segheria Veneziana", "geo": "Antica Segheria Veneziana, Via Avisio, Cavalese, Comunit&agrave; territoriale della Val di Fiemme, TN, Trentino-Alto Adige, 38033, Italia"}, {"id": 1969, "geometry": {"type": "Point", "coordinates": [11.457877, 46.292118]}, "name": "Chiesa di San Vigilio e Convento del Padri Francescani", "geo": "Chiesa dei Frati Francescani, Via IX Novembre, Cavalese, Comunit&agrave; territoriale della Val di Fiemme, TN, Trentino-Alto Adige, 38033, Italia"}, {"id": 1970, "geometry": {"type": "Point", "coordinates": [11.459373, 46.291503]}, "name": "Palazzo della Magnifica Comunit\u00e0 di Fiemme", "geo": "Palazzo Magnifica Comunit&agrave; di Fiemme, Via San Sebastiano, Cavalese, Comunit&agrave; territoriale della Val di Fiemme, TN, Trentino-Alto Adige, "}, {"id": 1971, "geometry": {"type": "Point", "coordinates": [11.459577, 46.291639]}, "name": "Chiesa di San Sebastiano e Fabiano e torre campanaria", "geo": "Piazza Cesare Battisti - Cavalese"}, {"id": 1972, "geometry": {"type": "Point", "coordinates": [11.462018, 46.286658]}, "name": "Pieve di Santa Maria Assunta", "geo": "Chiesa Maria Assunta, Passeggiata Santa Maria della Lasta, Cavalese, Comunit&agrave; territoriale della Val di Fiemme, TN, Trentino-Alto Adige, 38033,"}, {"id": 1973, "geometry": {"type": "Point", "coordinates": [11.461825, 46.28638]}, "name": "Chiesa della Madonna Addolorata", "geo": "Chiesa dell&#039;Addolorata, Passeggiata Santa Maria della Lasta, Cavalese, Comunit&agrave; territoriale della Val di Fiemme, TN, Trentino-Alto Adige,"}, {"id": 1974, "geometry": {"type": "Point", "coordinates": [11.457592, 46.284133]}, "name": "Torre campanaria di San Valerio", "geo": "San Valerio, Via Avisio, Cavalese, Comunit&agrave; territoriale della Val di Fiemme, TN, Trentino-Alto Adige, 38033, Italia"}, {"id": 1975, "geometry": {"type": "Point", "coordinates": [11.459577, 46.291639]}, "name": "Biblioteca Muratori", "geo": "piazza battisti - cavalese"}]}