{"records": [{"id": 2376, "geometry": {"type": "Point", "coordinates": [11.208283, 46.196001]}, "name": "Lago Santo", "geo": "Localit&agrave; Lago Santo, Cembra Lisignago, Trentino-Alto Adige, 38034, Italia"}, {"id": 2377, "geometry": {"type": "Point", "coordinates": [11.219112, 46.175076]}, "name": "Chiesa di San Pietro", "geo": "Piazza San Pietro, Cembra Lisignago, Trentino-Alto Adige, 38034, Italia"}, {"id": 2378, "geometry": {"type": "Point", "coordinates": [11.186185, 46.160706]}, "name": "Chiesa di San Biagio", "geo": "Piazza della Chiesa, Lisignago, Cembra Lisignago, Trentino-Alto Adige, 38034, Italia"}, {"id": 2379, "geometry": {"type": "Point", "coordinates": [11.187633, 46.147744]}, "name": "Chiesa di San Leonardo", "geo": "Via Trento, Albiano, 38041, Trentino-Alto Adige, Italia"}, {"id": 2380, "geometry": {"type": "Point", "coordinates": [11.204769, 46.197271]}, "name": "Sentiero del D\u00fcrer", "geo": "Cembra Lisignago, Trentino-Alto Adige, 38034, Italia"}]}