{"records": [{"id": 2768, "geometry": {"type": "Point", "coordinates": [10.673533, 46.36278]}, "name": "Chiesa di San Giorgio a Peio paese", "geo": "peio"}, {"id": 2769, "geometry": {"type": "Point", "coordinates": [10.696544, 46.347795]}, "name": "Chiesa di Ss. Filippo e Giacomo a Cogolo ", "geo": "cogolo"}, {"id": 2770, "geometry": {"type": "Point", "coordinates": [10.689204, 46.361967]}, "name": "Chiesa di San Bartolomeo a Pegaia ", "geo": "chiesetta di pegaia"}, {"id": 2771, "geometry": {"type": "Point", "coordinates": [10.702222, 46.344444]}, "name": "Ss. Fabiano e Sebastiano", "geo": "celledizzo"}, {"id": 2772, "geometry": {"type": "Point", "coordinates": [10.705443, 46.328501]}, "name": "Chiesa di San Matteo a Comasine ", "geo": "comasine"}, {"id": 2773, "geometry": {"type": "Point", "coordinates": [10.717729, 46.329462]}, "name": "Chiesa di San Agostino ", "geo": "celentino"}, {"id": 2774, "geometry": {"type": "Point", "coordinates": [10.665073, 46.35441]}, "name": "Chiesa di San Camillo a Peio Fonti "}, {"id": 2775, "geometry": {"type": "Point", "coordinates": [10.696544, 46.347795]}, "name": "Palazzo Migazzi ", "geo": "cogolo"}, {"id": 2776, "geometry": {"type": "Point", "coordinates": [10.721896, 46.32422]}, "name": "Casa dela B\u00e8ga a Strombiano ", "geo": "strombiano"}, {"id": 2778, "geometry": {"type": "Point", "coordinates": [10.702222, 46.344444]}, "name": "Segheria Museo del Legno ", "geo": "celledizzo"}, {"id": 5054, "geometry": {"type": "Point", "coordinates": [10.693031, 46.351856]}, "name": "Parco Nazionale dello Stelvio", "geo": "Piazza Municipio, 4 Cogolo"}, {"id": 5062, "geometry": {"type": "Point", "coordinates": [10.662697, 46.35402]}, "name": "Terme di Pejo", "geo": "Viale delle Acque Acidule, 3 Peio Terme"}, {"id": 5098, "geometry": {"type": "Point", "coordinates": [10.717778, 46.32833]}, "name": "Ecomuseo della Valle di Peio", "geo": "Via dei capitei, 24 38024 PEIO"}]}