{"records": [{"id": 2092, "geometry": {"type": "Point", "coordinates": [11.297213, 46.012257]}, "name": "Centro sportivo (Palestra / Piscina)"}, {"id": 2095, "geometry": {"type": "Point", "coordinates": [11.289611, 46.010399]}, "name": "Palazzo dei Congressi Palalevico", "geo": "Viale Lido, 4  38056 Levico Terme TN "}, {"id": 2097, "geometry": {"type": "Point", "coordinates": [11.302365, 46.013424]}, "name": "Teatro Cinema Oratorio Monsignor Caproni", "geo": "via Monsignor Domenico Caproni 38056 Levico Terme"}, {"id": 2098, "geometry": {"type": "Point", "coordinates": [11.351409, 45.963292]}, "name": "Vezzena Camp", "geo": "Levico vezzena"}, {"id": 4232, "geometry": {"type": "Point", "coordinates": [11.296618, 46.014229]}, "name": "Azienda per il Turismo Valsugana Lagorai \u2013 Terme \u2013 Laghi", "geo": "Viale Vittorio Emanuele III,3 levico terme"}, {"id": 4234, "geometry": {"type": "Point", "coordinates": [11.296538, 46.01439]}, "name": "Le Terme a Levico", "geo": "Viale Vittorio Emanuele, 10 - 38056 Levico Terme"}, {"id": 1993, "geometry": {"type": "Point", "coordinates": [11.301059, 46.011974]}, "name": "Chiesa parrocchiale del Redentore "}, {"id": 1994, "geometry": {"type": "Point", "coordinates": [11.287047, 46.017004]}, "name": "Chiesetta di San Biagio"}, {"id": 1995, "geometry": {"type": "Point", "coordinates": [11.308834, 46.00916]}, "name": "Chiesetta della Madonna del P\u00e8zo"}, {"id": 1996, "geometry": {"type": "Point", "coordinates": [11.302726, 46.009776]}, "name": "Chiesetta di San Valentino"}, {"id": 1998, "geometry": {"type": "Point", "coordinates": [11.301898, 46.013043]}, "name": "Torre del Belvedere (localmente \u201cLa tores\u00e8la\u201d)"}, {"id": 1999, "geometry": {"type": "Point", "coordinates": [11.301753, 46.010738]}, "name": "La Fontana di Piazza Venezia", "geo": "Levico Terme piazza Venezia"}, {"id": 2000, "geometry": {"type": "Point", "coordinates": [11.299867, 46.012167]}, "name": "Le Case dipinte di Via Dante"}, {"id": 2001, "geometry": {"type": "Point", "coordinates": [11.316422, 46.008029]}, "name": "Il Cimitero di guerra", "geo": "Malga Busa Verle, Levico Terme, Comunit&agrave; Alta Valsugana e Bersntol, TN, Trentino-Alto Adige, 38056, Italia"}, {"id": 2002, "geometry": {"type": "Point", "coordinates": [11.281028, 46.021001]}, "name": "Forte delle Benne (m 649)"}, {"id": 2003, "geometry": {"type": "Point", "coordinates": [11.29776, 46.013024]}, "name": "Forti austriaci della Grande Guerra", "geo": "Levico Terme"}, {"id": 2004, "geometry": {"type": "Point", "coordinates": [11.305577, 46.009765]}, "name": "Parco delle Terme", "geo": "Parco Levico Terme"}, {"id": 2005, "geometry": {"type": "Point", "coordinates": [11.305879, 46.01237]}, "name": "Grand Hotel Imperial"}, {"id": 2006, "geometry": {"type": "Point", "coordinates": [11.296928, 46.014072]}, "name": "Palazzo delle Terme"}, {"id": 2007, "geometry": {"type": "Point", "coordinates": [11.325724, 46.01881]}, "name": "Rovine del Castello di Selva"}, {"id": 2008, "geometry": {"type": "Point", "coordinates": [11.305416, 46.009748]}, "name": "Tomba romana"}, {"id": 2009, "geometry": {"type": "Point", "coordinates": [11.304621, 46.009728]}, "name": "Il Giardino della memoria"}, {"id": 2014, "geometry": {"type": "Point", "coordinates": [11.277143, 46.01491]}, "name": "Il Lago", "geo": "lago di Levico"}, {"id": 2015, "geometry": {"type": "Point", "coordinates": [11.307525, 46.041732]}, "name": "Vetriolo - Panarotta", "geo": "Vetriolo Levico"}, {"id": 2016, "geometry": {"type": "Point", "coordinates": [11.326143, 46.022662]}, "name": "Selva", "geo": "Selva Levico"}, {"id": 2017, "geometry": {"type": "Point", "coordinates": [11.356679, 46.019576]}, "name": "Campiello", "geo": "Campiello Levico"}, {"id": 2018, "geometry": {"type": "Point", "coordinates": [11.33737, 46.005726]}, "name": "Barco", "geo": "Barco Levico"}, {"id": 2019, "geometry": {"type": "Point", "coordinates": [11.316183, 45.991121]}, "name": "Santa Giuliana", "geo": "Santa Giuliana Levico"}, {"id": 2020, "geometry": {"type": "Point", "coordinates": [11.351409, 45.963292]}, "name": "Altopiano di Vezzena", "geo": "Vezzena Levico"}, {"id": 2561, "geometry": {"type": "Point", "coordinates": [11.299944, 46.012107]}, "name": "Farmacia De Prez", "geo": "Via Dante, 31 38056 Levico Terme"}, {"id": 2562, "geometry": {"type": "Point", "coordinates": [11.30217, 46.01132]}, "name": "Farmacia Romanese", "geo": "Via Regia 12 - 38056 Levico Terme (TN)"}, {"id": 2563, "geometry": {"type": "Point", "coordinates": [11.30611, 46.01517]}, "name": "Istituto Comprensivo di Levico Terme", "geo": "Via Della Pace 5 - 38056 Levico Terme (TN)"}, {"id": 2564, "geometry": {"type": "Point", "coordinates": [11.336125, 46.004767]}, "name": "Scuola materna di Barco", "geo": "Via V. Di S. Taddeo 8 - 38056 Levico Terme (TN)"}, {"id": 2565, "geometry": {"type": "Point", "coordinates": [11.302678, 46.012991]}, "name": "Opera Armida Barelli", "geo": "Viale Roma 61 - 38056 Levico Terme (TN)"}, {"id": 2819, "geometry": {"type": "Point", "coordinates": [11.30568, 46.00946]}, "name": "Asilo Nido \"Al Parco\""}, {"id": 2820, "geometry": {"type": "Point", "coordinates": [11.304974, 46.013527]}, "name": "Istituto di formazione professionale alberghiero"}, {"id": 1981, "geometry": {"type": "Point", "coordinates": [11.303251, 46.010602]}, "name": "AMNU", "geo": "Via Marconi, 6 38056 Levico Terme (TN)"}, {"id": 6528, "geometry": {"type": "Point", "coordinates": [11.11237, 46.066647]}, "name": "Motorizzazione Civile della Provincia Autonoma di Trento", "geo": "lungadige san nicolo, Trentino-Alto Adige, 38015, Italia"}, {"id": 6545, "geometry": {"type": "Point", "coordinates": [11.123719, 46.062812]}, "name": "Commissariato del Governo per la provincia di Trento", "geo": "Corso III Novembre nr. 11 - 38122 Trento"}, {"id": 33365, "geometry": {"type": "Point", "coordinates": [11.292985, 46.016726]}, "name": "Istituto Superiore \"MARIE CURIE\" Sede di Levico"}]}