{"records": [{"id": 1586, "geometry": {"type": "Point", "coordinates": [10.530814, 46.068258]}, "name": "Val di Breguzzo", "geo": "val di breguzzo"}, {"id": 1588, "geometry": {"type": "Point", "coordinates": [10.692668, 45.9997]}, "name": "Giro delle Cariole", "geo": "bondo tn"}, {"id": 1589, "geometry": {"type": "Point", "coordinates": [10.692668, 45.9997]}, "name": "Strada per la Madonna del Lares", "geo": "bondo tn"}, {"id": 1590, "geometry": {"type": "Point", "coordinates": [10.692668, 45.9997]}, "name": "Parco fluviale", "geo": "bondo tn"}, {"id": 1591, "geometry": {"type": "Point", "coordinates": [10.692668, 45.9997]}, "name": " Monte Gaiola", "geo": "bondo tn"}, {"id": 1592, "geometry": {"type": "Point", "coordinates": [10.692668, 45.9997]}, "name": "Strada panoramica Bondo-Roncone", "geo": "bondo tn"}, {"id": 2316, "geometry": {"type": "Point", "coordinates": [11.037474, 46.077589]}, "name": "", "geo": "via 3 novembre, trento"}, {"id": 2361, "geometry": {"type": "Point", "coordinates": [10.696392, 45.999943]}, "name": "Centro Sportivo Fiane"}, {"id": 2362, "geometry": {"type": "Point", "coordinates": [10.687981, 46.001732]}, "name": "Pista Raggio di Luna"}]}