{"records": [{"id": 2056, "geometry": {"type": "Point", "coordinates": [10.691349, 45.997214]}, "name": "Asilo nido Sella Giudicarie"}, {"id": 2065, "geometry": {"type": "Point", "coordinates": [10.6379, 45.937737]}, "name": "Asilo Nido \" L'Isola che non c'\u00e8\"", "geo": "Via Roma 48/A - 38085 Pieve Di Bono, Pieve di Bono-Prezzo (Tn)"}, {"id": 1896, "geometry": {"type": "Point", "coordinates": [10.658326, 45.963949]}, "name": "Forte Larino", "geo": "Lardaro, 38087, Sella Giudicarie"}, {"id": 3795, "geometry": {"type": "Point", "coordinates": [10.692911, 46.001296]}, "name": "Casa Bonus", "geo": "Bondo, 38087, Sella Giudicarie"}, {"id": 3804, "geometry": {"type": "Point", "coordinates": [10.69187, 46.000599]}, "name": "Antica chiesa di San Barnaba", "geo": "Piazza Italia, Bondo, 38087, Sella Giudicarie"}, {"id": 3805, "geometry": {"type": "Point", "coordinates": [10.686657, 46.002388]}, "name": "Capitello di Tartoe", "geo": "Via Santi, Bondo, 38087, Sella Giudicarie"}, {"id": 3807, "geometry": {"type": "Point", "coordinates": [10.694246, 46.001284]}, "name": "Cimitero austroungarico monumentale", "geo": "Strada statale 237, Bondo, 38087, Sella Giudicarie"}, {"id": 3808, "geometry": {"type": "Point", "coordinates": [10.70085, 46.010506]}, "name": "Antica Chiesa di Sant'Andrea", "geo": "Strada statale 237, Breguzzo, 38087, Sella Giudicarie"}, {"id": 3810, "geometry": {"type": "Point", "coordinates": [10.6993, 46.00847]}, "name": "Nuova chiesa di Sant'Andrea", "geo": "Strada statale 237, Breguzzo, 38087, Sella Giudicarie"}, {"id": 3811, "geometry": {"type": "Point", "coordinates": [10.706902, 46.020867]}, "name": "La Rocca", "geo": "Via Rocca, Breguzzo, 38087, Sella Giudicarie"}, {"id": 3817, "geometry": {"type": "Point", "coordinates": [10.671855, 45.985296]}, "name": "Chiesa di Santo Stefano", "geo": "Roncone, 38087, Sella Giudicarie"}, {"id": 3818, "geometry": {"type": "Point", "coordinates": [10.675551, 45.985113]}, "name": "Laghetto di Roncone", "geo": "Localit&agrave; Milanino, Roncone, 38087, Sella Giudicarie"}, {"id": 3822, "geometry": {"type": "Point", "coordinates": [10.670564, 45.984954]}, "name": "Malga Avalina", "geo": "Roncone, 38087, Sella Giudicarie"}, {"id": 3823, "geometry": {"type": "Point", "coordinates": [10.670564, 45.984954]}, "name": "Malga Giuggia", "geo": "Roncone, 38087, Sella Giudicarie"}, {"id": 3824, "geometry": {"type": "Point", "coordinates": [10.670564, 45.984954]}, "name": "Malga Maggiasone", "geo": "Roncone, 38087, Sella Giudicarie"}, {"id": 3827, "geometry": {"type": "Point", "coordinates": [10.670564, 45.984954]}, "name": "Alla Pozza di Dampon", "geo": "Roncone, 38087, Sella Giudicarie"}, {"id": 3828, "geometry": {"type": "Point", "coordinates": [10.676208, 45.984912]}, "name": "Lago di Roncone - localit\u00e0 Milanino", "geo": "Roncone, 38087, Sella Giudicarie"}, {"id": 3829, "geometry": {"type": "Point", "coordinates": [10.670564, 45.984954]}, "name": "Roncone - Malga Avalina - Dosso dei Morti", "geo": "Roncone, 38087, Sella Giudicarie"}, {"id": 3830, "geometry": {"type": "Point", "coordinates": [10.670564, 45.984954]}, "name": "Valle di Bondone", "geo": "Roncone, 38087, Sella Giudicarie"}]}