{"records": [{"id": 2518, "geometry": {"type": "Point", "coordinates": [10.757632, 46.154508]}, "name": "Parco Pineta ", "geo": "pinzolo , Trentino-Alto Adige, Italia"}, {"id": 2519, "geometry": {"type": "Point", "coordinates": [10.769691, 46.15751]}, "name": "Parco Ciclamino - Pinzolo", "geo": "pinzolo , Trentino-Alto Adige, Italia"}, {"id": 2521, "geometry": {"type": "Point", "coordinates": [10.785141, 46.186961]}, "name": "Parco \"ai s\u00e0s\" - S. Antonio di Mavignola", "geo": "mavignola  , Trentino-Alto Adige, Italia"}, {"id": 2522, "geometry": {"type": "Point", "coordinates": [10.827885, 46.227709]}, "name": "Conca Verde - Madonna di Campiglio", "geo": "campiglio, Trentino-Alto Adige, Italia"}, {"id": 2398, "geometry": {"type": "Point", "coordinates": [10.76007, 46.170223]}, "name": "Chiesa di Sant'Antonio ", "geo": "pinzolo, Trentino-Alto Adige, Italia"}, {"id": 2399, "geometry": {"type": "Point", "coordinates": [10.76547, 46.159246]}, "name": "Chiesa di San Lorenzo", "geo": "pinzolo, Trentino-Alto Adige, Italia"}, {"id": 2375, "geometry": {"type": "Point", "coordinates": [10.764729, 46.16486]}, "name": "La Chiesa di San Vigilio", "geo": "pinzolo, Trentino-Alto Adige, Italia"}, {"id": 2376, "geometry": {"type": "Point", "coordinates": [10.706863, 46.175821]}, "name": "Parco Naturale Adamello Brenta", "geo": "parco adamello, Trentino-Alto Adige, Italia"}, {"id": 2380, "geometry": {"type": "Point", "coordinates": [10.774498, 46.182623]}, "name": "Val Rendena", "geo": "rendena, Trentino-Alto Adige, Italia"}]}