{"records": [{"id": 1708, "geometry": {"type": "Point", "coordinates": [11.116084, 46.092532]}, "name": "Tagesmutter del Trentino \"Il Sorriso\"", "geo": "Via Zambra 11 - Trento"}, {"id": 1709, "geometry": {"type": "Point", "coordinates": [11.069565, 46.17849]}, "name": "Scuola provinciale dell'Infanzia", "geo": "Via Villa - Fai della Paganella"}, {"id": 1710, "geometry": {"type": "Point", "coordinates": [11.069565, 46.17849]}, "name": "Scuola elementare Don Luigi Rossi", "geo": "Via Villa - Fai della Paganella"}, {"id": 1711, "geometry": {"type": "Point", "coordinates": [11.06979, 46.17864]}, "name": "Farmacia Catanzaro Maria Grazia", "geo": "Via Villa n. 27 - Fai della Paganella"}, {"id": 1713, "geometry": {"type": "Point", "coordinates": [11.06979, 46.17864]}, "name": "Ufficio postale", "geo": "Via Villa, 27 - Fai della Paganella"}, {"id": 1716, "geometry": {"type": "Point", "coordinates": [11.002407, 46.164137]}, "name": "Parrocchia San Nicol\u00f2", "geo": "Piazza Italia Unita - Andalo"}, {"id": 1745, "geometry": {"type": "Point", "coordinates": [11.066667, 46.166667]}, "name": "Paganella", "geo": "Paganella"}, {"id": 1747, "geometry": {"type": "Point", "coordinates": [11.066667, 46.166667]}, "name": "Caverna \u201cCesare Battisti\u201d (Paganella)", "geo": "Paganella"}, {"id": 1749, "geometry": {"type": "Point", "coordinates": [11.069565, 46.17849]}, "name": "Biblioteche della Paganella", "geo": "Via Villa 29 - Fai della Paganella"}, {"id": 1848, "geometry": {"type": "Point", "coordinates": [11.069331, 46.178281]}, "name": "Doss Castel", "geo": "Fai della Paganella"}, {"id": 1852, "geometry": {"type": "Point", "coordinates": [11.07231, 46.18046]}, "name": "Distributore automatico latte fresco", "geo": "Via Carmelo, 12 - Fai della Paganella"}, {"id": 1853, "geometry": {"type": "Point", "coordinates": [11.051985, 46.176584]}, "name": "Paganella Bike Park", "geo": "localit&agrave; Santel - Fai della Paganella"}, {"id": 1854, "geometry": {"type": "Point", "coordinates": [11.069331, 46.178281]}, "name": "Mountain bike", "geo": "Fai della Paganella"}, {"id": 1855, "geometry": {"type": "Point", "coordinates": [11.051985, 46.176584]}, "name": "Impianti di risalita Cima Paganella e Gruppo Brenta", "geo": "Santel - Fai della Paganella"}, {"id": 1857, "geometry": {"type": "Point", "coordinates": [10.871111, 46.157222]}, "name": "Dolomiti di Brenta", "geo": "Dolomiti di Brenta"}, {"id": 1860, "geometry": {"type": "Point", "coordinates": [11.047589, 46.217032]}, "name": "Parco faunistico di Spormaggiore", "geo": "Via Alt Spaur, 82 38010 Spormaggiore"}, {"id": 1863, "geometry": {"type": "Point", "coordinates": [10.872707, 46.157278]}, "name": "Parco Naturale Adamello Brenta"}, {"id": 1871, "geometry": {"type": "Point", "coordinates": [11.04366, 45.89361]}, "name": "Mart", "geo": "Corso Bettini, 43 38068 Rovereto"}, {"id": 1846, "geometry": {"type": "Point", "coordinates": [11.069331, 46.178281]}, "name": "Paganella Fun Park", "geo": "Via Dolomiti di Brenta, 38010 &ndash; Fai della Paganella (TN)"}, {"id": 1715, "geometry": {"type": "Point", "coordinates": [11.070673, 46.179327]}, "name": "Cassa Rurale Giudicarie Valsabbia Paganella", "geo": "Piazza Italia Unita, Fai della Paganella, Comunit&agrave; della Paganella, Trento, Trentino-Alto Adige, 38017, Italia"}, {"id": 1845, "geometry": {"type": "Point", "coordinates": [11.069565, 46.17849]}, "name": "Apt Dolomiti di Brenta - Altopiano della Paganella", "geo": "via Villa - Fai della Paganella"}]}