{"records": [{"id": 1503, "name": " Santa Lucia", "geo": {"latitude": 45.91491, "longitude": 11.022841, "address": ""}}, {"id": 1504, "name": "Molini ", "geo": {"latitude": 45.91491, "longitude": 11.022841, "address": "nogaredo"}}, {"id": 1505, "name": "Noarna", "geo": {"latitude": 45.91491, "longitude": 11.022841, "address": "nogaredo"}}, {"id": 1506, "name": "Sasso", "geo": {"latitude": 45.91491, "longitude": 11.022841, "address": "nogaredo"}}, {"id": 1507, "name": "Brancolino", "geo": {"latitude": 45.91491, "longitude": 11.022841, "address": "nogaredo"}}, {"id": 1510, "name": "Castel Noarna", "geo": {"latitude": 45.91491, "longitude": 11.022841, "address": "nogaredo"}}, {"id": 1511, "name": "I Conti Lodron e Palazzo Lodron", "geo": {"latitude": 45.91491, "longitude": 11.022841, "address": "nogaredo"}}, {"id": 1512, "name": "La Chiesa di S.Valentino di Noarna", "geo": {"latitude": 45.91491, "longitude": 11.022841, "address": "nogaredo"}}, {"id": 1513, "name": " Le Streghe di Nogaredo", "geo": {"latitude": 45.91491, "longitude": 11.022841, "address": "nogaredo"}}]}