{"records": [{"id": 1742, "geometry": {"type": "Point", "coordinates": [11.062925, 46.339064]}, "name": "Chiesa del romitaggio di Santa Giustina ", "geo": "dermulo"}, {"id": 1743, "geometry": {"type": "Point", "coordinates": [11.082546, 46.28619]}, "name": "Chiesa di San Marcello", "geo": "dardine"}, {"id": 1747, "geometry": {"type": "Point", "coordinates": [11.068172, 46.294617]}, "name": "Chiesa di San Marco Evangelista ", "geo": "mollaro "}, {"id": 1748, "geometry": {"type": "Point", "coordinates": [11.074963, 46.306328]}, "name": "Chiesa della nativit\u00e0 di Maria ", "geo": "segno, taio "}, {"id": 1749, "geometry": {"type": "Point", "coordinates": [8.945912, 41.763403]}, "name": "Chiesa di S.Eusebio ", "geo": "torra, taio"}, {"id": 1750, "geometry": {"type": "Point", "coordinates": [11.080733, 46.296368]}, "name": "Chiesa di San Rocco confessore ", "geo": "tuenetto "}, {"id": 1752, "geometry": {"type": "Point", "coordinates": [11.078885, 46.276852]}, "name": "Mas del Mont", "geo": "toss, tn "}, {"id": 1757, "geometry": {"type": "Point", "coordinates": [11.095507, 46.321677]}, "name": "Area sosta camper (Batuda)", "geo": "TRES,TN "}, {"id": 1758, "geometry": {"type": "Point", "coordinates": [11.098261, 46.326027]}, "name": "Bacino - Lago di Tres "}, {"id": 1759, "geometry": {"type": "Point", "coordinates": [11.095507, 46.321677]}, "name": "Chiesa di San Rocco ", "geo": "tres,tn "}, {"id": 1760, "geometry": {"type": "Point", "coordinates": [11.079864, 46.307971]}, "name": "Chiesa di San Sigismondo ", "geo": "vion, tn "}, {"id": 1761, "geometry": {"type": "Point", "coordinates": [11.095507, 46.321677]}, "name": "Chiesa di Sant'Agnese ", "geo": "tres,tn "}, {"id": 1762, "geometry": {"type": "Point", "coordinates": [11.165905, 46.319702]}, "name": "Malga Rodeza e Corno di Tres"}, {"id": 1763, "geometry": {"type": "Point", "coordinates": [11.095507, 46.321677]}, "name": "Percorsi d'Anaunia ", "geo": "tres, tn "}, {"id": 1764, "geometry": {"type": "Point", "coordinates": [11.095507, 46.321677]}, "name": "Pra del Lac ", "geo": "tres, tn "}, {"id": 1740, "geometry": {"type": "Point", "coordinates": [11.062925, 46.339064]}, "name": "Chiesa dei Santi Filippo e Giacomo ", "geo": "dermulo "}, {"id": 1741, "geometry": {"type": "Point", "coordinates": [11.062925, 46.339064]}, "name": "Chiesa parrocchiale di Santa Giustina ", "geo": "dermulo"}]}