{"records": [{"id": 2050, "geometry": {"type": "Point", "coordinates": [11.04553, 46.340095]}, "name": "Scuola dell'Infanzia, Rallo", "geo": "bar berti, SP10, Ville d&#039;Anaunia, Provincia autonoma di Trento, Trentino-Alto Adige, 38019, Italia"}, {"id": 2052, "geometry": {"type": "Point", "coordinates": [11.04906, 46.314628]}, "name": "Chiesa di S. Biagio", "geo": "Piazza San Biagio 38010 Nanno, Ville d&#039;Anaunia"}, {"id": 2053, "geometry": {"type": "Point", "coordinates": [11.039586, 46.318939]}, "name": "Chiesa di S. Fabiano e Sebastiano", "geo": "Strada Provinciale 10 38010 Nanno, Ville d&#039;Anaunia"}, {"id": 2054, "geometry": {"type": "Point", "coordinates": [11.060362, 46.302359]}, "name": "Chiesa di S. Tommaso", "geo": "Via di San Tommaso 38010 Portolo, Ville d&#039;Anaunia"}, {"id": 1888, "geometry": {"type": "Point", "coordinates": [11.024144, 46.330277]}, "name": "Farmacia di Tuenno"}, {"id": 1894, "geometry": {"type": "Point", "coordinates": [10.941991, 46.309048]}, "name": "Malga Tassulla", "geo": "Tassullo, Ville d&#039;Anaunia"}, {"id": 1896, "geometry": {"type": "Point", "coordinates": [11.046516, 46.316096]}, "name": "Castello di Nanno", "geo": "Via al Castello 38010 Nanno, Ville d&#039;Anaunia"}, {"id": 3936, "geometry": {"type": "Point", "coordinates": [10.941525, 46.259945]}, "name": "Lago di Tovel", "geo": "Valle di Tovel 38019 Tuenno, Ville d&#039;Anaunia"}, {"id": 6859, "geometry": {"type": "Point", "coordinates": [11.009567, 46.326224]}, "name": "Chiesa di Santa Emerenziana", "geo": "Strada Provinciale 14 del Lago di Tovel, Ville d&#039;Anaunia, Comunit&agrave; della Val di Non, TN, Trentino-Alto Adige, 38019, Italia"}, {"id": 6867, "geometry": {"type": "Point", "coordinates": [11.013756, 46.320434]}, "name": "Tresenga", "geo": "Strada Provinciale 73 Destra Anaunia, Cont&agrave;, Comunit&agrave; della Val di Non, TN, Trentino-Alto Adige, 38019, Italia"}, {"id": 6868, "geometry": {"type": "Point", "coordinates": [11.043298, 46.315576]}, "name": "Castel Nanno", "geo": "Castel Nanno, SP10, Ville d&#039;Anaunia, Comunit&agrave; della Val di Non, TN, Trentino-Alto Adige, 38019, Italia"}, {"id": 6869, "geometry": {"type": "Point", "coordinates": [11.049907, 46.336195]}, "name": "Palazzo Pilati", "geo": "Ufficio Postale TASSULLO, SP10, Ville d&#039;Anaunia, Comunit&agrave; della Val di Non, TN, Trentino-Alto Adige, 38012, Italia"}]}