{"records": [{"id": 3895, "name": "Terme di Comano", "geo": {"latitude": 46.034748, "longitude": 10.89287, "address": "terme di comano"}}, {"id": 5551, "name": "Cascata Rio Bianco", "geo": {"latitude": 46.055243, "longitude": 10.847058, "address": ""}}, {"id": 5552, "name": "Castello", "geo": {"latitude": 46.050627, "longitude": 10.852723, "address": ""}}, {"id": 5715, "name": "Casa del Parco Flora", "geo": {"latitude": 46.052676, "longitude": 10.853631, "address": "stenico"}}, {"id": 5716, "name": "Parco Terme di Comano", "geo": {"latitude": 46.034748, "longitude": 10.89287, "address": "terme di comano"}}, {"id": 5717, "name": "Il giardino botanico presso la casa del Parco \"Flora\"", "geo": {"latitude": 46.052676, "longitude": 10.853631, "address": "stenico"}}, {"id": 5718, "name": "Chiesa di San Vigilio", "geo": {"latitude": 46.052676, "longitude": 10.853631, "address": "stenico"}}, {"id": 5719, "name": "Chiesa di San Pietro e Paolo", "geo": {"latitude": 46.055562, "longitude": 10.883276, "address": "sclemo"}}, {"id": 5720, "name": "Chiesa di San Michele", "geo": {"latitude": 46.057277, "longitude": 10.871687, "address": "seo stenico"}}, {"id": 5721, "name": "Chiesa di Ss. Margherita e Lucia", "geo": {"latitude": 46.04806, "longitude": 10.873502, "address": "premione stenico"}}, {"id": 5722, "name": "Chiesa della Santa Trinit\u00e0", "geo": {"latitude": 46.04755, "longitude": 10.888232, "address": "villa banale"}}, {"id": 5723, "name": "Chiesetta di San Sisto", "geo": {"latitude": 46.04755, "longitude": 10.888232, "address": "villa banale"}}, {"id": 5724, "name": "Parco Naturale Adamello Brenta", "geo": {"latitude": 46.15, "longitude": 10.87, "address": "parco adamello brenta"}}, {"id": 5725, "name": "Passeggiata Valle dei Molini", "geo": {"latitude": 46.052676, "longitude": 10.853631, "address": "stenico"}}, {"id": 5726, "name": "Itinerario storico - emozionale", "geo": {"latitude": 46.052676, "longitude": 10.853631, "address": "stenico"}}, {"id": 5727, "name": "Passeggiate da Premione", "geo": {"latitude": 46.04806, "longitude": 10.873502, "address": "premione"}}, {"id": 5728, "name": "Passeggiata Villa Banale - Terme di Comano", "geo": {"latitude": 46.04755, "longitude": 10.888232, "address": "villa banale"}}, {"id": 7198, "name": "Collezione Etnografica Giudicariese", "geo": {"latitude": 0, "longitude": 0, "address": ""}}]}