{"records": [{"id": 1728, "name": "Il Brenta ", "geo": {"latitude": 46.15, "longitude": 10.87, "address": "gruppo brenta tn"}}, {"id": 1733, "name": "Percorso Vita", "geo": {"latitude": 46.170654, "longitude": 10.748593, "address": "Carisolo loc. Antica Vetreria"}}, {"id": 1740, "name": "Pattinaggio", "geo": {"latitude": 46.15977, "longitude": 10.765027, "address": "pinzolo"}}, {"id": 1743, "name": "Alpinismo", "geo": {"latitude": 46.230258, "longitude": 10.826401, "address": "madonna di campiglio"}}, {"id": 1746, "name": "Equitazione", "geo": {"latitude": 0, "longitude": 0, "address": ""}}, {"id": 1747, "name": "Mountain bike", "geo": {"latitude": 46.167276, "longitude": 10.756866, "address": "carisolo"}}, {"id": 1748, "name": "Parapendio", "geo": {"latitude": 0, "longitude": 0, "address": ""}}, {"id": 1749, "name": "Arrampicata", "geo": {"latitude": 0, "longitude": 0, "address": ""}}, {"id": 1750, "name": "Pesca Sportiva", "geo": {"latitude": 46.139499, "longitude": 10.763309, "address": "caderzone, lago mago"}}]}