{"records": [{"id": 4252, "geometry": {"type": "Point", "coordinates": [11.248987, 46.18379]}, "name": "Castello di Segonzano"}, {"id": 3058, "geometry": {"type": "Point", "coordinates": [11.261346, 46.187572]}, "name": "Assistenti sociali", "geo": "Polifunzionale di Scancio - Segonzano"}, {"id": 3059, "geometry": {"type": "Point", "coordinates": [11.258301, 46.189146]}, "name": "Ambulatorio medici di base", "geo": "Scancio - Segonzano"}, {"id": 3060, "geometry": {"type": "Point", "coordinates": [11.258301, 46.189146]}, "name": "Ambulatorio pediatrico", "geo": "Scancio - Segonzano"}, {"id": 3061, "geometry": {"type": "Point", "coordinates": [11.258301, 46.189146]}, "name": "Ambulatorio infermieristico", "geo": "Scancio - Segonzano"}, {"id": 3062, "geometry": {"type": "Point", "coordinates": [11.261346, 46.187572]}, "name": "Ambulatorio ginecologico", "geo": "Polifunziona di Scancio - Segonzano"}, {"id": 3063, "geometry": {"type": "Point", "coordinates": [11.261346, 46.187572]}, "name": "Medico d'igiene", "geo": "Polifunziona di Scancio - Segonzano"}, {"id": 3064, "geometry": {"type": "Point", "coordinates": [11.261346, 46.187572]}, "name": "Guardia medica", "geo": "Polifunziona di Scancio - Segonzano"}, {"id": 3065, "geometry": {"type": "Point", "coordinates": [11.261346, 46.187572]}, "name": "Servizio prelievi", "geo": "Polifunziona di Scancio - Segonzano"}, {"id": 3066, "geometry": {"type": "Point", "coordinates": [11.258508, 46.187842]}, "name": "Farmacia", "geo": "Fraz. Scancio, 26 - Segonzano"}, {"id": 3068, "geometry": {"type": "Point", "coordinates": [11.223238, 46.175351]}, "name": "Difensore civico - Garante dei Minori", "geo": "PIAZZA S. ROCCO CEMBRA"}, {"id": 3070, "geometry": {"type": "Point", "coordinates": [11.258508, 46.187842]}, "name": "Ufficio postale", "geo": "Scancio 26 - Segonzano"}, {"id": 3071, "geometry": {"type": "Point", "coordinates": [11.258697, 46.190319]}, "name": "Acli", "geo": "Fraz. Scancio n. 64 - 38047 Segonzano"}, {"id": 3073, "geometry": {"type": "Point", "coordinates": [11.085179, 46.134142]}, "name": "A.S.I.A.", "geo": "Lavis - via G. di Vittorio, 84"}, {"id": 3074, "geometry": {"type": "Point", "coordinates": [11.116084, 46.092532]}, "name": "Comprensorio Valle dell'Adige", "geo": "Trento - via Zambra, 11"}, {"id": 3075, "geometry": {"type": "Point", "coordinates": [11.22061, 46.17526]}, "name": "Distretto sanitario - Ufficio Anagrafe Sanitaria", "geo": "Piazza Marconi, 7 Cembra"}, {"id": 3076, "geometry": {"type": "Point", "coordinates": [11.260128, 46.185983]}, "name": "Parrocchia SS. Trinit\u00e0", "geo": "Segonzano - fraz. Stedro, 2"}, {"id": 3077, "geometry": {"type": "Point", "coordinates": [11.300591, 46.164742]}, "name": "Parrocchia Valcava / Brusago", "geo": "Bedollo"}, {"id": 3078, "geometry": {"type": "Point", "coordinates": [11.262033, 46.186535]}, "name": "Scuola materna", "geo": "fraz. Stedro, 80 - Segonzano"}, {"id": 3079, "geometry": {"type": "Point", "coordinates": [11.258365, 46.189586]}, "name": "Scuola elementare", "geo": "fraz. Scancio 68 - Segonzano"}, {"id": 3080, "geometry": {"type": "Point", "coordinates": [11.258365, 46.189586]}, "name": "Scuola media", "geo": "fraz. Scancio 69 - Segonzano"}, {"id": 3081, "geometry": {"type": "Point", "coordinates": [11.258897, 46.188047]}, "name": "Stazione Carabinieri", "geo": "fraz. Scancio, 32 - Segonzano"}, {"id": 3082, "geometry": {"type": "Point", "coordinates": [11.258697, 46.190319]}, "name": "Stazione Forestale", "geo": "fraz. Scancio, 64 - 38047 Segonzano"}, {"id": 3083, "geometry": {"type": "Point", "coordinates": [11.280331, 46.201742]}, "name": "Santuario Madonna dell'Aiuto"}, {"id": 3084, "geometry": {"type": "Point", "coordinates": [11.257557, 46.185634]}, "name": "Piramidi di Segonzano"}]}