{"records": [{"id": 1621, "name": "Anello della Valle dei Mocheni", "geo": {"latitude": 46.06174, "longitude": 11.23696, "address": "pergine valsugana"}}, {"id": 1624, "name": "Anello dei Prati Imperiali", "geo": {"latitude": 46.06174, "longitude": 11.23696, "address": "pergine valsugana"}}, {"id": 1628, "name": "Cima Fravort da Roveda", "geo": {"latitude": 46.06174, "longitude": 11.23696, "address": "pergine valsugana"}}, {"id": 1633, "name": "Mini trekking del Sette Selle", "geo": {"latitude": 46.131657, "longitude": 11.368116, "address": "localit&agrave; frotten"}}, {"id": 1636, "name": "Cima d'Ezze - Nuovo sentiero \"Delio Pace\"", "geo": {"latitude": 46.131657, "longitude": 11.368116, "address": "localit&agrave; frotten"}}, {"id": 1641, "name": "Chiesa cinquecentesca", "geo": {"latitude": 46.089663, "longitude": 11.297549, "address": "frassilongo"}}, {"id": 1642, "name": "Lago di Caldonazzo", "geo": {"latitude": 46.014527, "longitude": 11.244635, "address": "lago caldonazzo"}}, {"id": 1645, "name": "Lago di Levico", "geo": {"latitude": 46.01491, "longitude": 11.277143, "address": "lago di levico"}}, {"id": 1646, "name": "Castello di Pergine", "geo": {"latitude": 46.053364, "longitude": 11.247717, "address": "Via al Castello, 10 38057, Pergine Valsugana, Italy"}}]}