{"records": [{"id": 2129, "geometry": {"type": "Point", "coordinates": [11.109838, 45.930915]}, "name": "Castel Beseno", "geo": "castel beseno"}, {"id": 2130, "geometry": {"type": "Point", "coordinates": [8.254988, 45.007068]}, "name": "Centro storico", "geo": "calliano"}, {"id": 2132, "geometry": {"type": "Point", "coordinates": [8.254988, 45.007068]}, "name": "Percorso dell'arte", "geo": "calliano"}, {"id": 2133, "geometry": {"type": "Point", "coordinates": [8.254988, 45.007068]}, "name": "Cascata di Calliano", "geo": "calliano"}, {"id": 2066, "geometry": {"type": "Point", "coordinates": [11.093812, 45.923057]}, "name": "Castel Pietra, testimone dell'epica battaglia di Calliano", "geo": "Castel Pietra - Location Eventi"}, {"id": 2403, "geometry": {"type": "Point", "coordinates": [11.09421, 45.93473]}, "name": "Chiesa di San Lorenzo", "geo": "Via Valentini, 15 - 38060 Calliano "}, {"id": 9574, "geometry": {"type": "Point", "coordinates": [11.094742, 45.93585]}, "name": "Arminio de Valentini", "geo": "Municipio di Calliano, Via Arminio Valentini, Calliano, Comunit&agrave; della Vallagarina, TN, Trentino-Alto Adige, 38060, Italia"}]}