{"records": [{"id": 1856, "geometry": {"type": "Point", "coordinates": [11.107007, 46.43105]}, "name": "Malga Last\u00e8 o \"Mont Aut\"", "geo": "Brez"}, {"id": 1858, "geometry": {"type": "Point", "coordinates": [11.107007, 46.43105]}, "name": "Campo di pallavolo", "geo": "Brez"}, {"id": 1859, "geometry": {"type": "Point", "coordinates": [11.107007, 46.43105]}, "name": "Campo sportivo", "geo": "Brez"}, {"id": 1860, "geometry": {"type": "Point", "coordinates": [11.107007, 46.43105]}, "name": "Percorso vita", "geo": "Brez"}, {"id": 1909, "geometry": {"type": "Point", "coordinates": [11.107382, 46.430962]}, "name": "Mercato di Brez", "geo": "Piazza Municipio - Brez"}, {"id": 1910, "geometry": {"type": "Point", "coordinates": [11.107963, 46.431132]}, "name": "Ambulatorio medico", "geo": "Piazza Municipio, 1 Brez"}, {"id": 1911, "geometry": {"type": "Point", "coordinates": [11.140137, 46.436546]}, "name": "Stazione forestale", "geo": "Fondo Tn"}, {"id": 1912, "geometry": {"type": "Point", "coordinates": [11.106535, 46.432123]}, "name": "Scuola elementare", "geo": "Via Oreste Rauzi, 1 Brez"}, {"id": 1913, "geometry": {"type": "Point", "coordinates": [11.107765, 46.432855]}, "name": "Scuola materna", "geo": "Via Oreste Rauzi, 2 - Brez"}, {"id": 1914, "geometry": {"type": "Point", "coordinates": [11.105641, 46.432485]}, "name": "Parrocchia", "geo": "Via Lorenzoni - Brez"}, {"id": 1915, "geometry": {"type": "Point", "coordinates": [11.107963, 46.431132]}, "name": "Ufficio postale", "geo": "Piazza Municipio, 1 - Brez"}, {"id": 1916, "geometry": {"type": "Point", "coordinates": [11.106535, 46.432123]}, "name": "Cassa Rurale Novella e Alta Anaunia", "geo": "Via Oreste Rauzi, 1/A - Brez"}, {"id": 1921, "geometry": {"type": "Point", "coordinates": [11.06035, 46.39073]}, "name": "Farmacia di Rev\u00f2", "geo": "Via J. A. Maffei, 4 38028 Rev&ograve;"}]}