{"records": [{"id": 7704, "geometry": {"type": "Point", "coordinates": [11.010189, 46.201821]}, "name": "Parco Faunistico di Spormaggiore"}, {"id": 7754, "geometry": {"type": "Point", "coordinates": [10.965146, 46.141734]}, "name": "Chiesetta di San Vigilio"}, {"id": 7773, "geometry": {"type": "Point", "coordinates": [11.007545, 46.16338]}, "name": "Campo da calcio regolamentare Andalo"}, {"id": 7774, "geometry": {"type": "Point", "coordinates": [10.965146, 46.141734]}, "name": "Campo da calcio regolamentare Molveno"}, {"id": 7788, "geometry": {"type": "Point", "coordinates": [11.004732, 46.17047]}, "name": "Centro Sportivo Andalo"}, {"id": 7789, "geometry": {"type": "Point", "coordinates": [10.965146, 46.141734]}, "name": "Palazzetto polifunzionale dello sport di Molveno", "geo": "loc. Ischia Molveno"}, {"id": 7827, "geometry": {"type": "Point", "coordinates": [10.965146, 46.141734]}, "name": "Forest Park"}, {"id": 7835, "geometry": {"type": "Point", "coordinates": [11.04753, 46.174477]}, "name": "Tapis Roulant Rolly Marchi"}, {"id": 7838, "geometry": {"type": "Point", "coordinates": [11.070578, 46.176969]}, "name": "Paganella Fun Park"}, {"id": 7840, "geometry": {"type": "Point", "coordinates": [11.006613, 46.160645]}, "name": "Pinocchio Club Andalo"}, {"id": 8364, "geometry": {"type": "Point", "coordinates": [11.007545, 46.16338]}, "name": "Andalo - Pradel - Lago di Molveno - Andalo (Paganella Bike)"}, {"id": 8395, "geometry": {"type": "Point", "coordinates": [11.007545, 46.16338]}, "name": "Andalo, veduta invernale"}, {"id": 8432, "geometry": {"type": "Point", "coordinates": [11.006805, 46.185216]}, "name": "Cavedago, panorama invernale"}, {"id": 8459, "geometry": {"type": "Point", "coordinates": [11.069331, 46.178281]}, "name": "Paganella, paesaggio invernale"}, {"id": 8494, "geometry": {"type": "Point", "coordinates": [10.965146, 46.141734]}, "name": "Molveno, panorama invernale"}, {"id": 8550, "geometry": {"type": "Point", "coordinates": [11.010189, 46.201821]}, "name": "Spormaggiore, Castel Belfort"}, {"id": 11024, "geometry": {"type": "Point", "coordinates": [11.007545, 46.16338]}, "name": "Scuola Italiana Sci Dolomiti di Brenta"}, {"id": 11213, "geometry": {"type": "Point", "coordinates": [11.003738, 46.163947]}, "name": "Scuola di Sci Nuova Andalo"}, {"id": 11217, "geometry": {"type": "Point", "coordinates": [11.003496, 46.16393]}, "name": "Associazione Maestri di sci Paganella Ski Style"}, {"id": 11223, "geometry": {"type": "Point", "coordinates": [11.069537, 46.177847]}, "name": "Scuola di Sci Fai della Paganella"}, {"id": 11224, "geometry": {"type": "Point", "coordinates": [11.007545, 46.16338]}, "name": "Scuola di Sci Eurocarving"}, {"id": 11228, "geometry": {"type": "Point", "coordinates": [11.003738, 46.163947]}, "name": "Scuola di Sci Dolomiti di Brenta"}, {"id": 11250, "geometry": {"type": "Point", "coordinates": [11.002626, 46.162976]}, "name": "Associazione Maestri di Sci Olimpica Ski Center"}, {"id": 11263, "geometry": {"type": "Point", "coordinates": [10.964852, 46.143148]}, "name": "Giro delle Bocchette Alte"}, {"id": 11264, "geometry": {"type": "Point", "coordinates": [10.964852, 46.143148]}, "name": "Giro delle Bocchette Centrali"}, {"id": 11284, "geometry": {"type": "Point", "coordinates": [11.007545, 46.16338]}, "name": "Palestra artificiale Andalo"}, {"id": 11285, "geometry": {"type": "Point", "coordinates": [10.965146, 46.141734]}, "name": "Palestra artificiale Molveno"}, {"id": 11286, "geometry": {"type": "Point", "coordinates": [11.041205, 46.204246]}, "name": "Palestra di roccia - Spormaggiore"}, {"id": 11288, "geometry": {"type": "Point", "coordinates": [11.069331, 46.178281]}, "name": "Palestra di arrampicata - Fai della Paganella"}, {"id": 11289, "geometry": {"type": "Point", "coordinates": [10.965146, 46.141734]}, "name": "Palestra di roccia Sant'Antonio - Molveno"}, {"id": 11343, "geometry": {"type": "Point", "coordinates": [11.005167, 46.166111]}, "name": "Fai della Paganella - Andalo - Cavedago - Spormaggiore"}, {"id": 11348, "geometry": {"type": "Point", "coordinates": [11.002356, 46.167457]}, "name": "Centro equitazione Andalo", "geo": "via priori 16 andalo"}, {"id": 11394, "geometry": {"type": "Point", "coordinates": [10.962853, 46.140743]}, "name": "Canoa - Lago di Molveno", "geo": "lido di moveno"}, {"id": 11404, "geometry": {"type": "Point", "coordinates": [11.069331, 46.178281]}, "name": "Bike Park Paganella"}, {"id": 11417, "geometry": {"type": "Point", "coordinates": [11.047589, 46.217032]}, "name": "Casa del Parco - L'orso signore del bosco", "geo": "Via Alt Spaur, 82 - Spormaggiore"}, {"id": 11443, "geometry": {"type": "Point", "coordinates": [10.965146, 46.141734]}, "name": "Antica segheria veneziana Taialacqua"}, {"id": 11500, "geometry": {"type": "Point", "coordinates": [11.007545, 46.16338]}, "name": "Lago di Andalo"}, {"id": 11501, "geometry": {"type": "Point", "coordinates": [10.965146, 46.141734]}, "name": "Lago di Molveno"}, {"id": 11558, "geometry": {"type": "Point", "coordinates": [10.965146, 46.141734]}, "name": "Club Vola Bass Molveno"}, {"id": 11588, "geometry": {"type": "Point", "coordinates": [11.004836, 46.170144]}, "name": "Piscina di Andalo, AcquaIn", "geo": "via del parco 1 andalo"}, {"id": 11589, "geometry": {"type": "Point", "coordinates": [10.965146, 46.141734]}, "name": "Piscina di Molveno", "geo": "via lungolago 17 molveno"}, {"id": 11613, "geometry": {"type": "Point", "coordinates": [11.010189, 46.201821]}, "name": "Castel Belfort"}, {"id": 11615, "geometry": {"type": "Point", "coordinates": [10.965146, 46.141734]}, "name": "Cima Lasteri"}, {"id": 11618, "geometry": {"type": "Point", "coordinates": [10.965146, 46.141734]}, "name": ""}, {"id": 11651, "geometry": {"type": "Point", "coordinates": [11.002407, 46.164137]}, "name": "Piz Galin", "geo": "valbiole andalo"}, {"id": 11667, "geometry": {"type": "Point", "coordinates": [11.007545, 46.16338]}, "name": "Snowpark Dosson"}, {"id": 11682, "geometry": {"type": "Point", "coordinates": [11.047995, 46.218109]}, "name": "Tiro con l'arco - Belfort", "geo": "belfort, spormaggiore"}, {"id": 11702, "geometry": {"type": "Point", "coordinates": [10.965146, 46.141734]}, "name": "Brenta Est"}, {"id": 11730, "geometry": {"type": "Point", "coordinates": [10.9662, 46.14263]}, "name": "Rifugio Croz dell'Altissimo da Pradel"}, {"id": 11745, "geometry": {"type": "Point", "coordinates": [10.965146, 46.141734]}, "name": "Windsurf e vela a Molveno"}, {"id": 13439, "geometry": {"type": "Point", "coordinates": [10.96674, 46.139223]}, "name": "Molveno: Giro del lago di Bior e Sentiero Re dei Belgi"}, {"id": 13441, "geometry": {"type": "Point", "coordinates": [11.049804, 46.219516]}, "name": "Spormaggiore: Percorso Sentiero Vita", "geo": "spormaggiore"}, {"id": 13443, "geometry": {"type": "Point", "coordinates": [11.06854, 46.175335]}, "name": "Fai della Paganella: La Via delle Acque", "geo": "Fai della paganella"}, {"id": 13661, "geometry": {"type": "Point", "coordinates": [11.007545, 46.16338]}, "name": "Paganella"}, {"id": 13692, "geometry": {"type": "Point", "coordinates": [11.066667, 46.166667]}, "name": "Paganella Bike"}, {"id": 13727, "geometry": {"type": "Point", "coordinates": [10.965146, 46.141734]}, "name": "Monte Gazza - Lago di Molveno"}, {"id": 13745, "geometry": {"type": "Point", "coordinates": [11.002407, 46.164137]}, "name": "Andalo, panorama"}, {"id": 13769, "geometry": {"type": "Point", "coordinates": [11.028348, 46.18362]}, "name": "Cavedago"}, {"id": 13784, "geometry": {"type": "Point", "coordinates": [11.069331, 46.178281]}, "name": "Fai della Paganella, panorama"}, {"id": 13811, "geometry": {"type": "Point", "coordinates": [10.965146, 46.141734]}, "name": "Molveno"}, {"id": 13847, "geometry": {"type": "Point", "coordinates": [11.047589, 46.217032]}, "name": "Spormaggiore"}, {"id": 14207, "geometry": {"type": "Point", "coordinates": [11.003541, 46.16376]}, "name": "Servizio Bibliotecario della Paganella - Sede centrale", "geo": "Piazzale Paganella 3  38010 Andalo"}, {"id": 14230, "geometry": {"type": "Point", "coordinates": [11.027818, 46.183093]}, "name": "Punto di lettura - Cavedago", "geo": "VIA DEL TOMAS, 2   38010 Cavedago"}, {"id": 14243, "geometry": {"type": "Point", "coordinates": [11.069637, 46.178934]}, "name": "Punto di lettura - Fai della Paganella", "geo": "Via Villa, 29   38010 Fai della Paganella"}, {"id": 14266, "geometry": {"type": "Point", "coordinates": [10.96482, 46.14285]}, "name": "Punto di lettura - Molveno", "geo": "Piazza Scuole, 1  38018 Molveno "}, {"id": 14310, "geometry": {"type": "Point", "coordinates": [11.047589, 46.217032]}, "name": "Punto di lettura - Spormaggiore", "geo": "Localit&agrave; Spiazzola - spormaggiore"}, {"id": 14923, "geometry": {"type": "Point", "coordinates": [11.007545, 46.16338]}, "name": "Paganella Mountain Bike"}, {"id": 19617, "geometry": {"type": "Point", "coordinates": [11.047589, 46.217032]}, "name": "Selvapiana Andalo Santel MTB"}, {"id": 19624, "geometry": {"type": "Point", "coordinates": [11.007545, 46.16338]}, "name": "Ice Racing Kart"}, {"id": 20115, "geometry": {"type": "Point", "coordinates": [10.965146, 46.141734]}, "name": "Piz Galin"}, {"id": 20118, "geometry": {"type": "Point", "coordinates": [10.965146, 46.141734]}, "name": "Cima Canfedin"}, {"id": 81977, "geometry": {"type": "Point", "coordinates": [10.959, 46.15508]}, "name": "Malga Tovre"}, {"id": 150770, "geometry": {"type": "Point", "coordinates": [11.048675, 46.219409]}, "name": "Biblioteca fuori di s\u00e9 - Biblioteca dell'Orso"}, {"id": 150774, "geometry": {"type": "Point", "coordinates": [10.996648, 46.149552]}, "name": "Biblioteca fuori di s\u00e9 - Biblioigloo"}]}