{"records": [{"id": 2164, "geometry": {"type": "Point", "coordinates": [10.949557, 45.817127]}, "name": "Chiesa di San Rocco", "geo": "lera brentonico"}, {"id": 2165, "geometry": {"type": "Point", "coordinates": [10.955968, 45.818725]}, "name": "Parco del Pal\u00f9"}, {"id": 2166, "geometry": {"type": "Point", "coordinates": [10.949557, 45.817127]}, "name": "Chiesa dei Santi Pietro e Paolo", "geo": "Brentonico"}, {"id": 2167, "geometry": {"type": "Point", "coordinates": [10.949557, 45.817127]}, "name": "Piazzale della Chiesa dei Santi Pietro e Paolo", "geo": "Brentonico"}, {"id": 2169, "geometry": {"type": "Point", "coordinates": [10.948274, 45.816501]}, "name": "Contrada di Font\u00e8chel", "geo": "Fontechel "}, {"id": 2170, "geometry": {"type": "Point", "coordinates": [10.949557, 45.817127]}, "name": "Castello di Dossomaggiore", "geo": "Brentonico"}, {"id": 2171, "geometry": {"type": "Point", "coordinates": [10.949557, 45.817127]}, "name": "Dosso Rovione", "geo": "Brentonico"}, {"id": 2173, "geometry": {"type": "Point", "coordinates": [10.953216, 45.837064]}, "name": "Castione (m 520)", "geo": "Castione tn"}, {"id": 2174, "geometry": {"type": "Point", "coordinates": [10.969029, 45.816929]}, "name": "Cazzano (m 559)", "geo": "Cazzano Brentonico"}, {"id": 2175, "geometry": {"type": "Point", "coordinates": [10.970003, 45.819468]}, "name": "Crosano (m 568-550)", "geo": "Crosano Brentonico"}, {"id": 2176, "geometry": {"type": "Point", "coordinates": [10.950317, 45.80794]}, "name": "Sorne (m 527)", "geo": "Sorne Brentonico"}, {"id": 2177, "geometry": {"type": "Point", "coordinates": [10.970069, 45.807828]}, "name": "Corn\u00e8 (m 470)", "geo": "Corn&egrave; Brentonico"}, {"id": 2178, "geometry": {"type": "Point", "coordinates": [10.956112, 45.817937]}, "name": "Prada (m 773)", "geo": "Prada Brentonico"}, {"id": 2179, "geometry": {"type": "Point", "coordinates": [10.975348, 45.79592]}, "name": "Saccone (m 742)", "geo": "Saccone Brentonico"}, {"id": 2180, "geometry": {"type": "Point", "coordinates": [10.918484, 45.798418]}, "name": "San Giacomo (m 1194)", "geo": "San Giacomo Brentonico"}, {"id": 2181, "geometry": {"type": "Point", "coordinates": [10.906631, 45.782471]}, "name": "San Valentino (m 1314)", "geo": "San Valentino Brentonico"}, {"id": 2182, "geometry": {"type": "Point", "coordinates": [10.942602, 45.784055]}, "name": "Polsa (m 1244)", "geo": "Polsa Brentonico"}, {"id": 2184, "geometry": {"type": "Point", "coordinates": [10.949557, 45.817127]}, "name": "Orto dei semplici ed il Giardino botanico del Monte Baldo", "geo": "Brentonico"}, {"id": 2189, "geometry": {"type": "Point", "coordinates": [10.953752, 45.816952]}, "name": "Medici di base", "geo": "via ospedale 12 Brentonico"}, {"id": 2191, "geometry": {"type": "Point", "coordinates": [10.953752, 45.816952]}, "name": "Pediatri", "geo": "via Ospedale 12 Brentonico"}, {"id": 2194, "geometry": {"type": "Point", "coordinates": [10.921032, 45.788071]}, "name": "Ski Area San Valentino - Brentonicoski  ", "geo": "Localit&agrave; Mosee 38060 Brenonico Trento"}, {"id": 2195, "geometry": {"type": "Point", "coordinates": [10.942227, 45.782514]}, "name": "Ski Area Polsa - Brentonicoski ", "geo": "Localit&agrave; Polsa e S. Valentino38060 Brenonico Trento"}, {"id": 2196, "geometry": {"type": "Point", "coordinates": [10.918484, 45.798418]}, "name": "Centro fondo San Giacomo Brentonico.", "geo": "Localit&agrave; San Giacomo Brentonico"}, {"id": 2198, "geometry": {"type": "Point", "coordinates": [11.003151, 45.757366]}, "name": "Centro Sportivo \"Santa Caterina\" - Campi di calcio", "geo": "Via Santa Caterina - Brentonico"}, {"id": 2199, "geometry": {"type": "Point", "coordinates": [10.949557, 45.817127]}, "name": "Impianto Sportivo \"Al Zengio\"", "geo": "Localit&agrave; Zengio - Brentonico"}, {"id": 2201, "geometry": {"type": "Point", "coordinates": [10.949557, 45.817127]}, "name": "Bocciodromo \"Al Zengio\"", "geo": "Localit&agrave; al Zengio - Brentonico"}, {"id": 2206, "geometry": {"type": "Point", "coordinates": [10.949557, 45.817127]}, "name": "Area sosta camper", "geo": "via al dosset brentonico   "}, {"id": 2236, "geometry": {"type": "Point", "coordinates": [10.9587, 45.81747]}, "name": "APSP Brentonico", "geo": "Via Balista, 7 - Brentonico"}, {"id": 2253, "geometry": {"type": "Point", "coordinates": [10.954242, 45.816696]}, "name": "Museo del Fossile del Monte Baldo", "geo": "via Mantova, 4 - Brentonico"}, {"id": 2443, "geometry": {"type": "Point", "coordinates": [10.956377, 45.817308]}, "name": "Farmacia", "geo": "Via Giuseppe Garibaldi, 9 Brentonico"}, {"id": 2445, "geometry": {"type": "Point", "coordinates": [10.954242, 45.816696]}, "name": "Scuola materna di Brentonico", "geo": "Via Mantova 4 - 38060 Brentonico (TN)"}, {"id": 2446, "geometry": {"type": "Point", "coordinates": [10.95674, 45.8189]}, "name": "Istituto comprensivo di Brentonico", "geo": "Via Calzolari 2 - 38060 Brentonico (TN)"}, {"id": 2447, "geometry": {"type": "Point", "coordinates": [10.953752, 45.816952]}, "name": "Asilo nido \"La coccinella\"", "geo": "Via Ospedale, 12 - 38060 Brentonico (TN)"}, {"id": 2448, "geometry": {"type": "Point", "coordinates": [10.9751, 45.81949]}, "name": "Scuola materna di Crosano", "geo": "Via S. Biagio 30 - 38060 Brentonico (TN)"}, {"id": 7022, "geometry": {"type": "Point", "coordinates": [10.95714, 45.818272]}, "name": "Azienda per il Turismo di Rovereto e Vallagarina - Ufficio Turistico di Brentonico", "geo": "Brentonico, Trentino-Alto Adige, 38060 , Italia"}, {"id": 2187, "geometry": {"type": "Point", "coordinates": [10.954383, 45.817148]}, "name": "Biblioteca comunale", "geo": "biblioteca Brentonico"}, {"id": 2188, "geometry": {"type": "Point", "coordinates": [10.968034, 45.825135]}, "name": "Assistente sociale", "geo": "Mori, Comunit&agrave; della Vallagarina, \u0422\u0440\u0435\u043d\u0442\u043e, Trentino-Alto Adige, 38065, Italia"}, {"id": 4359, "geometry": {"type": "Point", "coordinates": [10.954136, 45.816743]}, "name": "Palazzo Eccheli Baisi", "geo": "Brentonico, Trentino-Alto Adige, 38060 , Italia"}]}