{"records": [{"id": 7518, "geometry": {"type": "Point", "coordinates": [11.275742, 45.937918]}, "name": "Museo Forte Belvedere"}, {"id": 7560, "geometry": {"type": "Point", "coordinates": [11.171722, 45.916278]}, "name": "Biotopo di Ecken"}, {"id": 7728, "geometry": {"type": "Point", "coordinates": [11.171807, 45.915712]}, "name": "Santuario Madonna delle Grazie"}, {"id": 7769, "geometry": {"type": "Point", "coordinates": [11.171807, 45.915712]}, "name": "Campo da calcio La Pineta di Folgaria"}, {"id": 7770, "geometry": {"type": "Point", "coordinates": [11.285761, 45.947777]}, "name": "Campi sportivi Moar"}, {"id": 7782, "geometry": {"type": "Point", "coordinates": [11.171807, 45.915712]}, "name": "Cascata dell'Hofentol"}, {"id": 7784, "geometry": {"type": "Point", "coordinates": [11.17341, 45.91347]}, "name": "Palasport di Folgaria"}, {"id": 7836, "geometry": {"type": "Point", "coordinates": [11.171722, 45.916278]}, "name": "Baby Park Costa"}, {"id": 7837, "geometry": {"type": "Point", "coordinates": [11.275742, 45.937918]}, "name": "Neveland a Lavarone"}, {"id": 11271, "geometry": {"type": "Point", "coordinates": [11.274574, 45.939413]}, "name": "Palestra di roccia Prombis"}, {"id": 11345, "geometry": {"type": "Point", "coordinates": [11.226749, 45.935081]}, "name": "Centro Ippico Il Salice", "geo": "38064 Carbonare di Folgaria (TN)"}, {"id": 11435, "geometry": {"type": "Point", "coordinates": [11.341417, 45.925357]}, "name": "Centro documentazione Luserna - Haus von Prukk"}, {"id": 11436, "geometry": {"type": "Point", "coordinates": [11.171807, 45.915712]}, "name": "Maso Spilzi"}, {"id": 11459, "geometry": {"type": "Point", "coordinates": [11.341417, 45.925357]}, "name": "Forte Luserna"}, {"id": 11460, "geometry": {"type": "Point", "coordinates": [11.171807, 45.915712]}, "name": "Forte Sommo Alto"}, {"id": 11466, "geometry": {"type": "Point", "coordinates": [11.171807, 45.915712]}, "name": "Forte Cherle"}, {"id": 11483, "geometry": {"type": "Point", "coordinates": [11.171807, 45.915712]}, "name": "Golf Club Folgaria"}, {"id": 11492, "geometry": {"type": "Point", "coordinates": [11.285761, 45.947777]}, "name": "Lago di Lavarone"}, {"id": 11541, "geometry": {"type": "Point", "coordinates": [11.285761, 45.947777]}, "name": "Avez del Prinzep"}, {"id": 11549, "geometry": {"type": "Point", "coordinates": [11.285761, 45.947777]}, "name": "Nordic Walking Park Folgaria"}, {"id": 11572, "geometry": {"type": "Point", "coordinates": [11.171807, 45.915712]}, "name": "Giardino botanico di Passo Coe"}, {"id": 11580, "geometry": {"type": "Point", "coordinates": [11.171807, 45.915712]}, "name": "Sentiero geomorfologico di Mezzomonte"}, {"id": 11584, "geometry": {"type": "Point", "coordinates": [11.285761, 45.947777]}, "name": "Lavarone Wellness"}, {"id": 11672, "geometry": {"type": "Point", "coordinates": [11.285761, 45.947777]}, "name": "Prinze Snowpark"}, {"id": 11691, "geometry": {"type": "Point", "coordinates": [11.341417, 45.925357]}, "name": "Il Sentiero Cimbro dell'Immaginario - \"\"\"N\u00e5 in tritt von Sambin\u00e9lo\"\"\""}, {"id": 11708, "geometry": {"type": "Point", "coordinates": [11.171218, 45.916235]}, "name": "Trekking Lago delle Buse"}, {"id": 11722, "geometry": {"type": "Point", "coordinates": [11.285761, 45.947777]}, "name": "Trekking dei Forti"}, {"id": 12132, "geometry": {"type": "Point", "coordinates": [11.171807, 45.915712]}, "name": "Casa - Museo Grott"}, {"id": 12136, "geometry": {"type": "Point", "coordinates": [11.285761, 45.947777]}, "name": "Museo del Miele"}, {"id": 12139, "geometry": {"type": "Point", "coordinates": [11.341417, 45.925357]}, "name": "Centro di documentazione Luserna - Dokumentationszentrum Lusern Onlus"}, {"id": 13642, "geometry": {"type": "Point", "coordinates": [11.171807, 45.915712]}, "name": "Biotopo di Ecken"}, {"id": 13681, "geometry": {"type": "Point", "coordinates": [11.171807, 45.915712]}, "name": "Folgaria Megabike"}, {"id": 15430, "geometry": {"type": "Point", "coordinates": [11.274574, 45.939413]}, "name": "Biotopo di Malga Laghetto"}, {"id": 15491, "geometry": {"type": "Point", "coordinates": [11.285761, 45.947777]}, "name": "Chiesetta della Madonna di la Salette"}, {"id": 15618, "geometry": {"type": "Point", "coordinates": [11.171807, 45.915712]}, "name": "Longanorbait"}, {"id": 94098, "geometry": {"type": "Point", "coordinates": [11.171807, 45.915712]}, "name": "Base Tuono", "geo": "Psso Coe Folgaria"}, {"id": 94103, "geometry": {"type": "Point", "coordinates": [11.171807, 45.915712]}, "name": "Malga Zonta", "geo": "passo coe folgaria"}]}