{"type":"FeatureCollection","features":[{"id":1566,"geometry":{"type":"Point","coordinates":[11.116506,46.453388]},"type":"Feature","properties":{"id":1566,"name":"Castello di Castelfondo","class_identifier":"luogo","mainNodeId":"1135","geo":"castelfondo"}},{"id":1567,"geometry":{"type":"Point","coordinates":[11.116506,46.453388]},"type":"Feature","properties":{"id":1567,"name":"Castel Vigna","class_identifier":"luogo","mainNodeId":"1136","geo":"castelfondo"}},{"id":2388,"geometry":{"type":"Point","coordinates":[11.116506,46.453388]},"type":"Feature","properties":{"id":2388,"name":"Palestra","class_identifier":"luogo","mainNodeId":"1951","geo":"Via Madonna Pellegrina, 5   38020 Castelfondo TN"}},{"id":2389,"geometry":{"type":"Point","coordinates":[11.1167,46.453685]},"type":"Feature","properties":{"id":2389,"name":"Campo sportivo Villa","class_identifier":"luogo","mainNodeId":"1952","geo":"via forcola - Castelfondo"}},{"id":2390,"geometry":{"type":"Point","coordinates":[11.116506,46.453388]},"type":"Feature","properties":{"id":2390,"name":"Palestra di roccia","class_identifier":"luogo","mainNodeId":"1953","geo":"Castelfondo"}},{"id":2392,"geometry":{"type":"Point","coordinates":[11.116506,46.453388]},"type":"Feature","properties":{"id":2392,"name":"Ambulatorio medico","class_identifier":"luogo","mainNodeId":"1955","geo":"Via G. Cantore - Castelfondo"}},{"id":2393,"geometry":{"type":"Point","coordinates":[11.116506,46.453388]},"type":"Feature","properties":{"id":2393,"name":"Dispensario Farmaceutico","class_identifier":"luogo","mainNodeId":"1956","geo":"Via G. Cantore - Castelfondo"}},{"id":2394,"geometry":{"type":"Point","coordinates":[11.11612,46.45543]},"type":"Feature","properties":{"id":2394,"name":"Punto lettura","class_identifier":"luogo","mainNodeId":"1957","geo":"Via D. Alighieri, 70 - Castelfondo"}},{"id":2395,"geometry":{"type":"Point","coordinates":[11.116696,46.454861]},"type":"Feature","properties":{"id":2395,"name":"Cassa Rurale Novella E Alta Anaunia \u2013 Fondo","class_identifier":"luogo","mainNodeId":"1958","geo":"Via Dante Alighieri 17, 38020 - Castelfondo"}},{"id":2396,"geometry":{"type":"Point","coordinates":[11.116506,46.453388]},"type":"Feature","properties":{"id":2396,"name":"Ufficio Postale","class_identifier":"luogo","mainNodeId":"1959","geo":"Via G. Cantore - Castelfondo"}},{"id":2401,"geometry":{"type":"Point","coordinates":[11.116506,46.453388]},"type":"Feature","properties":{"id":2401,"name":"Percorso Ciclabile Rankipino","class_identifier":"luogo","mainNodeId":"1962","geo":"Castelfondo - rifugio Arnica"}},{"id":2407,"geometry":{"type":"Point","coordinates":[11.129841,46.454883]},"type":"Feature","properties":{"id":2407,"name":"Chiesa di Sant\u2019Antonio Abate - Dovena","class_identifier":"luogo","mainNodeId":"1967","geo":"Dovena - Castelfondo"}},{"id":2409,"geometry":{"type":"Point","coordinates":[11.119578,46.45893]},"type":"Feature","properties":{"id":2409,"name":"Chiesa della Madonna del Rosario - Raina","class_identifier":"luogo","mainNodeId":"1970","geo":"Raina - Castelfondo"}},{"id":2503,"geometry":{"type":"Point","coordinates":[11.116506,46.453388]},"type":"Feature","properties":{"id":2503,"name":"Malga Prardont","class_identifier":"luogo","mainNodeId":"2061","geo":"localit&agrave; Prardont - Castelfondo"}},{"id":2201,"geometry":{"type":"Point","coordinates":[11.129841,46.454883]},"type":"Feature","properties":{"id":2201,"name":"Dov\u00e9na","class_identifier":"luogo","mainNodeId":"1767","geo":"Dov&eacute;na - Castelfondo"}},{"id":2202,"geometry":{"type":"Point","coordinates":[11.119578,46.45893]},"type":"Feature","properties":{"id":2202,"name":"Ra\u00ecna","class_identifier":"luogo","mainNodeId":"1768","geo":"Ra&igrave;na - Castelfondo"}},{"id":2203,"geometry":{"type":"Point","coordinates":[11.116506,46.453388]},"type":"Feature","properties":{"id":2203,"name":"Chiesa parrocchiale di san Nicol\u00f2 vescovo","class_identifier":"luogo","mainNodeId":"1769","geo":"Castelfondo"}},{"id":1852,"geometry":{"type":"Point","coordinates":[11.116506,46.453388]},"type":"Feature","properties":{"id":1852,"name":"Malga Castrin","class_identifier":"luogo","mainNodeId":"1421","geo":"Castelfondo"}},{"id":5089,"geometry":{"type":"Point","coordinates":[11.129841,46.454883]},"type":"Feature","properties":{"id":5089,"name":"Area sosta camper","class_identifier":"luogo","mainNodeId":"4504","geo":"frazione Dovena - Castelfondo"}}],"query":{"string":"classes 'luogo'","eZFindQuery":{"_query":null,"SearchContentClassID":[359],"Filter":["subattr_geo___coordinates____gpt:[-90,-90 TO 90,90]"],"SearchLimit":500,"SearchOffset":0,"Limitation":null,"AsObjects":false,"FieldsToReturn":["as_opendatastorage_bst"]},"responseHeader":{"status":0,"QTime":0,"params":{"qt":"ezpublish","hl":"false","indent":"on","fl":"meta_guid_ms meta_installation_id_ms meta_main_url_alias_ms meta_installation_url_ms meta_id_si meta_main_node_id_si meta_language_code_ms meta_name_t score meta_published_dt meta_path_string_ms meta_main_path_string_ms meta_is_invisible_b [elevated]  as_opendatastorage_bst","hl.requireFieldMatch":"true","start":"0","hl.fragsize":"200","sort":"score desc","fq":["((meta_installation_id_ms:4417f5e72671335914fb5f6c2d8abaa0 AND (( ( meta_section_id_si:1 )) OR ( ( meta_path_si:512)) OR ( ( meta_contentclass_id_si:188 OR meta_contentclass_id_si:208 OR meta_contentclass_id_si:211 OR meta_contentclass_id_si:213 OR meta_contentclass_id_si:215 OR meta_contentclass_id_si:217 OR meta_contentclass_id_si:219 OR meta_contentclass_id_si:225 OR meta_contentclass_id_si:241 ) AND ( meta_section_id_si:3 )) OR ( ( meta_contentclass_id_si:304 )) OR ( ( meta_section_id_si:10 ) AND ( meta_object_states_si:3 OR meta_object_states_si:4 OR meta_object_states_si:6 )) OR ( ( meta_owner_id_si:10 ) AND ( meta_owner_group_id_si:44 ))))  ) AND meta_is_invisible_b:false","meta_contentclass_id_si:359","meta_language_code_ms:ita-IT","subattr_geo___coordinates____gpt:[-90,-90 TO 90,90]"],"rows":"500","version":"2.2","hl.simple.pre":"<b>","bq":"meta_installation_id_ms:4417f5e72671335914fb5f6c2d8abaa0^1.5 meta_language_code_ms:ita-IT^1.2","hl.snippets":"1","q":"","forceElevation":"false","enableElevation":"false","hl.simple.post":"<\/b>","qf":"attr_abstract_t attr_descrizione_t attr_email_t attr_geo_t attr_indirizzo_t attr_tags_lk attr_telefono_t attr_title_t subattr_geo___coordinates____gpt subattr_geo___geohash____gh submeta_comune___name____t submeta_tipo_luogo___name____t meta_name_t meta_owner_name_t","clustering":"false","hl.fl":"attr_abstract_t attr_descrizione_t attr_email_t attr_geo_t attr_indirizzo_t attr_tags_lk attr_telefono_t attr_title_t subattr_geo___coordinates____gpt subattr_geo___geohash____gh submeta_comune___name____t submeta_tipo_luogo___name____t","wt":"php"}}},"nextPageQuery":null,"totalCount":19,"facets":[]}